header: 
  seq: 764
  stamp: 
    secs: 1518209538
    nsecs: 912782669
  frame_id: "swarmone/map"
child_frame_id: "swarmone/base_link"
pose: 
  pose: 
    position: 
      x: 0.106863248326
      y: -0.235842521173
      z: 0.0
    orientation: 
      x: 0.0
      y: 0.0
      z: 0.692537217595
      w: 0.721382147163
  covariance: [2.4519802232308185, -0.050959346958063055, 0.0, 0.0, 0.0, 6.3021945533935495e-18, -0.05095934695806309, 1.2544616181823054, 0.0, 0.0, 0.0, 1.2283881318845536e-16, 0.0, 0.0, 6.771464563521824e-07, -3.2727018619451347e-15, 2.950278235145037e-18, 0.0, 0.0, 0.0, -3.2727018619451347e-15, 6.771465228942146e-07, 2.990746067893337e-26, 0.0, 0.0, 0.0, 2.950278235145038e-18, 2.990760360754928e-26, 6.771465228942147e-07, 0.0, 6.3021945533935495e-18, 1.2283881318845534e-16, 0.0, 0.0, 0.0, 8.087022201400792e-08]
twist: 
  twist: 
    linear: 
      x: -3.18332397423e-13
      y: -0.00393121456747
      z: 0.0
    angular: 
      x: 0.0
      y: 0.0
      z: 0.0400000000005
  covariance: [9.999999101790659e-10, 1.7191556423556892e-13, 0.0, 0.0, 0.0, 1.2924183639112916e-37, 1.7191556423556881e-13, 1.4912835302541165, 0.0, 0.0, 0.0, 2.2466534956583813e-29, 0.0, 0.0, 9.427722571680971e-07, -1.5382907926886546e-28, 3.853911360233099e-27, 0.0, 0.0, 0.0, -1.5382907926886548e-28, 6.771464563346566e-07, -1.4980206580598786e-35, 0.0, 0.0, 0.0, 3.8539113602330986e-27, 3.3039679849145295e-35, 6.771464563346566e-07, 0.0, 1.2924183639112918e-37, 2.2466534956583426e-29, 0.0, 0.0, 0.0, 1.5984044798812017e-06]
---
header: 
  seq: 765
  stamp: 
    secs: 1518209539
    nsecs:  12504578
  frame_id: "swarmone/map"
child_frame_id: "swarmone/base_link"
pose: 
  pose: 
    position: 
      x: 0.107275786832
      y: -0.235859425641
      z: 0.0
    orientation: 
      x: 0.0
      y: 0.0
      z: 0.696135494468
      w: 0.71791042153
  covariance: [2.777943242710739, -0.062174919951790676, 0.0, 0.0, 0.0, 5.240490190464138e-18, -0.0621749199517907, 1.334632467707637, 0.0, 0.0, 0.0, 1.456685695448531e-16, 0.0, 0.0, 6.980636334735768e-07, -3.592342027797028e-15, 2.6217026135818625e-18, 0.0, 0.0, 0.0, -3.592342027797029e-15, 6.980636995138145e-07, 3.1193105261191433e-26, 0.0, 0.0, 0.0, 2.6217026135818625e-18, 3.119326173566526e-26, 6.980636995138145e-07, 0.0, 5.240490190464137e-18, 1.4566856954485309e-16, 0.0, 0.0, 0.0, 9.159905805337353e-08]
twist: 
  twist: 
    linear: 
      x: -2.88280244013e-13
      y: -0.00434951330072
      z: 0.0
    angular: 
      x: 0.0
      y: 0.0
      z: 0.0400000000002
  covariance: [9.999999091878264e-10, 1.5809931848882372e-13, 0.0, 0.0, 0.0, 2.0762876238467041e-44, 1.5809931848882364e-13, 1.6153377194743062, 0.0, 0.0, 0.0, 4.2084692926178526e-36, 0.0, 0.0, 9.490311055378204e-07, -1.3639896131585107e-28, 4.535287497333321e-27, 0.0, 0.0, 0.0, -1.3639896131585112e-28, 6.980636334545804e-07, 1.8980182981646415e-35, 0.0, 0.0, 0.0, 4.535287497333324e-27, 3.6136410857645805e-36, 6.980636334545804e-07, 0.0, 2.0762876238467044e-44, 4.208469292617783e-36, 0.0, 0.0, 0.0, 1.8129812010715941e-06]
---
header: 
  seq: 766
  stamp: 
    secs: 1518209539
    nsecs: 112298250
  frame_id: "swarmone/map"
child_frame_id: "swarmone/base_link"
pose: 
  pose: 
    position: 
      x: 0.106744355921
      y: -0.237718780268
      z: 0.0
    orientation: 
      x: 0.0
      y: 0.0
      z: 0.688921693794
      w: 0.724835774379
  covariance: [2.311455706424696, -0.0463885265646338, 0.0, 0.0, 0.0, 2.7823205205927506e-15, -0.04638852656463377, 1.216740868597442, 0.0, 0.0, 0.0, 9.310175586654128e-14, 0.0, 0.0, 6.771448723096227e-07, -3.4805201638228972e-15, 2.734976187993897e-18, 0.0, 0.0, 0.0, -3.480520163822898e-15, 6.771449388224253e-07, 2.9489276854103415e-26, 0.0, 0.0, 0.0, 2.7349761879938967e-18, 2.9488423119792984e-26, 6.771449388224253e-07, 0.0, 2.7823205205927506e-15, 9.310175586654131e-14, 0.0, 0.0, 0.0, 8.087022203118536e-08]
twist: 
  twist: 
    linear: 
      x: -2.97698112398e-13
      y: -0.00418081141954
      z: 0.0
    angular: 
      x: 0.0
      y: 0.0
      z: 0.0399999988963
  covariance: [9.999999093874497e-10, 1.9213287431031903e-13, 0.0, 0.0, 0.0, 1.981493018618872e-30, 1.9213287431031903e-13, 1.4350734758483772, 0.0, 0.0, 0.0, -5.055506673184303e-22, 0.0, 0.0, 9.427722521891076e-07, -2.050602367589523e-28, 4.0969256682394434e-27, 0.0, 0.0, 0.0, -2.050602367589523e-28, 6.7714487229195e-07, -6.024090604579858e-36, 0.0, 0.0, 0.0, 4.096925668239444e-27, 4.819122410117968e-35, 6.7714487229195e-07, 0.0, 1.9814930186188726e-30, -5.055506673184249e-22, 0.0, 0.0, 0.0, 1.598404479879189e-06]
---
header: 
  seq: 767
  stamp: 
    secs: 1518209539
    nsecs: 211744785
  frame_id: "swarmone/map"
child_frame_id: "swarmone/base_link"
pose: 
  pose: 
    position: 
      x: 0.107179492438
      y: -0.237740968033
      z: 0.0
    orientation: 
      x: 0.0
      y: 0.0
      z: 0.692537248742
      w: 0.721382117262
  covariance: [2.617803874924028, -0.05844091999499311, 0.0, 0.0, 0.0, 6.975696576909561e-18, -0.058440919994993075, 1.2967520792490652, 0.0, 0.0, 0.0, 1.517080738093855e-16, 0.0, 0.0, 6.936530122676492e-07, -3.792999483157168e-15, 2.448621083119712e-18, 0.0, 0.0, 0.0, -3.792999483157168e-15, 6.936530784386717e-07, 3.0318882981789717e-26, 0.0, 0.0, 0.0, 2.448621083119712e-18, 3.0318118521925965e-26, 6.936530784386718e-07, 0.0, 6.975696576909561e-18, 1.517080738093855e-16, 0.0, 0.0, 0.0, 8.921487225679673e-08]
twist: 
  twist: 
    linear: 
      x: -2.69488742692e-13
      y: -0.00458174206425
      z: 0.0
    angular: 
      x: 0.0
      y: 0.0
      z: 0.0400000000002
  covariance: [9.999999088925233e-10, 1.7667768751394478e-13, 0.0, 0.0, 0.0, 1.8283500084728662e-37, 1.7667768751394473e-13, 1.555513902685689, 0.0, 0.0, 0.0, -5.177598302905574e-29, 0.0, 0.0, 9.477615083867096e-07, -1.8958238744341102e-28, 4.719288614445254e-27, 0.0, 0.0, 0.0, -1.8958238744341102e-28, 6.936530122489714e-07, 8.785888751079185e-36, 0.0, 0.0, 0.0, 4.719288614445254e-27, 8.682677163883628e-36, 6.936530122489714e-07, 0.0, 1.8283500084728673e-37, -5.177598302905518e-29, 0.0, 0.0, 0.0, 1.7652974852510044e-06]
---
header: 
  seq: 768
  stamp: 
    secs: 1518209539
    nsecs: 312263250
  frame_id: "swarmone/map"
child_frame_id: "swarmone/base_link"
pose: 
  pose: 
    position: 
      x: 0.109048148894
      y: -0.239547999424
      z: 0.0
    orientation: 
      x: 0.0
      y: 0.0
      z: 0.699716240228
      w: 0.714420872568
  covariance: [2.1773545645435055, -0.0444491464549296, 0.0, 0.0, 0.0, 1.7366048515423855e-15, -0.044449146454929575, 1.1786526601151854, 0.0, 0.0, 0.0, 4.616380882863751e-14, 0.0, 0.0, 6.82014596504085e-07, -4.876687638046399e-15, 2.5853694153081786e-18, 0.0, 0.0, 0.0, -4.876687638046399e-15, 6.820146463887641e-07, 3.9701935715489797e-26, 0.0, 0.0, 0.0, 2.585369415308178e-18, 3.9701960338263003e-26, 6.820146463887642e-07, 0.0, 1.736604851542386e-15, 4.6163808828637504e-14, 0.0, 0.0, 0.0, 8.325440780094871e-08]
twist: 
  twist: 
    linear: 
      x: -2.79932049492e-13
      y: -0.00586480001628
      z: 0.0
    angular: 
      x: 0.0
      y: 0.0
      z: 0.0300000012469
  covariance: [9.999999099725869e-10, 2.1238204019078755e-13, 0.0, 0.0, 0.0, 1.8503470247596524e-30, 2.123820401907876e-13, 1.3787168736684983, 0.0, 0.0, 0.0, -1.358220880669826e-21, 0.0, 0.0, 9.442923406748921e-07, -1.1838507506258765e-28, 5.840745461287702e-27, 0.0, 0.0, 0.0, -1.1838507506258767e-28, 6.820145964860869e-07, 2.996669151268596e-35, 0.0, 0.0, 0.0, 5.840745461287701e-27, -5.154183304060318e-36, 6.820145964860869e-07, 0.0, 1.850347024759653e-30, -1.358220880669827e-21, 0.0, 0.0, 0.0, 1.6460881957011744e-06]
---
header: 
  seq: 769
  stamp: 
    secs: 1518209539
    nsecs: 412153959
  frame_id: "swarmone/map"
child_frame_id: "swarmone/base_link"
pose: 
  pose: 
    position: 
      x: 0.1096552319
      y: -0.239560692993
      z: 0.0
    orientation: 
      x: 0.0
      y: 0.0
      z: 0.69613548075
      w: 0.717910434832
  covariance: [2.467229895964051, -0.051444102194799016, 0.0, 0.0, 0.0, 5.317674839559509e-18, -0.05144410219479898, 1.2587500407009107, 0.0, 0.0, 0.0, 2.0323714145348775e-16, 0.0, 0.0, 6.796125936575301e-07, -5.235972073159901e-15, 2.3248838143864454e-18, 0.0, 0.0, 0.0, -5.235972073159902e-15, 6.796126601883721e-07, 3.799590503338318e-26, 0.0, 0.0, 0.0, 2.324883814386445e-18, 3.799610699950806e-26, 6.796126601883722e-07, 0.0, 5.317674839559509e-18, 2.0323714145348775e-16, 0.0, 0.0, 0.0, 8.206231489268449e-08]
twist: 
  twist: 
    linear: 
      x: -2.53308914998e-13
      y: -0.00629277905566
      z: 0.0
    angular: 
      x: 0.0
      y: 0.0
      z: 0.0399999989985
  covariance: [9.999999093458543e-10, 1.9526819910475736e-13, 0.0, 0.0, 0.0, 1.7460582287920498e-37, 1.9526819910475743e-13, 1.496320101335422, 0.0, 0.0, 0.0, -1.4451795419210766e-28, 0.0, 0.0, 9.435425711307474e-07, -1.8885244896035987e-28, 6.220002769355803e-27, 0.0, 0.0, 0.0, -1.888524489603598e-28, 6.796125936398321e-07, 9.221427954616456e-36, 0.0, 0.0, 0.0, 6.220002769355802e-27, 1.9211946971022665e-35, 6.796125936398321e-07, 0.0, 1.7460582287920505e-37, -1.4451795419210777e-28, 0.0, 0.0, 0.0, 1.6222463377905161e-06]
---
header: 
  seq: 770
  stamp: 
    secs: 1518209539
    nsecs: 512008905
  frame_id: "swarmone/map"
child_frame_id: "swarmone/base_link"
pose: 
  pose: 
    position: 
      x: 0.110304647743
      y: -0.239580754015
      z: 0.0
    orientation: 
      x: 0.0
      y: 0.0
      z: 0.69253724602
      w: 0.721382119874
  covariance: [2.7954885396777183, -0.0609960184327014, 0.0, 0.0, 0.0, 7.85897625896333e-18, -0.060996018432701374, 1.338931535218896, 0.0, 0.0, 0.0, 2.1718358618471393e-16, 0.0, 0.0, 6.82041361456912e-07, -5.5884805896624586e-15, 2.1032983454872098e-18, 0.0, 0.0, 0.0, -5.588480589662459e-15, 6.820414279230013e-07, 3.696940290281462e-26, 0.0, 0.0, 0.0, 2.1032983454872098e-18, 3.6969453981893317e-26, 6.820414279230015e-07, 0.0, 7.858976258963331e-18, 2.1718358618471393e-16, 0.0, 0.0, 0.0, 8.325440778747251e-08]
twist: 
  twist: 
    linear: 
      x: -2.29365168063e-13
      y: -0.00672060495287
      z: 0.0
    angular: 
      x: 0.0
      y: 0.0
      z: 0.0399999999995
  covariance: [9.999999093207276e-10, 1.7960300147748773e-13, 0.0, 0.0, 0.0, 2.831888453862638e-44, 1.796030014774877e-13, 1.6208120128967074, 0.0, 0.0, 0.0, -2.6401588519125987e-35, 0.0, 0.0, 9.44292422966941e-07, -2.7060651139260077e-28, 6.691146006801136e-27, 0.0, 0.0, 0.0, -2.7060651139260064e-28, 6.820413614390492e-07, 1.5907363699974145e-35, 0.0, 0.0, 0.0, 6.691146006801133e-27, 4.861145943680284e-35, 6.820413614390492e-07, 0.0, 2.831888453862639e-44, -2.6401588519126014e-35, 0.0, 0.0, 0.0, 1.6460881957006359e-06]
---
header: 
  seq: 771
  stamp: 
    secs: 1518209539
    nsecs: 612684727
  frame_id: "swarmone/map"
child_frame_id: "swarmone/base_link"
pose: 
  pose: 
    position: 
      x: 0.114076635913
      y: -0.241336685475
      z: 0.0
    orientation: 
      x: 0.0
      y: 0.0
      z: 0.692537599932
      w: 0.721381780114
  covariance: [2.3234027802048973, -0.04681537458216096, 0.0, 0.0, 0.0, 8.517640527446934e-15, -0.046815374582160965, 1.2204048403144265, 0.0, 0.0, 0.0, 2.1677149949848727e-13, 0.0, 0.0, 8.229599529153043e-07, -5.878875741790923e-15, 1.7314897730147954e-18, 0.0, 0.0, 0.0, -5.878875741790923e-15, 8.229600048771888e-07, 5.750012031541347e-26, 0.0, 0.0, 0.0, 1.7314897730147952e-18, 5.74999456602266e-26, 8.22960004877189e-07, 0.0, 8.517640527446932e-15, 2.167714994984873e-13, 0.0, 0.0, 0.0, 2.0842416186438483e-07]
twist: 
  twist: 
    linear: 
      x: -2.39031538127e-13
      y: -0.00904326059855
      z: 0.0
    angular: 
      x: 0.0
      y: 0.0
      z: 0.0399999998054
  covariance: [9.999999102530148e-10, 2.0063594856423567e-13, 0.0, 0.0, 0.0, 3.410490544516145e-30, 2.0063594856423552e-13, 1.4376667690127996, 0.0, 0.0, 0.0, -3.0037153462767816e-21, 0.0, 0.0, 9.767359778440049e-07, -4.2172184514585245e-28, 1.0406665569419918e-26, 0.0, 0.0, 0.0, -4.217218451458523e-28, 8.229599528854745e-07, 1.031538224613229e-34, 0.0, 0.0, 0.0, 1.0406665569419921e-26, 9.749370893097284e-35, 8.229599528854745e-07, 0.0, 3.410490544516143e-30, -3.0037153462767873e-21, 0.0, 0.0, 0.0, 4.149483276266641e-06]
---
header: 
  seq: 772
  stamp: 
    secs: 1518209539
    nsecs: 712362289
  frame_id: "swarmone/map"
child_frame_id: "swarmone/base_link"
pose: 
  pose: 
    position: 
      x: 0.115001211096
      y: -0.241374474492
      z: 0.0
    orientation: 
      x: 0.0
      y: 0.0
      z: 0.696135463658
      w: 0.717910451406
  covariance: [2.631721419568952, -0.057317332043150426, 0.0, 0.0, 0.0, 2.0563071420887302e-17, -0.05731733204315045, 1.3005104531093183, 0.0, 0.0, 0.0, 5.389465655759808e-16, 0.0, 0.0, 6.771464288610384e-07, -7.928350371983417e-15, 1.9813959074669245e-18, 0.0, 0.0, 0.0, -7.928350371983417e-15, 6.771464954274926e-07, 4.8661825907904965e-26, 0.0, 0.0, 0.0, 1.9813959074669245e-18, 4.866176551434108e-26, 6.771464954274928e-07, 0.0, 2.0563071420887305e-17, 5.389465655759809e-16, 0.0, 0.0, 0.0, 8.087022199349621e-08]
twist: 
  twist: 
    linear: 
      x: -2.16292972963e-13
      y: -0.00952355496968
      z: 0.0
    angular: 
      x: 0.0
      y: 0.0
      z: 0.0400000000005
  covariance: [9.999999091222045e-10, 1.8438034703046928e-13, 0.0, 0.0, 0.0, 3.198894875442468e-37, 1.8438034703046923e-13, 1.558496735342868, 0.0, 0.0, 0.0, -3.182874068226466e-28, 0.0, 0.0, 9.427722570815855e-07, -2.8537760333988984e-28, 9.339620415372692e-27, 0.0, 0.0, 0.0, -2.8537760333988966e-28, 6.771464288434224e-07, 4.5373172547132764e-35, 0.0, 0.0, 0.0, 9.339620415372691e-27, 5.398276427063222e-35, 6.771464288434224e-07, 0.0, 3.19889487544247e-37, -3.1828740682264717e-28, 0.0, 0.0, 0.0, 1.598404479880171e-06]
---
header: 
  seq: 773
  stamp: 
    secs: 1518209539
    nsecs: 812021494
  frame_id: "swarmone/map"
child_frame_id: "swarmone/base_link"
pose: 
  pose: 
    position: 
      x: 0.117528077241
      y: -0.24284243313
      z: 0.0
    orientation: 
      x: 0.0
      y: 0.0
      z: 0.692537235714
      w: 0.721382129768
  covariance: [2.1831122143784203, -0.042355196310730314, 0.0, 0.0, 0.0, 2.1018522249885588e-15, -0.04235519631073033, 1.1806086991014066, 0.0, 0.0, 0.0, 7.678000365596147e-14, 0.0, 0.0, 6.746096966810528e-07, -9.144013289901157e-15, 2.0576317991090693e-18, 0.0, 0.0, 0.0, -9.144013289901157e-15, 6.746097632505805e-07, 5.791704087971739e-26, 0.0, 0.0, 0.0, 2.057631799109069e-18, 5.791719797469611e-26, 6.746097632505807e-07, 0.0, 2.1018522249885596e-15, 7.678000365596148e-14, 0.0, 0.0, 0.0, 7.9678129097153e-08]
twist: 
  twist: 
    linear: 
      x: -2.24522743384e-13
      y: -0.0109794405406
      z: 0.0
    angular: 
      x: 0.0
      y: 0.0
      z: 0.0399999998036
  covariance: [9.99999909120452e-10, 2.0722582112614376e-13, 0.0, 0.0, 0.0, 3.0723754408549443e-30, 2.072258211261436e-13, 1.379017340768839, 0.0, 0.0, 0.0, -8.226994449396277e-22, 0.0, 0.0, 9.419805287633699e-07, -4.332397379333617e-28, 1.0673026441558417e-26, 0.0, 0.0, 0.0, -4.332397379333618e-28, 6.746096966635515e-07, 3.9792645283985666e-35, 0.0, 0.0, 0.0, 1.0673026441558421e-26, 1.0342571644939582e-34, 6.746096966635515e-07, 0.0, 3.0723754408549457e-30, -8.226994449396254e-22, 0.0, 0.0, 0.0, 1.5745626219698728e-06]
---
header: 
  seq: 774
  stamp: 
    secs: 1518209539
    nsecs: 912536144
  frame_id: "swarmone/map"
child_frame_id: "swarmone/base_link"
pose: 
  pose: 
    position: 
      x: 0.118656484371
      y: -0.242888539173
      z: 0.0
    orientation: 
      x: 0.0
      y: 0.0
      z: 0.69971628542
      w: 0.714420828306
  covariance: [2.4749962083636254, -0.05221179663292794, 0.0, 0.0, 0.0, 1.106135419265331e-17, -0.05221179663292795, 1.2613589399195466, 0.0, 0.0, 0.0, 3.5706734382733675e-16, 0.0, 0.0, 6.720984532169717e-07, -9.573885098097132e-15, 1.878911367843264e-18, 0.0, 0.0, 0.0, -9.573885098097133e-15, 6.720985198482684e-07, 5.486337840257375e-26, 0.0, 0.0, 0.0, 1.8789113678432645e-18, 5.486356062538706e-26, 6.720985198482687e-07, 0.0, 1.1061354192653302e-17, 3.5706734382733666e-16, 0.0, 0.0, 0.0, 7.848603621856387e-08]
twist: 
  twist: 
    linear: 
      x: -2.03065945322e-13
      y: -0.0114918908749
      z: 0.0
    angular: 
      x: 0.0
      y: 0.0
      z: 0.0400000000005
  covariance: [9.99999909961715e-10, 1.9035309626798674e-13, 0.0, 0.0, 0.0, 2.888849222096632e-37, 1.903530962679867e-13, 1.4973540552491602, 0.0, 0.0, 0.0, -8.640605536241979e-29, 0.0, 0.0, 9.411667982511392e-07, -2.2839170084486103e-28, 1.1085861944915517e-26, 0.0, 0.0, 0.0, -2.28391700844861e-28, 6.720984531997857e-07, 3.533074292856726e-35, 0.0, 0.0, 0.0, 1.1085861944915518e-26, 4.3646942854862196e-35, 6.720984531997857e-07, 0.0, 2.888849222096632e-37, -8.640605536241954e-29, 0.0, 0.0, 0.0, 1.5507207640606685e-06]
---
header: 
  seq: 775
  stamp: 
    secs: 1518209540
    nsecs:  12151957
  frame_id: "swarmone/map"
child_frame_id: "swarmone/base_link"
pose: 
  pose: 
    position: 
      x: 0.119826300976
      y: -0.242912916472
      z: 0.0
    orientation: 
      x: 0.0
      y: 0.0
      z: 0.696135484911
      w: 0.717910430798
  covariance: [2.803010816343364, -0.06008351434147199, 0.0, 0.0, 0.0, 9.960776209343659e-18, -0.06008351434147202, 1.3412573145339421, 0.0, 0.0, 0.0, 3.8161231254901906e-16, 0.0, 0.0, 6.820413553783326e-07, -9.978347432146337e-15, 1.6821655744360715e-18, 0.0, 0.0, 0.0, -9.978347432146337e-15, 6.820414218681978e-07, 5.279327788563607e-26, 0.0, 0.0, 0.0, 1.6821655744360712e-18, 5.279337616771215e-26, 6.820414218681981e-07, 0.0, 9.960776209343657e-18, 3.8161231254901906e-16, 0.0, 0.0, 0.0, 8.325440778264715e-08]
twist: 
  twist: 
    linear: 
      x: -1.83911881289e-13
      y: -0.0119997587593
      z: 0.0
    angular: 
      x: 0.0
      y: 0.0
      z: 0.0399999999996
  covariance: [9.999999090830205e-10, 1.7502902404969032e-13, 0.0, 0.0, 0.0, 4.85275306630772e-44, 1.750290240496902e-13, 1.621558913669159, 0.0, 0.0, 0.0, -1.618749482614214e-35, 0.0, 0.0, 9.442924229482839e-07, -3.661627450121814e-28, 1.1951336824936739e-26, 0.0, 0.0, 0.0, -3.6616274501218125e-28, 6.820413553604745e-07, 6.576917472848414e-35, 0.0, 0.0, 0.0, 1.1951336824936736e-26, 6.659870871032872e-35, 6.820413553604745e-07, 0.0, 4.852753066307722e-44, -1.6187494826142098e-35, 0.0, 0.0, 0.0, 1.6460881957003947e-06]
---
header: 
  seq: 776
  stamp: 
    secs: 1518209540
    nsecs: 111743212
  frame_id: "swarmone/map"
child_frame_id: "swarmone/base_link"
pose: 
  pose: 
    position: 
      x: 0.123896726511
      y: -0.244361898615
      z: 0.0
    orientation: 
      x: 0.0
      y: 0.0
      z: 0.696135494774
      w: 0.717910421234
  covariance: [2.3250120608893456, -0.044722444516431224, 0.0, 0.0, 0.0, 9.812447940164877e-15, -0.04472244451643125, 1.2212860724215429, 0.0, 0.0, 0.0, 3.353500890566195e-13, 0.0, 0.0, 6.936513470103515e-07, -1.1802135708347276e-14, 1.7512454506301738e-18, 0.0, 0.0, 0.0, -1.1802135708347273e-14, 6.93651413206009e-07, 6.748113481281343e-26, 0.0, 0.0, 0.0, 1.751245450630174e-18, 6.748077968919417e-26, 6.936514132060095e-07, 0.0, 9.812447940164876e-15, 3.3535008905661945e-13, 0.0, 0.0, 0.0, 8.921487229227422e-08]
twist: 
  twist: 
    linear: 
      x: -1.92101222404e-13
      y: -0.0142562220737
      z: 0.0
    angular: 
      x: 0.0
      y: 0.0
      z: 0.0399999998097
  covariance: [9.999999091825115e-10, 1.9354540232975903e-13, 0.0, 0.0, 0.0, 5.684785650479423e-30, 1.9354540232975906e-13, 1.437190924560333, 0.0, 0.0, 0.0, -1.9731044635727304e-21, 0.0, 0.0, 9.477615035426196e-07, -4.50342365062159e-28, 1.468943517011733e-26, 0.0, 0.0, 0.0, -4.5034236506215885e-28, 6.93651346991539e-07, 1.0180469380886984e-34, 0.0, 0.0, 0.0, 1.4689435170117323e-26, 9.884455408645897e-35, 6.93651346991539e-07, 0.0, 5.684785650479427e-30, -1.9731044635727255e-21, 0.0, 0.0, 0.0, 1.7652974852499958e-06]
---
header: 
  seq: 777
  stamp: 
    secs: 1518209540
    nsecs: 212254047
  frame_id: "swarmone/map"
child_frame_id: "swarmone/base_link"
pose: 
  pose: 
    position: 
      x: 0.125357178799
      y: -0.244406933978
      z: 0.0
    orientation: 
      x: 0.0
      y: 0.0
      z: 0.696135484551
      w: 0.717910431147
  covariance: [2.6360347598750375, -0.05346491224119872, 0.0, 0.0, 0.0, 1.5777906975329322e-17, -0.05346491224119874, 1.3019581595343364, 0.0, 0.0, 0.0, 5.105893164384082e-16, 0.0, 0.0, 6.867900938531842e-07, -1.2303264230870618e-14, 1.601668594246696e-18, 0.0, 0.0, 0.0, -1.2303264230870618e-14, 6.867901602419699e-07, 6.292001075705883e-26, 0.0, 0.0, 0.0, 1.6016685942466962e-18, 6.29205474807817e-26, 6.867901602419704e-07, 0.0, 1.5777906975329322e-17, 5.105893164384083e-16, 0.0, 0.0, 0.0, 8.563859359159867e-08]
twist: 
  twist: 
    linear: 
      x: -1.7370288752e-13
      y: -0.0148181840693
      z: 0.0
    angular: 
      x: 0.0
      y: 0.0
      z: 0.0399999999999
  covariance: [9.999999099470198e-10, 1.777053794873026e-13, 0.0, 0.0, 0.0, 5.18863891497376e-37, 1.7770537948730277e-13, 1.5590164095077659, 0.0, 0.0, 0.0, -2.022182686835244e-28, 0.0, 0.0, 9.457339170037901e-07, -4.592727902883312e-28, 1.4971853260083745e-26, 0.0, 0.0, 0.0, -4.592727902883312e-28, 6.867900938349782e-07, 1.182630840295129e-34, 0.0, 0.0, 0.0, 1.4971853260083742e-26, 8.696446371878907e-35, 6.867900938349782e-07, 0.0, 5.188638914973765e-37, -2.0221826868352394e-28, 0.0, 0.0, 0.0, 1.693771911521603e-06]
---
header: 
  seq: 778
  stamp: 
    secs: 1518209540
    nsecs: 311769247
  frame_id: "swarmone/map"
child_frame_id: "swarmone/base_link"
pose: 
  pose: 
    position: 
      x: 0.128234997751
      y: -0.24401617509
      z: 0.0
    orientation: 
      x: 0.0
      y: 0.0
      z: 0.696135477704
      w: 0.717910437786
  covariance: [2.183349554440818, -0.03962128386050141, 0.0, 0.0, 0.0, 3.3763006457538157e-15, -0.03962128386050142, 1.1810417965489697, 0.0, 0.0, 0.0, 1.23826523086959e-13, 0.0, 0.0, 6.820135395644539e-07, -1.3491170173242946e-14, 1.3453844232591451e-18, 0.0, 0.0, 0.0, -1.349117017324295e-14, 6.820136060529078e-07, 5.716364439465736e-26, 0.0, 0.0, 0.0, 1.3453844232591451e-18, 5.716348750959848e-26, 6.820136060529083e-07, 0.0, 3.376300645753817e-15, 1.2382652308695904e-13, 0.0, 0.0, 0.0, 8.325440778085498e-08]
twist: 
  twist: 
    linear: 
      x: -1.47250163985e-13
      y: -0.0162247123163
      z: 0.0
    angular: 
      x: 0.0
      y: 0.0
      z: 0.0399999999389
  covariance: [9.999999089785919e-10, 1.9678830208566325e-13, 0.0, 0.0, 0.0, 5.4622572939502434e-30, 1.967883020856636e-13, 1.3786778231992747, 0.0, 0.0, 0.0, -2.06101858583795e-21, 0.0, 0.0, 9.44292337420658e-07, -4.960206112519989e-28, 1.6153730039567146e-26, 0.0, 0.0, 0.0, -4.960206112519992e-28, 6.820135395464528e-07, 1.188492790530806e-34, 0.0, 0.0, 0.0, 1.615373003956715e-26, 1.2215749225557845e-34, 6.820135395464528e-07, 0.0, 5.4622572939502434e-30, -2.061018585837938e-21, 0.0, 0.0, 0.0, 1.6460881957001776e-06]
---
header: 
  seq: 779
  stamp: 
    secs: 1518209540
    nsecs: 411767483
  frame_id: "swarmone/map"
child_frame_id: "swarmone/base_link"
pose: 
  pose: 
    position: 
      x: 0.129885820112
      y: -0.244067070003
      z: 0.0
    orientation: 
      x: 0.0
      y: 0.0
      z: 0.692537296747
      w: 0.721382071176
  covariance: [2.473526577025679, -0.04761982143045999, 0.0, 0.0, 0.0, 1.9458959534309738e-17, -0.047619821430459994, 1.2612773478079287, 0.0, 0.0, 0.0, 5.43338664906338e-16, 0.0, 0.0, 6.771464372081542e-07, -1.3992608817170923e-14, 1.2253630182460987e-18, 0.0, 0.0, 0.0, -1.3992608817170926e-14, 6.771465203859673e-07, 5.311308455165889e-26, 0.0, 0.0, 0.0, 1.2253630182460987e-18, 5.311359250306677e-26, 6.77146520385968e-07, 0.0, 1.945895953430974e-17, 5.433386649063381e-16, 0.0, 0.0, 0.0, 8.087022199932667e-08]
twist: 
  twist: 
    linear: 
      x: -1.3323634078e-13
      y: -0.0168080045138
      z: 0.0
    angular: 
      x: 0.0
      y: 0.0
      z: 0.0499999989995
  covariance: [9.999999094524146e-10, 1.8081271043710207e-13, 0.0, 0.0, 0.0, 5.155423883353971e-37, 1.8081271043710227e-13, 1.4963691903221121, 0.0, 0.0, 0.0, -2.1886839253579554e-28, 0.0, 0.0, 9.42772257107931e-07, -6.71139994959317e-28, 1.6477090408233244e-26, 0.0, 0.0, 0.0, -6.711399949593173e-28, 6.771464371906209e-07, 1.5351937470800308e-34, 0.0, 0.0, 0.0, 1.6477090408233238e-26, 1.7501677469346559e-34, 6.771464371906209e-07, 0.0, 5.155423883353968e-37, -2.188683925357943e-28, 0.0, 0.0, 0.0, 1.5984044798804675e-06]
---
header: 
  seq: 780
  stamp: 
    secs: 1518209540
    nsecs: 512275457
  frame_id: "swarmone/map"
child_frame_id: "swarmone/base_link"
pose: 
  pose: 
    position: 
      x: 0.131603189568
      y: -0.244137188563
      z: 0.0
    orientation: 
      x: 0.0
      y: 0.0
      z: 0.699716292947
      w: 0.714420820935
  covariance: [2.804012909803706, -0.05856844151514759, 0.0, 0.0, 0.0, 1.708866023189372e-17, -0.05856844151514761, 1.3420481592574498, 0.0, 0.0, 0.0, 5.541054471668229e-16, 0.0, 0.0, 6.771464504241746e-07, -1.4480671960917957e-14, 1.1149778320827632e-18, 0.0, 0.0, 0.0, -1.4480671960917954e-14, 6.771465170075689e-07, 5.00178064152056e-26, 0.0, 0.0, 0.0, 1.1149778320827632e-18, 5.0017575870578124e-26, 6.771465170075695e-07, 0.0, 1.7088660231893717e-17, 5.541054471668229e-16, 0.0, 0.0, 0.0, 8.087022200945859e-08]
twist: 
  twist: 
    linear: 
      x: -1.20567806642e-13
      y: -0.017394270072
      z: 0.0
    angular: 
      x: 0.0
      y: 0.0
      z: 0.0400000009954
  covariance: [9.999999099655432e-10, 1.6612421528947273e-13, 0.0, 0.0, 0.0, 8.364863651401356e-44, 1.661242152894729e-13, 1.6216621020345894, 0.0, 0.0, 0.0, -3.994349513814595e-35, 0.0, 0.0, 9.427722571494677e-07, -3.5355361783617583e-28, 1.7062291554356992e-26, 0.0, 0.0, 0.0, -3.5355361783617574e-28, 6.77146450406645e-07, 9.32989772008743e-35, 0.0, 0.0, 0.0, 1.7062291554356995e-26, 9.783083682720145e-35, 6.77146450406645e-07, 0.0, 8.364863651401355e-44, -3.994349513814571e-35, 0.0, 0.0, 0.0, 1.5984044798809743e-06]
---
header: 
  seq: 781
  stamp: 
    secs: 1518209540
    nsecs: 612253428
  frame_id: "swarmone/map"
child_frame_id: "swarmone/base_link"
pose: 
  pose: 
    position: 
      x: 0.135718169632
      y: -0.24396930624
      z: 0.0
    orientation: 
      x: 0.0
      y: 0.0
      z: 0.699716306404
      w: 0.714420807754
  covariance: [2.322202964114181, -0.04223507349222789, 0.0, 0.0, 0.0, 8.899338365457764e-15, -0.04223507349222787, 1.2208894033228401, 0.0, 0.0, 0.0, 4.659767664725501e-13, 0.0, 0.0, 6.771444197467483e-07, -1.615691734727918e-14, 9.514844095923055e-19, 0.0, 0.0, 0.0, -1.6156917347279183e-14, 6.771444863310182e-07, 4.763055880066064e-26, 0.0, 0.0, 0.0, 9.51484409592305e-19, 4.763048901448122e-26, 6.771444863310191e-07, 0.0, 8.899338365457765e-15, 4.659767664725501e-13, 0.0, 0.0, 0.0, 8.087022202963855e-08]
twist: 
  twist: 
    linear: 
      x: -1.03341701829e-13
      y: -0.0194076304275
      z: 0.0
    angular: 
      x: 0.0
      y: 0.0
      z: 0.0399999998063
  covariance: [9.99999909565287e-10, 1.8806949032416388e-13, 0.0, 0.0, 0.0, 8.619479385442578e-30, 1.88069490324164e-13, 1.4358871314715196, 0.0, 0.0, 0.0, 1.5743029428068487e-21, 0.0, 0.0, 9.427722507665358e-07, -3.948566879564854e-28, 1.9038065364877566e-26, 0.0, 0.0, 0.0, -3.9485668795648525e-28, 6.771444197290713e-07, 1.1913493468238202e-34, 0.0, 0.0, 0.0, 1.9038065364877566e-26, 1.1393298296525586e-34, 6.771444197290713e-07, 0.0, 8.619479385442576e-30, 1.5743029428068564e-21, 0.0, 0.0, 0.0, 1.5984044798792552e-06]
---
header: 
  seq: 782
  stamp: 
    secs: 1518209540
    nsecs: 712629795
  frame_id: "swarmone/map"
child_frame_id: "swarmone/base_link"
pose: 
  pose: 
    position: 
      x: 0.137697218379
      y: -0.244010499401
      z: 0.0
    orientation: 
      x: 0.0
      y: 0.0
      z: 0.696135474586
      w: 0.717910440809
  covariance: [2.6322860320218786, -0.04909753537177378, 0.0, 0.0, 0.0, 1.638020450061264e-17, -0.04909753537177376, 1.3013614051048166, 0.0, 0.0, 0.0, 6.348428355420506e-16, 0.0, 0.0, 6.746420272868231e-07, -1.6684754053975258e-14, 8.632655493412636e-19, 0.0, 0.0, 0.0, -1.6684754053975258e-14, 6.746420938804423e-07, 4.427440872722839e-26, 0.0, 0.0, 0.0, 8.632655493412636e-19, 4.42745687099451e-26, 6.746420938804431e-07, 0.0, 1.638020450061264e-17, 6.348428355420506e-16, 0.0, 0.0, 0.0, 7.967812911133895e-08]
twist: 
  twist: 
    linear: 
      x: -9.34494066907e-14
      y: -0.0200334698461
      z: 0.0
    angular: 
      x: 0.0
      y: 0.0
      z: 0.0399999999996
  covariance: [9.999999098146984e-10, 1.727273529550768e-13, 0.0, 0.0, 0.0, 7.865792387526545e-37, 1.72727352955077e-13, 1.5574691227589177, 0.0, 0.0, 0.0, 1.6695826876022771e-28, 0.0, 0.0, 9.419806317614909e-07, -5.992790530297945e-28, 1.94857590155677e-26, 0.0, 0.0, 0.0, -5.992790530297945e-28, 6.746420272694615e-07, 1.768300520555583e-34, 0.0, 0.0, 0.0, 1.9485759015567708e-26, 1.7751669256157414e-34, 6.746420272694615e-07, 0.0, 7.86579238752654e-37, 1.669582687602285e-28, 0.0, 0.0, 0.0, 1.5745626219706879e-06]
---
header: 
  seq: 783
  stamp: 
    secs: 1518209540
    nsecs: 812105417
  frame_id: "swarmone/map"
child_frame_id: "swarmone/base_link"
pose: 
  pose: 
    position: 
      x: 0.140060402461
      y: -0.24384606503
      z: 0.0
    orientation: 
      x: 0.0
      y: 0.0
      z: 0.692537696665
      w: 0.721381687249
  covariance: [2.181134592572735, -0.03665458739834327, 0.0, 0.0, 0.0, 4.479602980239543e-15, -0.036654587398343215, 1.1806626721338738, 0.0, 0.0, 0.0, 1.6410482610603846e-13, 0.0, 0.0, 8.404615105488057e-07, -1.2654680638257086e-14, 5.316545998199049e-19, 0.0, 0.0, 0.0, -1.2654680638257086e-14, 8.404615590308872e-07, 4.218706177091357e-26, 0.0, 0.0, 0.0, 5.316545998199049e-19, 4.218701250199951e-26, 8.404615590308883e-07, 0.0, 4.479602980239545e-15, 1.6410482610603846e-13, 0.0, 0.0, 0.0, 2.39418577092942e-07]
twist: 
  twist: 
    linear: 
      x: -7.96857001389e-14
      y: -0.0208632988778
      z: 0.0
    angular: 
      x: 0.0
      y: 0.0
      z: 0.0399999997798
  covariance: [9.999999089389914e-10, 1.907900566949985e-13, 0.0, 0.0, 0.0, 6.99253582049112e-30, 1.9079005669499858e-13, 1.37821481129063, 0.0, 0.0, 0.0, -3.4185820299936955e-21, 0.0, 0.0, 9.796680552236963e-07, -9.494640660570238e-28, 2.3276536513536875e-26, 0.0, 0.0, 0.0, -9.494640660570238e-28, 8.40461510517212e-07, 5.372112100211303e-34, 0.0, 0.0, 0.0, 2.327653651353687e-26, 6.533373874466232e-34, 8.40461510517212e-07, 0.0, 6.992535820491123e-30, -3.418582029993693e-21, 0.0, 0.0, 0.0, 4.769371581930567e-06]
---
header: 
  seq: 784
  stamp: 
    secs: 1518209540
    nsecs: 911895752
  frame_id: "swarmone/map"
child_frame_id: "swarmone/base_link"
pose: 
  pose: 
    position: 
      x: 0.142171939405
      y: -0.243932274175
      z: 0.0
    orientation: 
      x: 0.0
      y: 0.0
      z: 0.692537228477
      w: 0.721382136717
  covariance: [2.4701745462672244, -0.04585853269789523, 0.0, 0.0, 0.0, 5.5165281804626006e-17, -0.04585853269789519, 1.260784529970749, 0.0, 0.0, 0.0, 1.3508460266284493e-15, 0.0, 0.0, 6.746420118457506e-07, -1.78991007676047e-14, 6.622734268837491e-19, 0.0, 0.0, 0.0, -1.7899100767604703e-14, 6.74642078416199e-07, 3.644940143114142e-26, 0.0, 0.0, 0.0, 6.622734268837491e-19, 3.644936523141008e-26, 6.746420784161999e-07, 0.0, 5.5165281804626006e-17, 1.350846026628449e-15, 0.0, 0.0, 0.0, 7.967812910040108e-08]
twist: 
  twist: 
    linear: 
      x: -7.21153417964e-14
      y: -0.0214914296917
      z: 0.0
    angular: 
      x: 0.0
      y: 0.0
      z: 0.0399999999996
  covariance: [9.99999909245291e-10, 1.7540455964646778e-13, 0.0, 0.0, 0.0, 7.110308985125937e-37, 1.7540455964646778e-13, 1.4956394863693263, 0.0, 0.0, 0.0, -3.9250003678628773e-28, 0.0, 0.0, 9.419806317122435e-07, -8.522166464513435e-28, 2.0896940563721914e-26, 0.0, 0.0, 0.0, -8.522166464513433e-28, 6.746420118282895e-07, 2.568319849254627e-34, 0.0, 0.0, 0.0, 2.089694056372192e-26, 2.6531271567318975e-34, 6.746420118282895e-07, 0.0, 7.110308985125936e-37, -3.925000367862875e-28, 0.0, 0.0, 0.0, 1.5745626219701345e-06]
---
header: 
  seq: 785
  stamp: 
    secs: 1518209541
    nsecs:  12344599
  frame_id: "swarmone/map"
child_frame_id: "swarmone/base_link"
pose: 
  pose: 
    position: 
      x: 0.144360660967
      y: -0.244021630931
      z: 0.0
    orientation: 
      x: 0.0
      y: 0.0
      z: 0.692537685973
      w: 0.721381697514
  covariance: [2.7999483763099873, -0.05664294554514894, 0.0, 0.0, 0.0, 5.702090465028972e-17, -0.05664294554514889, 1.3414957249526358, 0.0, 0.0, 0.0, 1.3959432541166919e-15, 0.0, 0.0, 8.398591998044997e-07, -1.3458734128798692e-14, 4.416294528277729e-19, 0.0, 0.0, 0.0, -1.3458734128798698e-14, 8.398592484292852e-07, 3.711827561744442e-26, 0.0, 0.0, 0.0, 4.416294528277729e-19, 3.711842294551161e-26, 8.398592484292862e-07, 0.0, 5.702090465028972e-17, 1.395943254116692e-15, 0.0, 0.0, 0.0, 2.3822648421668473e-07]
twist: 
  twist: 
    linear: 
      x: -6.52625490033e-14
      y: -0.0221237055351
      z: 0.0
    angular: 
      x: 0.0
      y: 0.0
      z: 0.0399999999999
  covariance: [9.999999099068016e-10, 1.6123274053786043e-13, 0.0, 0.0, 0.0, 1.0995830681229772e-43, 1.612327405378604e-13, 1.6208272931533478, 0.0, 0.0, 0.0, -6.851585920531656e-35, 0.0, 0.0, 9.795690269092653e-07, -1.0097652342016857e-27, 2.4757584851157442e-26, 0.0, 0.0, 0.0, -1.0097652342016855e-27, 8.398591997730012e-07, 5.860110578124469e-34, 0.0, 0.0, 0.0, 2.4757584851157447e-26, 7.188015071568149e-34, 8.398591997730012e-07, 0.0, 1.0995830681229774e-43, -6.851585920531654e-35, 0.0, 0.0, 0.0, 4.74552972402151e-06]
---
header: 
  seq: 786
  stamp: 
    secs: 1518209541
    nsecs: 112346649
  frame_id: "swarmone/map"
child_frame_id: "swarmone/base_link"
pose: 
  pose: 
    position: 
      x: 0.145718334356
      y: -0.242260496078
      z: 0.0
    orientation: 
      x: 0.0
      y: 0.0
      z: 0.696135456908
      w: 0.717910457951
  covariance: [2.323813421813902, -0.0437600808303277, 0.0, 0.0, 0.0, 2.0399634631178272e-14, -0.043760080830327674, 1.2217883270676997, 0.0, 0.0, 0.0, 5.201704708854421e-13, 0.0, 0.0, 6.720966462655909e-07, -1.8496377681807273e-14, 2.157118434752225e-19, 0.0, 0.0, 0.0, -1.8496377681807267e-14, 6.720967128810471e-07, 1.2189957787515098e-26, 0.0, 0.0, 0.0, 2.1571184347522248e-19, 1.2190241567823837e-26, 6.720967128810481e-07, 0.0, 2.0399634631178272e-14, 5.201704708854421e-13, 0.0, 0.0, 0.0, 7.848603624295911e-08]
twist: 
  twist: 
    linear: 
      x: -2.33623481787e-14
      y: -0.0222016499702
      z: 0.0
    angular: 
      x: 0.0
      y: 0.0
      z: 0.0400000002834
  covariance: [9.999999095928622e-10, 1.8545215069616426e-13, 0.0, 0.0, 0.0, 2.858510493027799e-29, 1.8545215069616403e-13, 1.4380862403739851, 0.0, 0.0, 0.0, -2.859863168946857e-20, 0.0, 0.0, 9.411667924317331e-07, -6.594011423609798e-28, 2.1412927251806713e-26, 0.0, 0.0, 0.0, -6.594011423609794e-28, 6.720966462482467e-07, 2.0339951072892243e-34, 0.0, 0.0, 0.0, 2.141292725180671e-26, 2.1293128928969918e-34, 6.720966462482467e-07, 0.0, 2.858510493027797e-29, -2.8598631689468635e-20, 0.0, 0.0, 0.0, 1.5507207640590547e-06]
---
header: 
  seq: 787
  stamp: 
    secs: 1518209541
    nsecs: 212021589
  frame_id: "swarmone/map"
child_frame_id: "swarmone/base_link"
pose: 
  pose: 
    position: 
      x: 0.147960708955
      y: -0.242329587351
      z: 0.0
    orientation: 
      x: 0.0
      y: 0.0
      z: 0.692537239154
      w: 0.721382126466
  covariance: [2.6318345780743755, -0.052361505069505564, 0.0, 0.0, 0.0, 2.5785786585913536e-17, -0.052361505069505515, 1.3017854543485652, 0.0, 0.0, 0.0, 7.182295367481716e-16, 0.0, 0.0, 6.771464287525879e-07, -1.899212814156789e-14, 1.9419867297290746e-19, 0.0, 0.0, 0.0, -1.8992128141567888e-14, 6.771464952945866e-07, 1.1431617646515565e-26, 0.0, 0.0, 0.0, 1.9419867297290758e-19, 1.1431635795136653e-26, 6.771464952945876e-07, 0.0, 2.5785786585913533e-17, 7.182295367481713e-16, 0.0, 0.0, 0.0, 8.087022199281666e-08]
twist: 
  twist: 
    linear: 
      x: -2.11422753798e-14
      y: -0.0228134513442
      z: 0.0
    angular: 
      x: 0.0
      y: 0.0
      z: 0.0399999999996
  covariance: [9.99999909120306e-10, 1.7049190808565232e-13, 0.0, 0.0, 0.0, 2.6287191053028427e-36, 1.7049190808565204e-13, 1.5589500123137685, 0.0, 0.0, 0.0, -2.9744640556292316e-27, 0.0, 0.0, 9.427722570813662e-07, -9.126655370760355e-28, 2.2364218998647163e-26, 0.0, 0.0, 0.0, -9.126655370760348e-28, 6.7714642873506e-07, 2.763363468311433e-34, 0.0, 0.0, 0.0, 2.2364218998647157e-26, 3.240050368968848e-34, 6.7714642873506e-07, 0.0, 2.628719105302844e-36, -2.9744640556292392e-27, 0.0, 0.0, 0.0, 1.5984044798801423e-06]
---
header: 
  seq: 788
  stamp: 
    secs: 1518209541
    nsecs: 312618494
  frame_id: "swarmone/map"
child_frame_id: "swarmone/base_link"
pose: 
  pose: 
    position: 
      x: 0.152969574437
      y: -0.241217496129
      z: 0.0
    orientation: 
      x: 0.0
      y: 0.0
      z: 0.699716285434
      w: 0.714420828293
  covariance: [2.184057448757241, -0.040157038458792885, 0.0, 0.0, 0.0, 8.366676253854357e-15, -0.04015703845879281, 1.1819668381411361, 0.0, 0.0, 0.0, 2.2514969708911092e-13, 0.0, 0.0, 6.720741583584602e-07, -2.0898707786141958e-14, -7.148843674140371e-20, 0.0, 0.0, 0.0, -2.0898707786141945e-14, 6.72074224990317e-07, -4.53646343389441e-27, 0.0, 0.0, 0.0, -7.148843674140368e-20, -4.5365977251318796e-27, 6.720742249903183e-07, 0.0, 8.366676253854356e-15, 2.2514969708911084e-13, 0.0, 0.0, 0.0, 7.848603622053715e-08]
twist: 
  twist: 
    linear: 
      x: 7.75912318176e-15
      y: -0.0250855160458
      z: 0.0
    angular: 
      x: 0.0
      y: 0.0
      z: 0.0400000002852
  covariance: [9.99999910050908e-10, 1.9574733129748112e-13, 0.0, 0.0, 0.0, 9.09838007616054e-30, 1.9574733129748092e-13, 1.381012120699219, 0.0, 0.0, 0.0, -8.209049440802448e-21, 0.0, 0.0, 9.41166719928156e-07, -5.034014275399862e-28, 2.4196506971276094e-26, 0.0, 0.0, 0.0, -5.03401427539986e-28, 6.720741583411191e-07, 1.8322584848171062e-34, 0.0, 0.0, 0.0, 2.4196506971276083e-26, 1.7814177983908026e-34, 6.720741583411191e-07, 0.0, 9.098380076160544e-30, -8.209049440802442e-21, 0.0, 0.0, 0.0, 1.5507207640605897e-06]
---
header: 
  seq: 789
  stamp: 
    secs: 1518209541
    nsecs: 412496328
  frame_id: "swarmone/map"
child_frame_id: "swarmone/base_link"
pose: 
  pose: 
    position: 
      x: 0.155507472717
      y: -0.241270289235
      z: 0.0
    orientation: 
      x: 0.0
      y: 0.0
      z: 0.696135248686
      w: 0.717910659857
  covariance: [2.474085505530898, -0.046716866345852225, 0.0, 0.0, 0.0, 2.13504278459678e-17, -0.04671686634585216, 1.262035683224633, 0.0, 0.0, 0.0, 8.225743658302261e-16, 0.0, 0.0, 6.820413620350927e-07, -2.1408607201968295e-14, -6.434767489012123e-20, 0.0, 0.0, 0.0, -2.140860720196829e-14, 6.82041362033974e-07, -4.326577827815703e-27, 0.0, 0.0, 0.0, -6.434767489012122e-20, -4.326577580874784e-27, 6.820413620339754e-07, 0.0, 2.1350427845967798e-17, 8.22574365830226e-16, 0.0, 0.0, 0.0, 8.32544077879143e-08]
twist: 
  twist: 
    linear: 
      x: 7.02078426839e-15
      y: -0.0257455292803
      z: 0.0
    angular: 
      x: 0.0
      y: 0.0
      z: 4.00449558929e-09
  covariance: [9.99999909331187e-10, 1.7995053660013976e-13, 0.0, 0.0, 0.0, 8.527054045420976e-37, 1.799505366001395e-13, 1.4987293546113816, 0.0, 0.0, 0.0, -8.700752099404278e-28, 0.0, 0.0, 9.442924229687219e-07, -7.9000455094935215e-28, 2.5641552862140723e-26, 0.0, 0.0, 0.0, -7.900045509493519e-28, 6.820413620172277e-07, 2.769495951351857e-34, 0.0, 0.0, 0.0, 2.5641552862140712e-26, 3.29228023502908e-34, 6.820413620172277e-07, 0.0, 8.52705404542097e-37, -8.700752099404271e-28, 0.0, 0.0, 0.0, 1.646088195700658e-06]
---
header: 
  seq: 790
  stamp: 
    secs: 1518209541
    nsecs: 512149811
  frame_id: "swarmone/map"
child_frame_id: "swarmone/base_link"
pose: 
  pose: 
    position: 
      x: 0.158104684462
      y: -0.2413503062
      z: 0.0
    orientation: 
      x: 0.0
      y: 0.0
      z: 0.69253723971
      w: 0.721382125932
  covariance: [2.8018690836929623, -0.0558017083893993, 0.0, 0.0, 0.0, 3.0823224068218884e-17, -0.05580170838939924, 1.3420275261875538, 0.0, 0.0, 0.0, 8.615926194487421e-16, 0.0, 0.0, 6.796125875414434e-07, -2.1969854622577572e-14, -5.762857628902965e-20, 0.0, 0.0, 0.0, -2.1969854622577572e-14, 6.796126540473904e-07, -3.9517846334394044e-27, 0.0, 0.0, 0.0, -5.762857628902966e-20, -3.952042290982625e-27, 6.796126540473919e-07, 0.0, 3.0823224068218884e-17, 8.615926194487421e-16, 0.0, 0.0, 0.0, 8.206231488791831e-08]
twist: 
  twist: 
    linear: 
      x: 6.35847336477e-15
      y: -0.0264040599494
      z: 0.0
    angular: 
      x: 0.0
      y: 0.0
      z: 0.0399999959858
  covariance: [9.999999091185233e-10, 1.655319170996632e-13, 0.0, 0.0, 0.0, 1.3234266548630254e-43, 1.6553191709966297e-13, 1.623096153836284, 0.0, 0.0, 0.0, -1.5249152439734785e-34, 0.0, 0.0, 9.435425711117517e-07, -1.0650119171772778e-27, 2.608911700100133e-26, 0.0, 0.0, 0.0, -1.0650119171772778e-27, 6.796125875237368e-07, 4.186203457486253e-34, 0.0, 0.0, 0.0, 2.6089117001001316e-26, 4.0554761860926485e-34, 6.796125875237368e-07, 0.0, 1.3234266548630248e-43, -1.5249152439734768e-34, 0.0, 0.0, 0.0, 1.6222463377902777e-06]
---
header: 
  seq: 791
  stamp: 
    secs: 1518209541
    nsecs: 611756802
  frame_id: "swarmone/map"
child_frame_id: "swarmone/base_link"
pose: 
  pose: 
    position: 
      x: 0.166348268392
      y: -0.239197562625
      z: 0.0
    orientation: 
      x: 0.0
      y: 0.0
      z: 0.692537290344
      w: 0.721382077323
  covariance: [2.321987744789433, -0.04309728243027971, 0.0, 0.0, 0.0, 2.7712416463134592e-14, -0.0430972824302797, 1.221321980382207, 0.0, 0.0, 0.0, 7.062880783122999e-13, 0.0, 0.0, 7.145038898323259e-07, -2.4851557567251455e-14, -4.826323945225755e-19, 0.0, 0.0, 0.0, -2.4851557567251462e-14, 7.145039550683096e-07, -4.19868914106121e-26, 0.0, 0.0, 0.0, -4.826323945225754e-19, -4.198654155971253e-26, 7.145039550683117e-07, 0.0, 2.771241646313459e-14, 7.062880783122998e-13, 0.0, 0.0, 0.0, 1.0113580124950666e-07]
twist: 
  twist: 
    linear: 
      x: 5.38024527367e-14
      y: -0.0304496820373
      z: 0.0
    angular: 
      x: 0.0
      y: 0.0
      z: 0.039999999813
  covariance: [9.999999091987507e-10, 1.828911120236905e-13, 0.0, 0.0, 0.0, 1.141951709607617e-29, 1.828911120236898e-13, 1.4388256115101443, 0.0, 0.0, 0.0, -1.1741248856541934e-20, 0.0, 0.0, 9.535470465086853e-07, -1.3483378007751465e-27, 3.301635303857095e-26, 0.0, 0.0, 0.0, -1.3483378007751458e-27, 7.145038898119727e-07, 7.87491465676041e-34, 0.0, 0.0, 0.0, 3.301635303857094e-26, 6.4192453533577015e-34, 7.145038898119727e-07, 0.0, 1.1419517096076167e-29, -1.1741248856542003e-20, 0.0, 0.0, 0.0, 2.003716064351611e-06]
---
header: 
  seq: 792
  stamp: 
    secs: 1518209541
    nsecs: 712014914
  frame_id: "swarmone/map"
child_frame_id: "swarmone/base_link"
pose: 
  pose: 
    position: 
      x: 0.169436509625
      y: -0.23932359787
      z: 0.0
    orientation: 
      x: 0.0
      y: 0.0
      z: 0.696135460274
      w: 0.717910454687
  covariance: [2.631730215524402, -0.05331318186482203, 0.0, 0.0, 0.0, 4.058759482533818e-17, -0.05331318186482202, 1.3018665568183574, 0.0, 0.0, 0.0, 1.1151413381440726e-15, 0.0, 0.0, 6.746420241866415e-07, -2.599094978005505e-14, -4.481908932188579e-19, 0.0, 0.0, 0.0, -2.5990949780055048e-14, 6.746420907803993e-07, -3.5783534850189095e-26, 0.0, 0.0, 0.0, -4.481908932188581e-19, -3.578342508105779e-26, 6.746420907804013e-07, 0.0, 4.058759482533818e-17, 1.1151413381440728e-15, 0.0, 0.0, 0.0, 7.967812910908563e-08]
twist: 
  twist: 
    linear: 
      x: 4.86648133587e-14
      y: -0.0312074117223
      z: 0.0
    angular: 
      x: 0.0
      y: 0.0
      z: 0.0400000000002
  covariance: [9.999999096977625e-10, 1.680177028026156e-13, 0.0, 0.0, 0.0, 1.0475201789438522e-36, 1.6801770280261495e-13, 1.5604737131291277, 0.0, 0.0, 0.0, -1.219263165754917e-27, 0.0, 0.0, 9.419806317516e-07, -9.35607431112632e-28, 3.0354314921773824e-26, 0.0, 0.0, 0.0, -9.35607431112632e-28, 6.746420241692438e-07, 4.387790926643567e-34, 0.0, 0.0, 0.0, 3.035431492177382e-26, 3.979704755238166e-34, 6.746420241692438e-07, 0.0, 1.047520178943853e-36, -1.219263165754924e-27, 0.0, 0.0, 0.0, 1.5745626219705744e-06]
---
header: 
  seq: 793
  stamp: 
    secs: 1518209541
    nsecs: 812647581
  frame_id: "swarmone/map"
child_frame_id: "swarmone/base_link"
pose: 
  pose: 
    position: 
      x: 0.17725996311
      y: -0.235995516456
      z: 0.0
    orientation: 
      x: 0.0
      y: 0.0
      z: 0.69971629935
      w: 0.714420814663
  covariance: [2.1841039608001016, -0.03964647029702403, 0.0, 0.0, 0.0, 9.613127055065771e-15, -0.039646470297024027, 1.181947373362169, 0.0, 0.0, 0.0, 3.534871040039637e-13, 0.0, 0.0, 6.771263066184803e-07, -2.8989195534104907e-14, -1.0911974598194716e-18, 0.0, 0.0, 0.0, -2.898919553410491e-14, 6.771263732015286e-07, -9.80366106362371e-26, 0.0, 0.0, 0.0, -1.0911974598194718e-18, -9.80363975731911e-26, 6.771263732015312e-07, 0.0, 9.613127055065777e-15, 3.5348710400396375e-13, 0.0, 0.0, 0.0, 8.0870222012432e-08]
twist: 
  twist: 
    linear: 
      x: 1.17916837463e-13
      y: -0.0348223216594
      z: 0.0
    angular: 
      x: 0.0
      y: 0.0
      z: 0.0400000001206
  covariance: [9.999999100878746e-10, 1.9007629278624764e-13, 0.0, 0.0, 0.0, 1.3577968329727277e-29, 1.9007629278624665e-13, 1.3825439494286131, 0.0, 0.0, 0.0, -4.926528626337661e-21, 0.0, 0.0, 9.427721937787107e-07, -7.116432428902072e-28, 3.4152410330346555e-26, 0.0, 0.0, 0.0, -7.116432428902072e-28, 6.771263066007958e-07, 3.636431509306258e-34, 0.0, 0.0, 0.0, 3.415241033034656e-26, 3.668799538936018e-34, 6.771263066007958e-07, 0.0, 1.3577968329727285e-29, -4.92652862633771e-21, 0.0, 0.0, 0.0, 1.5984044798808923e-06]
---
header: 
  seq: 794
  stamp: 
    secs: 1518209541
    nsecs: 912513018
  frame_id: "swarmone/map"
child_frame_id: "swarmone/base_link"
pose: 
  pose: 
    position: 
      x: 0.180778473743
      y: -0.236068694533
      z: 0.0
    orientation: 
      x: 0.0
      y: 0.0
      z: 0.69253730398
      w: 0.721382064232
  covariance: [2.4742938296385444, -0.04616152501944431, 0.0, 0.0, 0.0, 3.507188839155294e-17, -0.04616152501944431, 1.262004309992186, 0.0, 0.0, 0.0, 1.1395734777990604e-15, 0.0, 0.0, 6.771464337413129e-07, -2.9685157971443833e-14, -9.783402307169974e-19, 0.0, 0.0, 0.0, -2.968515797144384e-14, 6.771465169190909e-07, -8.994515053231124e-26, 0.0, 0.0, 0.0, -9.783402307169978e-19, -8.994444451484872e-26, 6.771465169190935e-07, 0.0, 3.5071888391552946e-17, 1.1395734777990602e-15, 0.0, 0.0, 0.0, 8.087022199665564e-08]
twist: 
  twist: 
    linear: 
      x: 1.06690045516e-13
      y: -0.0356579579031
      z: 0.0
    angular: 
      x: 0.0
      y: 0.0
      z: 0.0499999989979
  covariance: [9.999999093168765e-10, 1.7466149477776324e-13, 0.0, 0.0, 0.0, 1.2688423021079476e-36, 1.7466149477776228e-13, 1.5003493698753358, 0.0, 0.0, 0.0, -5.1690849117814275e-28, 0.0, 0.0, 9.427722570970397e-07, -1.4280449676871316e-27, 3.495578020768851e-26, 0.0, 0.0, 0.0, -1.4280449676871318e-27, 6.771464337237709e-07, 7.668120736442762e-34, 0.0, 0.0, 0.0, 3.495578020768852e-26, 7.18666999440556e-34, 6.771464337237709e-07, 0.0, 1.2688423021079477e-36, -5.16908491178148e-28, 0.0, 0.0, 0.0, 1.5984044798803341e-06]
---
header: 
  seq: 795
  stamp: 
    secs: 1518209542
    nsecs:  12243748
  frame_id: "swarmone/map"
child_frame_id: "swarmone/base_link"
pose: 
  pose: 
    position: 
      x: 0.184373288645
      y: -0.236215408623
      z: 0.0
    orientation: 
      x: 0.0
      y: 0.0
      z: 0.692537236078
      w: 0.721382129419
  covariance: [2.802460244575131, -0.05692395164714044, 0.0, 0.0, 0.0, 4.7896011874421324e-17, -0.056923951647140446, 1.3421414938217546, 0.0, 0.0, 0.0, 1.1740228062954808e-15, 0.0, 0.0, 6.796125895349545e-07, -3.036405448572247e-14, -8.843271262303669e-19, 0.0, 0.0, 0.0, -3.0364054485722484e-14, 6.796126560426385e-07, -8.3781273176116e-26, 0.0, 0.0, 0.0, -8.843271262303673e-19, -8.378097519974007e-26, 6.796126560426414e-07, 0.0, 4.789601187442133e-17, 1.1740228062954808e-15, 0.0, 0.0, 0.0, 8.206231488946132e-08]
twist: 
  twist: 
    linear: 
      x: 9.66200487944e-14
      y: -0.0364924669426
      z: 0.0
    angular: 
      x: 0.0
      y: 0.0
      z: 0.0400000010025
  covariance: [9.999999091939134e-10, 1.6060176421483762e-13, 0.0, 0.0, 0.0, 1.8543384607090868e-43, 1.6060176421483677e-13, 1.6249206062862818, 0.0, 0.0, 0.0, -8.471959393980447e-35, 0.0, 0.0, 9.43542571117947e-07, -1.4728673623463941e-27, 3.605716394863026e-26, 0.0, 0.0, 0.0, -1.4728673623463938e-27, 6.796125895172437e-07, 7.72423905248439e-34, 0.0, 0.0, 0.0, 3.6057163948630254e-26, 8.127023375700645e-34, 6.796125895172437e-07, 0.0, 1.854338460709087e-43, -8.47195939398053e-35, 0.0, 0.0, 0.0, 1.622246337790355e-06]
---
header: 
  seq: 796
  stamp: 
    secs: 1518209542
    nsecs: 112788916
  frame_id: "swarmone/map"
child_frame_id: "swarmone/base_link"
pose: 
  pose: 
    position: 
      x: 0.191269803279
      y: -0.235145095313
      z: 0.0
    orientation: 
      x: 0.0
      y: 0.0
      z: 0.696135456948
      w: 0.717910457913
  covariance: [2.3258973384825437, -0.043988800499308575, 0.0, 0.0, 0.0, 3.565340782149062e-14, -0.04398880049930861, 1.2223447424563587, 0.0, 0.0, 0.0, 9.082318560808938e-13, 0.0, 0.0, 6.720968086961957e-07, -3.271461837516539e-14, -1.0478778967144913e-18, 0.0, 0.0, 0.0, -3.2714618375165386e-14, 6.720968753116408e-07, -1.0449653526011697e-25, 0.0, 0.0, 0.0, -1.0478778967144913e-18, -1.0449614314007325e-25, 6.72096875311644e-07, 0.0, 3.5653407821490606e-14, 9.082318560808939e-13, 0.0, 0.0, 0.0, 7.84860362548227e-08]
twist: 
  twist: 
    linear: 
      x: 1.13136069582e-13
      y: -0.0392681273963
      z: 0.0
    angular: 
      x: 0.0
      y: 0.0
      z: 0.040000000277
  covariance: [9.99999910127728e-10, 1.8012534485658235e-13, 0.0, 0.0, 0.0, 1.5155262878450382e-29, 1.8012534485658146e-13, 1.441779717516789, 0.0, 0.0, 0.0, -1.5156409667178246e-20, 0.0, 0.0, 9.411667929548677e-07, -1.16794194729805e-27, 3.787314111227775e-26, 0.0, 0.0, 0.0, -1.1679419472980493e-27, 6.720968086788371e-07, 6.536339397520813e-34, 0.0, 0.0, 0.0, 3.787314111227773e-26, 6.3819738022259e-34, 6.720968086788371e-07, 0.0, 1.515526287845039e-29, -1.515640966717827e-20, 0.0, 0.0, 0.0, 1.5507207640596e-06]
---
header: 
  seq: 797
  stamp: 
    secs: 1518209542
    nsecs: 212495804
  frame_id: "swarmone/map"
child_frame_id: "swarmone/base_link"
pose: 
  pose: 
    position: 
      x: 0.19522751702
      y: -0.235266991253
      z: 0.0
    orientation: 
      x: 0.0
      y: 0.0
      z: 0.696135528197
      w: 0.717910388824
  covariance: [2.634659698081917, -0.052636583113672065, 0.0, 0.0, 0.0, 3.8986445992748655e-17, -0.05263658311367211, 1.3023695638014154, 0.0, 0.0, 0.0, 1.265930215327387e-15, 0.0, 0.0, 6.771464295903667e-07, -3.3430168628102915e-14, -9.37249369340463e-19, 0.0, 0.0, 0.0, -3.34301686281029e-14, 6.771465127979106e-07, -9.702818751870645e-26, 0.0, 0.0, 0.0, -9.372493693404627e-19, -9.702804570448653e-26, 6.771465127979141e-07, 0.0, 3.898644599274865e-17, 1.2659302153273867e-15, 0.0, 0.0, 0.0, 8.087022199345959e-08]
twist: 
  twist: 
    linear: 
      x: 1.02388755459e-13
      y: -0.0401564855463
      z: 0.0
    angular: 
      x: 0.0
      y: 0.0
      z: 0.0499999989969
  covariance: [9.99999909150819e-10, 1.6551092016966371e-13, 0.0, 0.0, 0.0, 1.3935362976543832e-36, 1.655109201696629e-13, 1.5629168397318924, 0.0, 0.0, 0.0, -1.5759184704357134e-27, 0.0, 0.0, 9.427722570839991e-07, -1.2142417244161781e-27, 3.9379820706684396e-26, 0.0, 0.0, 0.0, -1.2142417244161774e-27, 6.771464295728247e-07, 7.16942994227874e-34, 0.0, 0.0, 0.0, 3.937982070668436e-26, 7.012505211486447e-34, 6.771464295728247e-07, 0.0, 1.3935362976543839e-36, -1.575918470435716e-27, 0.0, 0.0, 0.0, 1.5984044798801744e-06]
---
header: 
  seq: 798
  stamp: 
    secs: 1518209542
    nsecs: 312118530
  frame_id: "swarmone/map"
child_frame_id: "swarmone/base_link"
pose: 
  pose: 
    position: 
      x: 0.201600619167
      y: -0.232867652024
      z: 0.0
    orientation: 
      x: 0.0
      y: 0.0
      z: 0.692537246686
      w: 0.721382119236
  covariance: [2.184841263967528, -0.03913548465567092, 0.0, 0.0, 0.0, 1.0902917904874933e-14, -0.039135484655670925, 1.1819750705314065, 0.0, 0.0, 0.0, 4.135714031804906e-13, 0.0, 0.0, 6.82020788203044e-07, -3.531625574519371e-14, -1.3373425624484293e-18, 0.0, 0.0, 0.0, -3.5316255745193725e-14, 6.820208546730149e-07, -1.4862089182107737e-25, 0.0, 0.0, 0.0, -1.33734256244843e-18, -1.486204733878741e-25, 6.820208546730188e-07, 0.0, 1.090291790487493e-14, 4.1357140318049055e-13, 0.0, 0.0, 0.0, 8.325440778325452e-08]
twist: 
  twist: 
    linear: 
      x: 1.46346069605e-13
      y: -0.0424714117384
      z: 0.0
    angular: 
      x: 0.0
      y: 0.0
      z: 0.0400000007128
  covariance: [9.999999090879633e-10, 1.8558636962583757e-13, 0.0, 0.0, 0.0, 1.700094826507649e-29, 1.8558636962583735e-13, 1.383753179436057, 0.0, 0.0, 0.0, -6.535016926692117e-21, 0.0, 0.0, 9.442923597316857e-07, -1.7272198700822457e-27, 4.227484746170346e-26, 0.0, 0.0, 0.0, -1.7272198700822446e-27, 6.820207881850203e-07, 1.1222343511358263e-33, 0.0, 0.0, 0.0, 4.2274847461703475e-26, 1.0884199214185794e-33, 6.820207881850203e-07, 0.0, 1.70009482650765e-29, -6.535016926692053e-21, 0.0, 0.0, 0.0, 1.6460881957002117e-06]
---
header: 
  seq: 799
  stamp: 
    secs: 1518209542
    nsecs: 412634373
  frame_id: "swarmone/map"
child_frame_id: "swarmone/base_link"
pose: 
  pose: 
    position: 
      x: 0.205913130967
      y: -0.23304366356
      z: 0.0
    orientation: 
      x: 0.0
      y: 0.0
      z: 0.688921686792
      w: 0.724835781034
  covariance: [2.477094494006352, -0.04870917926022943, 0.0, 0.0, 0.0, 6.434675495018682e-17, -0.04870917926022943, 1.2627023991929918, 0.0, 0.0, 0.0, 1.407563522558078e-15, 0.0, 0.0, 6.771464506284145e-07, -3.6136748022126624e-14, -1.2221497012124719e-18, 0.0, 0.0, 0.0, -3.613674802212662e-14, 6.771465171399484e-07, -1.3676176027700222e-25, 0.0, 0.0, 0.0, -1.222149701212472e-18, -1.3676099980010644e-25, 6.771465171399524e-07, 0.0, 6.434675495018684e-17, 1.4075635225580782e-15, 0.0, 0.0, 0.0, 8.087022200962568e-08]
twist: 
  twist: 
    linear: 
      x: 1.32337924061e-13
      y: -0.0434076263109
      z: 0.0
    angular: 
      x: 0.0
      y: 0.0
      z: 0.0399999999995
  covariance: [9.999999099582241e-10, 1.704137345881606e-13, 0.0, 0.0, 0.0, 1.581095961878158e-36, 1.7041373458816028e-13, 1.5024144425778319, 0.0, 0.0, 0.0, -6.83648809134169e-28, 0.0, 0.0, 9.427722571501056e-07, -2.1638606555960782e-27, 4.253338621984445e-26, 0.0, 0.0, 0.0, -2.1638606555960797e-27, 6.771464506108605e-07, 1.3199932083698853e-33, 0.0, 0.0, 0.0, 4.2533386219844464e-26, 1.4139582822527948e-33, 6.771464506108605e-07, 0.0, 1.5810959618781592e-36, -6.836488091341623e-28, 0.0, 0.0, 0.0, 1.5984044798809825e-06]
---
header: 
  seq: 800
  stamp: 
    secs: 1518209542
    nsecs: 512237549
  frame_id: "swarmone/map"
child_frame_id: "swarmone/base_link"
pose: 
  pose: 
    position: 
      x: 0.210277237565
      y: -0.233265463659
      z: 0.0
    orientation: 
      x: 0.0
      y: 0.0
      z: 0.699716295151
      w: 0.714420818776
  covariance: [2.8051716031444887, -0.06143011010908706, 0.0, 0.0, 0.0, 5.1375025254207806e-17, -0.06143011010908707, 1.3428516386468368, 0.0, 0.0, 0.0, 1.4482906513221618e-15, 0.0, 0.0, 6.844335772696717e-07, -3.6840556179431296e-14, -1.09453745143097e-18, 0.0, 0.0, 0.0, -3.68405561794313e-14, 6.844336437290889e-07, -1.277395683459036e-25, 0.0, 0.0, 0.0, -1.09453745143097e-18, -1.2773932018077927e-25, 6.844336437290932e-07, 0.0, 5.137502525420782e-17, 1.448290651322162e-15, 0.0, 0.0, 0.0, 8.444650067791487e-08]
twist: 
  twist: 
    linear: 
      x: 1.19861701978e-13
      y: -0.0443353401805
      z: 0.0
    angular: 
      x: 0.0
      y: 0.0
      z: 0.0400000000008
  covariance: [9.999999090665758e-10, 1.5667381923521992e-13, 0.0, 0.0, 0.0, 2.3494711584172826e-43, 1.5667381923521977e-13, 1.6269340585425505, 0.0, 0.0, 0.0, -1.1404159673550242e-34, 0.0, 0.0, 9.450226172267186e-07, -9.266588602544645e-28, 4.449195533868323e-26, 0.0, 0.0, 0.0, -9.266588602544641e-28, 6.844335772516194e-07, 6.233958975916154e-34, 0.0, 0.0, 0.0, 4.449195533868325e-26, 6.262093951728054e-34, 6.844335772516194e-07, 0.0, 2.349471158417285e-43, -1.1404159673550133e-34, 0.0, 0.0, 0.0, 1.6699300536105383e-06]
---
header: 
  seq: 801
  stamp: 
    secs: 1518209542
    nsecs: 611871004
  frame_id: "swarmone/map"
child_frame_id: "swarmone/base_link"
pose: 
  pose: 
    position: 
      x: 0.215997419431
      y: -0.231309166575
      z: 0.0
    orientation: 
      x: 0.0
      y: 0.0
      z: 0.692537246085
      w: 0.721382119812
  covariance: [2.3274410711616644, -0.04437834201455123, 0.0, 0.0, 0.0, 2.0189207745635175e-14, -0.044378342014551216, 1.2226122446015135, 0.0, 0.0, 0.0, 1.0456367028576312e-12, 0.0, 0.0, 6.771448802845722e-07, -3.83073181323759e-14, -1.3708440332987135e-18, 0.0, 0.0, 0.0, -3.830731813237589e-14, 6.77144946827831e-07, -1.6263237235248965e-25, 0.0, 0.0, 0.0, -1.3708440332987132e-18, -1.6263254314819683e-25, 6.771449468278355e-07, 0.0, 2.0189207745635178e-14, 1.0456367028576312e-12, 0.0, 0.0, 0.0, 8.087022202804008e-08]
twist: 
  twist: 
    linear: 
      x: 1.49607026385e-13
      y: -0.0460145410751
      z: 0.0
    angular: 
      x: 0.0
      y: 0.0
      z: 0.0399999988993
  covariance: [9.999999092253583e-10, 1.8557303206747186e-13, 0.0, 0.0, 0.0, 1.8080867254296214e-29, 1.855730320674719e-13, 1.4431094311288235, 0.0, 0.0, 0.0, 5.155526021678824e-21, 0.0, 0.0, 9.427722522141751e-07, -1.842979357480788e-27, 4.51107179897197e-26, 0.0, 0.0, 0.0, -1.8429793574807873e-27, 6.771448802668707e-07, 1.2256373718952415e-33, 0.0, 0.0, 0.0, 4.5110717989719697e-26, 1.2719293432754654e-33, 6.771448802668707e-07, 0.0, 1.8080867254296217e-29, 5.155526021678879e-21, 0.0, 0.0, 0.0, 1.5984044798790333e-06]
---
header: 
  seq: 802
  stamp: 
    secs: 1518209542
    nsecs: 712492228
  frame_id: "swarmone/map"
child_frame_id: "swarmone/base_link"
pose: 
  pose: 
    position: 
      x: 0.220671775724
      y: -0.231499933891
      z: 0.0
    orientation: 
      x: 0.0
      y: 0.0
      z: 0.692537235357
      w: 0.721382130112
  covariance: [2.6394257731592927, -0.05478044185278146, 0.0, 0.0, 0.0, 6.172636730726052e-17, -0.054780441852781435, 1.3034589405951735, 0.0, 0.0, 0.0, 1.5141993012313006e-15, 0.0, 0.0, 6.796126123090792e-07, -3.908432481345692e-14, -1.250201705868437e-18, 0.0, 0.0, 0.0, -3.908432481345692e-14, 6.796126788164059e-07, -1.524757891786271e-25, 0.0, 0.0, 0.0, -1.2502017058684366e-18, -1.5247536500605643e-25, 6.796126788164108e-07, 0.0, 6.172636730726051e-17, 1.5141993012313006e-15, 0.0, 0.0, 0.0, 8.206231490720896e-08]
twist: 
  twist: 
    linear: 
      x: 1.35284530821e-13
      y: -0.0469727437023
      z: 0.0
    angular: 
      x: 0.0
      y: 0.0
      z: 0.0399999999999
  covariance: [9.999999100541053e-10, 1.704293433858719e-13, 0.0, 0.0, 0.0, 1.647157393192031e-36, 1.7042934338587204e-13, 1.5654571750162911, 0.0, 0.0, 0.0, 5.438535119642259e-28, 0.0, 0.0, 9.435425711886801e-07, -1.8959955701746474e-27, 4.641247180549529e-26, 0.0, 0.0, 0.0, -1.8959955701746467e-27, 6.796126122913568e-07, 1.3099887799247206e-33, 0.0, 0.0, 0.0, 4.641247180549529e-26, 1.3153606052941033e-33, 6.796126122913568e-07, 0.0, 1.64715739319203e-36, 5.438535119642315e-28, 0.0, 0.0, 0.0, 1.6222463377912424e-06]
---
header: 
  seq: 803
  stamp: 
    secs: 1518209542
    nsecs: 812293530
  frame_id: "swarmone/map"
child_frame_id: "swarmone/base_link"
pose: 
  pose: 
    position: 
      x: 0.228031188614
      y: -0.230223045777
      z: 0.0
    orientation: 
      x: 0.0
      y: 0.0
      z: 0.696135470513
      w: 0.717910444758
