header: 
  seq: 5424
  stamp: 
    secs: 1518210004
    nsecs: 912176371
  frame_id: "swarmone/odom"
child_frame_id: "swarmone/base_link"
pose: 
  pose: 
    position: 
      x: 0.630806683187
      y: 5.11156123607
      z: 0.0
    orientation: 
      x: 0.0
      y: 0.0
      z: 0.663135681678
      w: 0.74849921021
  covariance: [23215245717.638287, -1703773006.0667443, 0.0, 0.0, 0.0, 3.576531230342559e-36, -1703773006.066749, 125095312.54146677, 0.0, 0.0, 0.0, -4.169304056283194e-37, 0.0, 0.0, 5.932315047624459e-07, 1.4976090104648743e-41, 1.9440656397082177e-34, 0.0, 0.0, 0.0, 1.4976090104648745e-41, 4.947295861179651e-07, 2.638684390246414e-30, 0.0, 0.0, 0.0, 1.9440656397082173e-34, -2.638684390246414e-30, 4.947295861179651e-07, 0.0, 3.5765312303425584e-36, -4.169304056283195e-37, 0.0, 0.0, 0.0, 9.594426878210562e-07]
twist: 
  twist: 
    linear: 
      x: -4.4713853338e-29
      y: 0.0
      z: 0.0
    angular: 
      x: 0.0
      y: 0.0
      z: 0.000124424127505
  covariance: [9.999996225131468e-10, 0.0, 0.0, 0.0, 0.0, 0.0, 0.0, 531775.620661571, 0.0, 0.0, 0.0, 0.0, 0.0, 0.0, 5.324697397405647e-07, 3.469331813425031e-45, 4.211133559189289e-46, 0.0, 0.0, 0.0, 3.469331813425029e-45, 3.9740500664503285e-07, -9.627173330900629e-35, 0.0, 0.0, 0.0, 4.2111335591892886e-46, 9.627173330900629e-35, 3.9740500664503285e-07, 0.0, 0.0, 0.0, 0.0, 0.0, 0.0, 9.968893952517309e-10]
---
header: 
  seq: 5425
  stamp: 
    secs: 1518210005
    nsecs:  12262583
  frame_id: "swarmone/odom"
child_frame_id: "swarmone/base_link"
pose: 
  pose: 
    position: 
      x: 0.630806683187
      y: 5.11156123607
      z: 0.0
    orientation: 
      x: 0.0
      y: 0.0
      z: 0.666869875266
      w: 0.74517418733
  covariance: [23236631653.582024, -1705857502.4036195, 0.0, 0.0, 0.0, 2.6903240351980627e-36, -1705857502.4036243, 125286258.50786911, 0.0, 0.0, 0.0, -3.0830061958147595e-37, 0.0, 0.0, 5.955847844168187e-07, 1.3249536175557743e-41, 1.846167782735334e-34, 0.0, 0.0, 0.0, 1.3249536175557748e-41, 4.965491714424947e-07, 1.152624600049649e-30, 0.0, 0.0, 0.0, 1.8461677827353343e-34, -1.152624600049649e-30, 4.965491714424947e-07, 0.0, 2.6903240351980627e-36, -3.0830061958147595e-37, 0.0, 0.0, 0.0, 9.737478025681135e-07]
twist: 
  twist: 
    linear: 
      x: -4.19720104607e-29
      y: 0.0
      z: 0.0
    angular: 
      x: 0.0
      y: 0.0
      z: 0.000122605578349
  covariance: [9.999996248513907e-10, 0.0, 0.0, 0.0, 0.0, 0.0, 0.0, 532070.0744592429, 0.0, 0.0, 0.0, 0.0, 0.0, 0.0, 5.345451501797409e-07, 3.375946120169668e-45, 3.755838150843407e-46, 0.0, 0.0, 0.0, 3.375946120169668e-45, 3.9827003808218645e-07, 1.770819794351695e-35, 0.0, 0.0, 0.0, 3.755838150843407e-46, -1.770819794351695e-35, 3.9827003808218645e-07, 0.0, 0.0, 0.0, 0.0, 0.0, 0.0, 9.969348590145356e-10]
---
header: 
  seq: 5426
  stamp: 
    secs: 1518210005
    nsecs: 111771584
  frame_id: "swarmone/odom"
child_frame_id: "swarmone/base_link"
pose: 
  pose: 
    position: 
      x: 0.630806683187
      y: 5.11156123607
      z: 0.0
    orientation: 
      x: 0.0
      y: 0.0
      z: 0.670587384206
      w: 0.741830546785
  covariance: [23257934655.729916, -1707826183.483045, 0.0, 0.0, 0.0, 2.45161767029753e-36, -1707826183.4830499, 125460632.35092694, 0.0, 0.0, 0.0, -2.564669948306957e-37, 0.0, 0.0, 5.884418990126873e-07, 1.057903292359769e-41, 1.6943545288714908e-34, 0.0, 0.0, 0.0, 1.0579032923597687e-41, 4.91050923554e-07, -2.1879528760286386e-30, 0.0, 0.0, 0.0, 1.694354528871491e-34, 2.1879528760286386e-30, 4.91050923554e-07, 0.0, 2.45161767029753e-36, -2.5646699483069568e-37, 0.0, 0.0, 0.0, 9.308324583288453e-07]
twist: 
  twist: 
    linear: 
      x: -3.94121910734e-29
      y: 0.0
      z: 0.0
    angular: 
      x: 0.0
      y: 0.0
      z: 0.000128228016653
  covariance: [9.999996225422319e-10, 0.0, 0.0, 0.0, 0.0, 0.0, 0.0, 532362.9378388716, 0.0, 0.0, 0.0, 0.0, 0.0, 0.0, 5.28263058379588e-07, 2.885025946224861e-45, 2.917949087218716e-46, 0.0, 0.0, 0.0, 2.885025946224861e-45, 3.9566852559642157e-07, 2.886296546881406e-34, 0.0, 0.0, 0.0, 2.917949087218717e-46, -2.886296546881406e-34, 3.9566852559642157e-07, 0.0, 0.0, 0.0, 0.0, 0.0, 0.0, 9.967942979775953e-10]
---
header: 
  seq: 5427
  stamp: 
    secs: 1518210005
    nsecs: 212503910
  frame_id: "swarmone/odom"
child_frame_id: "swarmone/base_link"
pose: 
  pose: 
    position: 
      x: 0.630806683187
      y: 5.11156123607
      z: 0.0
    orientation: 
      x: 0.0
      y: 0.0
      z: 0.670587459811
      w: 0.741830478441
  covariance: [23279538395.149353, -1709713611.008875, 0.0, 0.0, 0.0, 2.3901054467677532e-36, -1709713611.0088794, 125621430.99088076, 0.0, 0.0, 0.0, -2.4173259064961965e-37, 0.0, 0.0, 5.979109955625154e-07, 1.3635649324448294e-41, 1.6463708476457516e-34, 0.0, 0.0, 0.0, 1.36356493244483e-41, 4.983557514409574e-07, 1.4792621600948536e-30, 0.0, 0.0, 0.0, 1.6463708476457516e-34, -1.4792621600948536e-30, 4.983557514409574e-07, 0.0, 2.3901054467677536e-36, -2.4173259064961965e-37, 0.0, 0.0, 0.0, 9.880529173152819e-07]
twist: 
  twist: 
    linear: 
      x: -3.69807801264e-29
      y: 0.0
      z: 0.0
    angular: 
      x: 0.0
      y: 0.0
      z: 0.000151049277746
  covariance: [9.999996274054166e-10, 0.0, 0.0, 0.0, 0.0, 0.0, 0.0, 532659.5110058091, 0.0, 0.0, 0.0, 0.0, 0.0, 0.0, 5.36602223723624e-07, 3.084793827005278e-45, 3.119929315746739e-46, 0.0, 0.0, 0.0, 3.084793827005278e-45, 3.991326421032177e-07, -1.1505470061317185e-34, 0.0, 0.0, 0.0, 3.119929315746738e-46, 1.1505470061317185e-34, 3.991326421032177e-07, 0.0, 0.0, 0.0, 0.0, 0.0, 0.0, 9.969790129491683e-10]
---
header: 
  seq: 5428
  stamp: 
    secs: 1518210005
    nsecs: 312533617
  frame_id: "swarmone/odom"
child_frame_id: "swarmone/base_link"
pose: 
  pose: 
    position: 
      x: 0.630806683187
      y: 5.11156123607
      z: 0.0
    orientation: 
      x: 0.0
      y: 0.0
      z: 0.666870114389
      w: 0.745173973335
  covariance: [23301007322.266945, -1711589433.7314842, 0.0, 0.0, 0.0, 3.1236365539742204e-36, -1711589433.731489, 125781259.82477318, 0.0, 0.0, 0.0, -3.3985181291948164e-37, 0.0, 0.0, 6.715831474644723e-07, 2.4496205512709254e-41, 1.7203020894426146e-34, 0.0, 0.0, 0.0, 2.449620551270925e-41, 5.59935502570684e-07, 2.9533015817607338e-30, 0.0, 0.0, 0.0, 1.7203020894426144e-34, -2.9533015817607338e-30, 5.59935502570684e-07, 0.0, 3.1236365539742204e-36, -3.398518129194817e-37, 0.0, 0.0, 0.0, 1.545952392412154e-06]
twist: 
  twist: 
    linear: 
      x: -3.47142164047e-29
      y: 0.0
      z: 0.0
    angular: 
      x: 0.0
      y: 0.0
      z: 9.67147193508e-05
  covariance: [9.999996246276882e-10, 0.0, 0.0, 0.0, 0.0, 0.0, 0.0, 532954.1245166378, 0.0, 0.0, 0.0, 0.0, 0.0, 0.0, 6.047283627506579e-07, 6.368948225073514e-45, 7.085839416183776e-46, 0.0, 0.0, 0.0, 6.368948225073512e-45, 4.3092651474085516e-07, -1.5305676260305504e-37, 0.0, 0.0, 0.0, 7.085839416183774e-46, 1.5305676260305504e-37, 4.3092651474085516e-07, 0.0, 0.0, 0.0, 0.0, 0.0, 0.0, 9.98065704648797e-10]
---
header: 
  seq: 5429
  stamp: 
    secs: 1518210005
    nsecs: 412031174
  frame_id: "swarmone/odom"
child_frame_id: "swarmone/base_link"
pose: 
  pose: 
    position: 
      x: 0.630806683187
      y: 5.11156123607
      z: 0.0
    orientation: 
      x: 0.0
      y: 0.0
      z: 0.666869868779
      w: 0.745174193135
  covariance: [23322355064.663017, -1713562750.505211, 0.0, 0.0, 0.0, 2.4554781704834733e-36, -1713562750.5052154, 125956110.63478446, 0.0, 0.0, 0.0, -2.731752601011469e-37, 0.0, 0.0, 5.908507179732961e-07, 9.815581408492101e-42, 1.4093099565663597e-34, 0.0, 0.0, 0.0, 9.815581408492102e-42, 4.928969247264532e-07, -1.5507543793462152e-30, 0.0, 0.0, 0.0, 1.40930995656636e-34, 1.5507543793462152e-30, 4.928969247264532e-07, 0.0, 2.4554781704834733e-36, -2.731752601011469e-37, 0.0, 0.0, 0.0, 9.451375730749429e-07]
twist: 
  twist: 
    linear: 
      x: -3.25971705803e-29
      y: 0.0
      z: 0.0
    angular: 
      x: 0.0
      y: 0.0
      z: 0.000126297436712
  covariance: [9.999996224971688e-10, 0.0, 0.0, 0.0, 0.0, 0.0, 0.0, 533247.2784558056, 0.0, 0.0, 0.0, 0.0, 0.0, 0.0, 5.303758182545293e-07, 2.4576426611708503e-45, 2.734173251726851e-46, 0.0, 0.0, 0.0, 2.457642661170851e-45, 3.9653800913559225e-07, -3.917935740062547e-35, 0.0, 0.0, 0.0, 2.734173251726852e-46, 3.917935740062547e-35, 3.9653800913559225e-07, 0.0, 0.0, 0.0, 0.0, 0.0, 0.0, 9.968425624991085e-10]
---
header: 
  seq: 5430
  stamp: 
    secs: 1518210005
    nsecs: 511769772
  frame_id: "swarmone/odom"
child_frame_id: "swarmone/base_link"
pose: 
  pose: 
    position: 
      x: 0.630806683187
      y: 5.11156123607
      z: 0.0
    orientation: 
      x: 0.0
      y: 0.0
      z: 0.655617728201
      w: 0.755092970745
  covariance: [23343770213.46715, -1715542557.457536, 0.0, 0.0, 0.0, 1.9598278654442982e-36, -1715542557.457541, 126131566.67671803, 0.0, 0.0, 0.0, -2.583861152255285e-37, 0.0, 0.0, 5.979109289376431e-07, 1.5570530794420711e-41, 1.3482511885328644e-34, 0.0, 0.0, 0.0, 1.5570530794420711e-41, 4.983555431068521e-07, 1.5929627711056486e-30, 0.0, 0.0, 0.0, 1.3482511885328644e-34, -1.5929627711056486e-30, 4.983555431068521e-07, 0.0, 1.9598278654442982e-36, -2.583861152255285e-37, 0.0, 0.0, 0.0, 9.880529173136338e-07]
twist: 
  twist: 
    linear: 
      x: -3.06047453655e-29
      y: 0.0
      z: 0.0
    angular: 
      x: 0.0
      y: 0.0
      z: 0.000151049277
  covariance: [9.999996234648522e-10, 0.0, 0.0, 0.0, 0.0, 0.0, 0.0, 533541.2504576315, 0.0, 0.0, 0.0, 0.0, 0.0, 0.0, 5.36602091008607e-07, 2.5139862041230788e-45, 3.563121909526209e-46, 0.0, 0.0, 0.0, 2.5139862041230794e-45, 3.991317507254258e-07, -1.5441685470534775e-34, 0.0, 0.0, 0.0, 3.56312190952621e-46, 1.5441685470534775e-34, 3.991317507254258e-07, 0.0, 0.0, 0.0, 0.0, 0.0, 0.0, 9.969790129491232e-10]
---
header: 
  seq: 5431
  stamp: 
    secs: 1518210005
    nsecs: 611734390
  frame_id: "swarmone/odom"
child_frame_id: "swarmone/base_link"
pose: 
  pose: 
    position: 
      x: 0.630806683187
      y: 5.11156123607
      z: 0.0
    orientation: 
      x: 0.0
      y: 0.0
      z: 0.670587403578
      w: 0.741830529274
  covariance: [23365168346.559288, -1717847070.6328673, 0.0, 0.0, 0.0, 1.9113516079725574e-36, -1717847070.6328728, 126354976.5558896, 0.0, 0.0, 0.0, -2.186154936100115e-37, 0.0, 0.0, 6.0248391365509e-07, 8.742118207661795e-42, 1.2814385762558184e-34, 0.0, 0.0, 0.0, 8.742118207661795e-42, 5.019297478060781e-07, 9.62522427170148e-31, 0.0, 0.0, 0.0, 1.2814385762558184e-34, -9.62522427170148e-31, 5.019297478060781e-07, 0.0, 1.9113516079725574e-36, -2.186154936100115e-37, 0.0, 0.0, 0.0, 1.0166631468062156e-06]
twist: 
  twist: 
    linear: 
      x: -2.87301243742e-29
      y: 0.0
      z: 0.0
    angular: 
      x: 0.0
      y: 0.0
      z: 0.000117455484939
  covariance: [9.999996243682002e-10, 0.0, 0.0, 0.0, 0.0, 0.0, 0.0, 533835.997029199, 0.0, 0.0, 0.0, 0.0, 0.0, 0.0, 5.406620319682539e-07, 2.512661002836624e-45, 2.5413084223710227e-46, 0.0, 0.0, 0.0, 2.512661002836624e-45, 4.0084862067470734e-07, 2.318384343535605e-34, 0.0, 0.0, 0.0, 2.5413084223710227e-46, -2.318384343535605e-34, 4.0084862067470734e-07, 0.0, 0.0, 0.0, 0.0, 0.0, 0.0, 9.970636114131196e-10]
---
header: 
  seq: 5432
  stamp: 
    secs: 1518210005
    nsecs: 712789536
  frame_id: "swarmone/odom"
child_frame_id: "swarmone/base_link"
pose: 
  pose: 
    position: 
      x: 0.630806683187
      y: 5.11156123607
      z: 0.0
    orientation: 
      x: 0.0
      y: 0.0
      z: 0.663135771513
      w: 0.748499130621
  covariance: [23386921261.455082, -1719748643.6459012, 0.0, 0.0, 0.0, 2.1918858187195723e-36, -1719748643.6459067, 126517108.00019613, 0.0, 0.0, 0.0, -2.5368325915470087e-37, 0.0, 0.0, 6.448900614963391e-07, 1.3851233647747802e-41, 1.3096338874416183e-34, 0.0, 0.0, 0.0, 1.3851233647747807e-41, 5.365980270791821e-07, -3.5167964019975266e-31, 0.0, 0.0, 0.0, 1.3096338874416183e-34, 3.5167964019975266e-31, 5.365980270791821e-07, 0.0, 2.1918858187195723e-36, -2.5368325915470087e-37, 0.0, 0.0, 0.0, 1.3170705564761704e-06]
twist: 
  twist: 
    linear: 
      x: -2.69523064712e-29
      y: 0.0
      z: 0.0
    angular: 
      x: 0.0
      y: 0.0
      z: 9.07666692372e-05
  covariance: [9.999996286700837e-10, 0.0, 0.0, 0.0, 0.0, 0.0, 0.0, 534134.069343696, 0.0, 0.0, 0.0, 0.0, 0.0, 0.0, 5.793580082319038e-07, 3.823397997278487e-45, 4.641353304486957e-46, 0.0, 0.0, 0.0, 3.8233979972784894e-45, 4.1829955257967763e-07, 2.557061488363803e-34, 0.0, 0.0, 0.0, 4.641353304486957e-46, -2.557061488363803e-34, 4.1829955257967763e-07, 0.0, 0.0, 0.0, 0.0, 0.0, 0.0, 9.977308321493887e-10]
---
header: 
  seq: 5433
  stamp: 
    secs: 1518210005
    nsecs: 812880278
  frame_id: "swarmone/odom"
child_frame_id: "swarmone/base_link"
pose: 
  pose: 
    position: 
      x: 0.630806683187
      y: 5.11156123607
      z: 0.0
    orientation: 
      x: 0.0
      y: 0.0
      z: 0.666869935486
      w: 0.745174133438
  covariance: [23408434627.341267, -1721847213.4001806, 0.0, 0.0, 0.0, 1.821147913263559e-36, -1721847213.400186, 126709593.22644901, 0.0, 0.0, 0.0, -2.1005043174875706e-37, 0.0, 0.0, 5.955847847840579e-07, 9.980320570588483e-42, 1.1128743798196442e-34, 0.0, 0.0, 0.0, 9.980320570588484e-42, 4.965492135266837e-07, -1.86981509544641e-30, 0.0, 0.0, 0.0, 1.1128743798196442e-34, 1.86981509544641e-30, 4.965492135266837e-07, 0.0, 1.821147913263559e-36, -2.1005043174875706e-37, 0.0, 0.0, 0.0, 9.737478025681311e-07]
twist: 
  twist: 
    linear: 
      x: -2.52993608041e-29
      y: 0.0
      z: 0.0
    angular: 
      x: 0.0
      y: 0.0
      z: 0.000153256972841
  covariance: [9.999996248717814e-10, 0.0, 0.0, 0.0, 0.0, 0.0, 0.0, 534429.4064055689, 0.0, 0.0, 0.0, 0.0, 0.0, 0.0, 5.34545150951272e-07, 2.035443988817956e-45, 2.264524718232397e-46, 0.0, 0.0, 0.0, 2.035443988817956e-45, 3.982700440545593e-07, -9.581722970290123e-35, 0.0, 0.0, 0.0, 2.2645247182323953e-46, 9.581722970290123e-35, 3.982700440545593e-07, 0.0, 0.0, 0.0, 0.0, 0.0, 0.0, 9.969348590145356e-10]
---
header: 
  seq: 5434
  stamp: 
    secs: 1518210005
    nsecs: 912775993
  frame_id: "swarmone/odom"
child_frame_id: "swarmone/base_link"
pose: 
  pose: 
    position: 
      x: 0.630806683187
      y: 5.11156123607
      z: 0.0
    orientation: 
      x: 0.0
      y: 0.0
      z: 0.666869875886
      w: 0.745174186775
  covariance: [23429946877.192047, -1723836901.5454836, 0.0, 0.0, 0.0, 1.5273689762823504e-36, -1723836901.545489, 126886050.23511888, 0.0, 0.0, 0.0, -1.6992234134464668e-37, 0.0, 0.0, 5.955847714360122e-07, 7.4832854503855e-42, 1.042584269872866e-34, 0.0, 0.0, 0.0, 7.4832854503855e-42, 4.965491312252236e-07, 9.364686091324336e-31, 0.0, 0.0, 0.0, 1.042584269872866e-34, -9.364686091324336e-31, 4.965491312252236e-07, 0.0, 1.5273689762823504e-36, -1.699223413446467e-37, 0.0, 0.0, 0.0, 9.737478025677963e-07]
twist: 
  twist: 
    linear: 
      x: -2.37506235575e-29
      y: 0.0
      z: 0.0
    angular: 
      x: 0.0
      y: 0.0
      z: 0.000122605578277
  covariance: [9.99999624094629e-10, 0.0, 0.0, 0.0, 0.0, 0.0, 0.0, 534724.2765338363, 0.0, 0.0, 0.0, 0.0, 0.0, 0.0, 5.345451243928884e-07, 1.9065088840073863e-45, 2.1210265092309945e-46, 0.0, 0.0, 0.0, 1.9065088840073863e-45, 3.982698659456526e-07, 1.9155390104526535e-34, 0.0, 0.0, 0.0, 2.1210265092309957e-46, -1.9155390104526535e-34, 3.982698659456526e-07, 0.0, 0.0, 0.0, 0.0, 0.0, 0.0, 9.969348590145265e-10]
---
header: 
  seq: 5435
  stamp: 
    secs: 1518210006
    nsecs:  11743307
  frame_id: "swarmone/odom"
child_frame_id: "swarmone/base_link"
pose: 
  pose: 
    position: 
      x: 0.630806683187
      y: 5.11156123607
      z: 0.0
    orientation: 
      x: 0.0
      y: 0.0
      z: 0.670587391277
      w: 0.741830540393
  covariance: [23451274798.738728, -1725809721.9488282, 0.0, 0.0, 0.0, 1.4076108966877717e-36, -1725809721.9488337, 127061036.70768662, 0.0, 0.0, 0.0, -1.4715524742226366e-37, 0.0, 0.0, 5.932314672302248e-07, 6.206583156892978e-42, 9.64437593823909e-35, 0.0, 0.0, 0.0, 6.206583156892978e-42, 4.947294704545642e-07, 5.7241753414646365e-31, 0.0, 0.0, 0.0, 9.64437593823909e-35, -5.7241753414646365e-31, 4.947294704545642e-07, 0.0, 1.4076108966877717e-36, -1.4715524742226366e-37, 0.0, 0.0, 0.0, 9.594426878201301e-07]
twist: 
  twist: 
    linear: 
      x: -2.23093900301e-29
      y: 0.0
      z: 0.0
    angular: 
      x: 0.0
      y: 0.0
      z: 0.000124424127253
  covariance: [9.999996203522582e-10, 0.0, 0.0, 0.0, 0.0, 0.0, 0.0, 535016.513160687, 0.0, 0.0, 0.0, 0.0, 0.0, 0.0, 5.324696652906558e-07, 1.7241160127634835e-45, 1.7437788319183682e-46, 0.0, 0.0, 0.0, 1.7241160127634838e-45, 3.9740451071497993e-07, -8.020592527202623e-35, 0.0, 0.0, 0.0, 1.7437788319183684e-46, 8.020592527202623e-35, 3.9740451071497993e-07, 0.0, 0.0, 0.0, 0.0, 0.0, 0.0, 9.968893952517044e-10]
---
header: 
  seq: 5436
  stamp: 
    secs: 1518210006
    nsecs: 112482548
  frame_id: "swarmone/odom"
child_frame_id: "swarmone/base_link"
pose: 
  pose: 
    position: 
      x: 0.630806683187
      y: 5.11156123607
      z: 0.0
    orientation: 
      x: 0.0
      y: 0.0
      z: 0.670587409588
      w: 0.741830523841
  covariance: [23473023616.73377, -1727711695.7857997, 0.0, 0.0, 0.0, 1.4063140654477928e-36, -1727711695.7858055, 127223293.7350954, 0.0, 0.0, 0.0, -1.4223302478299594e-37, 0.0, 0.0, 6.047316626224826e-07, 6.53990918113913e-42, 9.458359631578398e-35, 0.0, 0.0, 0.0, 6.53990918113913e-42, 5.036979725689095e-07, 5.993360093731651e-31, 0.0, 0.0, 0.0, 9.458359631578397e-35, -5.993360093731651e-31, 5.036979725689095e-07, 0.0, 1.4063140654477926e-36, -1.4223302478299594e-37, 0.0, 0.0, 0.0, 1.0309682615535984e-06]
twist: 
  twist: 
    linear: 
      x: -2.09329186359e-29
      y: 0.0
      z: 0.0
    angular: 
      x: 0.0
      y: 0.0
      z: 0.000115833607285
  covariance: [9.999996274339005e-10, 0.0, 0.0, 0.0, 0.0, 0.0, 0.0, 535314.0913725345, 0.0, 0.0, 0.0, 0.0, 0.0, 0.0, 5.426655269077999e-07, 1.8961109562168855e-45, 1.9177077413140044e-46, 0.0, 0.0, 0.0, 1.896110956216887e-45, 4.017039674823174e-07, -1.3471510156912615e-34, 0.0, 0.0, 0.0, 1.917707741314005e-46, 1.3471510156912615e-34, 4.017039674823174e-07, 0.0, 0.0, 0.0, 0.0, 0.0, 0.0, 9.97104158384799e-10]
---
header: 
  seq: 5437
  stamp: 
    secs: 1518210006
    nsecs: 212641239
  frame_id: "swarmone/odom"
child_frame_id: "swarmone/base_link"
pose: 
  pose: 
    position: 
      x: 0.630806683187
      y: 5.11156123607
      z: 0.0
    orientation: 
      x: 0.0
      y: 0.0
      z: 0.670587391902
      w: 0.741830539828
  covariance: [23494663090.98685, -1729604254.3906727, 0.0, 0.0, 0.0, 1.2808565282901835e-36, -1729604254.390679, 127384764.7836138, 0.0, 0.0, 0.0, -1.2954434106990105e-37, 0.0, 0.0, 5.932315500984134e-07, 5.535473012013316e-42, 8.602541161208916e-35, 0.0, 0.0, 0.0, 5.535473012013314e-42, 4.947297261198972e-07, -1.3500698135151828e-30, 0.0, 0.0, 0.0, 8.602541161208913e-35, 1.3500698135151828e-30, 4.947297261198972e-07, 0.0, 1.2808565282901833e-36, -1.2954434106990105e-37, 0.0, 0.0, 0.0, 9.594426878221349e-07]
twist: 
  twist: 
    linear: 
      x: -1.96483181967e-29
      y: 0.0
      z: 0.0
    angular: 
      x: 0.0
      y: 0.0
      z: 0.000124424127986
  covariance: [9.99999625141898e-10, 0.0, 0.0, 0.0, 0.0, 0.0, 0.0, 535610.0640449406, 0.0, 0.0, 0.0, 0.0, 0.0, 0.0, 5.324698294840714e-07, 1.537919607233868e-45, 1.5554366868913387e-46, 0.0, 0.0, 0.0, 1.537919607233868e-45, 3.9740560049689376e-07, -9.606637791340874e-35, 0.0, 0.0, 0.0, 1.5554366868913381e-46, 9.606637791340874e-35, 3.9740560049689376e-07, 0.0, 0.0, 0.0, 0.0, 0.0, 0.0, 9.968893952517627e-10]
---
header: 
  seq: 5438
  stamp: 
    secs: 1518210006
    nsecs: 312605619
  frame_id: "swarmone/odom"
child_frame_id: "swarmone/base_link"
pose: 
  pose: 
    position: 
      x: 0.630806683187
      y: 5.11156123607
      z: 0.0
    orientation: 
      x: 0.0
      y: 0.0
      z: 0.666869958935
      w: 0.745174112453
  covariance: [23516276488.27928, -1731494698.6501107, 0.0, 0.0, 0.0, 1.2397825123155258e-36, -1731494698.6501172, 127546073.8215364, 0.0, 0.0, 0.0, -1.3397912911373477e-37, 0.0, 0.0, 6.06954035754645e-07, 7.99453706904323e-42, 8.304271867510451e-35, 0.0, 0.0, 0.0, 7.99453706904323e-42, 5.054534154595808e-07, -1.0031201111318469e-30, 0.0, 0.0, 0.0, 8.304271867510454e-35, 1.0031201111318469e-30, 5.054534154595808e-07, 0.0, 1.2397825123155258e-36, -1.3397912911373477e-37, 0.0, 0.0, 0.0, 1.0452733762984175e-06]
twist: 
  twist: 
    linear: 
      x: -1.84447381884e-29
      y: 0.0
      z: 0.0
    angular: 
      x: 0.0
      y: 0.0
      z: 0.000142819887396
  covariance: [9.999996243687141e-10, 0.0, 0.0, 0.0, 0.0, 0.0, 0.0, 535905.5712788622, 0.0, 0.0, 0.0, 0.0, 0.0, 0.0, 5.446514211094978e-07, 1.6995997375599116e-45, 1.890841662651064e-46, 0.0, 0.0, 0.0, 1.699599737559911e-45, 4.025555047097425e-07, -1.5508791696774628e-34, 0.0, 0.0, 0.0, 1.890841662651064e-46, 1.5508791696774628e-34, 4.025555047097425e-07, 0.0, 0.0, 0.0, 0.0, 0.0, 0.0, 9.971436008266868e-10]
---
header: 
  seq: 5439
  stamp: 
    secs: 1518210006
    nsecs: 412366867
  frame_id: "swarmone/odom"
child_frame_id: "swarmone/base_link"
pose: 
  pose: 
    position: 
      x: 0.630806683187
      y: 5.11156123607
      z: 0.0
    orientation: 
      x: 0.0
      y: 0.0
      z: 0.66686986878
      w: 0.745174193135
  covariance: [23537838908.35851, -1733489864.0477042, 0.0, 0.0, 0.0, 1.117485564338664e-36, -1733489864.0477102, 127723128.63506849, 0.0, 0.0, 0.0, -1.2432208170811965e-37, 0.0, 0.0, 5.908507364256071e-07, 5.2304436360221184e-42, 7.507914420728957e-35, 0.0, 0.0, 0.0, 5.230443636022118e-42, 4.928969812400583e-07, 1.7555933924192743e-30, 0.0, 0.0, 0.0, 7.507914420728955e-35, -1.7555933924192743e-30, 4.928969812400583e-07, 0.0, 1.117485564338664e-36, -1.2432208170811963e-37, 0.0, 0.0, 0.0, 9.451375730753716e-07]
twist: 
  twist: 
    linear: 
      x: -1.73170396907e-29
      y: 0.0
      z: 0.0
    angular: 
      x: 0.0
      y: 0.0
      z: 0.000126297436951
  covariance: [9.99999623556995e-10, 0.0, 0.0, 0.0, 0.0, 0.0, 0.0, 536200.5863688525, 0.0, 0.0, 0.0, 0.0, 0.0, 0.0, 5.303758546551321e-07, 1.3088505965320359e-45, 1.456120687623684e-46, 0.0, 0.0, 0.0, 1.3088505965320356e-45, 3.965382480271709e-07, 1.3659892477025345e-34, 0.0, 0.0, 0.0, 1.4561206876236841e-46, -1.3659892477025345e-34, 3.965382480271709e-07, 0.0, 0.0, 0.0, 0.0, 0.0, 0.0, 9.96842562499122e-10]
---
header: 
  seq: 5440
  stamp: 
    secs: 1518210006
    nsecs: 512291193
  frame_id: "swarmone/odom"
child_frame_id: "swarmone/base_link"
pose: 
  pose: 
    position: 
      x: 0.630806683187
      y: 5.11156123607
      z: 0.0
    orientation: 
      x: 0.0
      y: 0.0
      z: 0.670587387746
      w: 0.741830543585
  covariance: [23559452435.96275, -1735489943.3667219, 0.0, 0.0, 0.0, 1.0157375065482859e-36, -1735489943.3667278, 127900645.35057063, 0.0, 0.0, 0.0, -1.061540006155469e-37, 0.0, 0.0, 5.908507478168545e-07, 4.47608460534697e-42, 7.060402740861036e-35, 0.0, 0.0, 0.0, 4.476084605346971e-42, 4.928970163652284e-07, -6.508673219210793e-31, 0.0, 0.0, 0.0, 7.060402740861038e-35, 6.508673219210793e-31, 4.928970163652284e-07, 0.0, 1.0157375065482859e-36, -1.061540006155469e-37, 0.0, 0.0, 0.0, 9.451375730756415e-07]
twist: 
  twist: 
    linear: 
      x: -1.6256671987e-29
      y: 0.0
      z: 0.0
    angular: 
      x: 0.0
      y: 0.0
      z: 0.000126297437028
  covariance: [9.99999624208736e-10, 0.0, 0.0, 0.0, 0.0, 0.0, 0.0, 536496.1922327202, 0.0, 0.0, 0.0, 0.0, 0.0, 0.0, 5.303758771507674e-07, 1.232070749752481e-45, 1.2461244962311763e-46, 0.0, 0.0, 0.0, 1.232070749752481e-45, 3.9653839619422485e-07, -3.2876545594450598e-34, 0.0, 0.0, 0.0, 1.2461244962311757e-46, 3.2876545594450598e-34, 3.9653839619422485e-07, 0.0, 0.0, 0.0, 0.0, 0.0, 0.0, 9.9684256249913e-10]
---
header: 
  seq: 5441
  stamp: 
    secs: 1518210006
    nsecs: 612746239
  frame_id: "swarmone/odom"
child_frame_id: "swarmone/base_link"
pose: 
  pose: 
    position: 
      x: 0.630806683187
      y: 5.11156123607
      z: 0.0
    orientation: 
      x: 0.0
      y: 0.0
      z: 0.666869945608
      w: 0.74517412438
  covariance: [23581219864.276035, -1737394409.1479292, 0.0, 0.0, 0.0, 9.969548714409963e-37, -1737394409.1479352, 128063215.0730002, 0.0, 0.0, 0.0, -1.0767865000240825e-37, 0.0, 0.0, 6.002105379362115e-07, 6.283802769515794e-42, 6.806648660336797e-35, 0.0, 0.0, 0.0, 6.283802769515794e-42, 5.00149181284743e-07, 1.6014182542889298e-31, 0.0, 0.0, 0.0, 6.806648660336797e-35, -1.6014182542889298e-31, 5.00149181284743e-07, 0.0, 9.969548714409964e-37, -1.0767865000240825e-37, 0.0, 0.0, 0.0, 1.002358032060927e-06]
twist: 
  twist: 
    linear: 
      x: -1.52562724451e-29
      y: 0.0
      z: 0.0
    angular: 
      x: 0.0
      y: 0.0
      z: 0.000148904283224
  covariance: [9.999996263156106e-10, 0.0, 0.0, 0.0, 0.0, 0.0, 0.0, 536793.4776157853, 0.0, 0.0, 0.0, 0.0, 0.0, 0.0, 5.386410731693864e-07, 1.3035279245432602e-45, 1.4501937314818538e-46, 0.0, 0.0, 0.0, 1.3035279245432605e-45, 3.999919545263788e-07, 2.3102853433489106e-34, 0.0, 0.0, 0.0, 1.450193731481854e-46, -2.3102853433489106e-34, 3.999919545263788e-07, 0.0, 0.0, 0.0, 0.0, 0.0, 0.0, 9.97021912856726e-10]
---
header: 
  seq: 5442
  stamp: 
    secs: 1518210006
    nsecs: 712747812
  frame_id: "swarmone/odom"
child_frame_id: "swarmone/base_link"
pose: 
  pose: 
    position: 
      x: 0.630806683187
      y: 5.11156123607
      z: 0.0
    orientation: 
      x: 0.0
      y: 0.0
      z: 0.666869918525
      w: 0.745174148617
  covariance: [23602881989.36854, -1739399347.9569545, 0.0, 0.0, 0.0, 1.0394845634945668e-36, -1739399347.9569604, 128241210.43312351, 0.0, 0.0, 0.0, -1.1564440272763929e-37, 0.0, 0.0, 6.218377381826145e-07, 5.602670258230434e-42, 6.636828972650175e-35, 0.0, 0.0, 0.0, 5.602670258230434e-42, 5.174029393790726e-07, 3.113626776364459e-31, 0.0, 0.0, 0.0, 6.636828972650176e-35, -3.113626776364459e-31, 5.174029393790726e-07, 0.0, 1.0394845634945668e-36, -1.1564440272763926e-37, 0.0, 0.0, 0.0, 1.1454091795211949e-06]
twist: 
  twist: 
    linear: 
      x: -1.43213960162e-29
      y: 0.0
      z: 0.0
    angular: 
      x: 0.0
      y: 0.0
      z: 0.000104310659623
  covariance: [9.999996245172232e-10, 0.0, 0.0, 0.0, 0.0, 0.0, 0.0, 537089.5300593389, 0.0, 0.0, 0.0, 0.0, 0.0, 0.0, 5.58084677910288e-07, 1.5673335064758448e-45, 1.7436875210265193e-46, 0.0, 0.0, 0.0, 1.5673335064758448e-45, 4.0845380245166593e-07, -6.190785855503049e-35, 0.0, 0.0, 0.0, 1.7436875210265193e-46, 6.190785855503049e-35, 4.0845380245166593e-07, 0.0, 0.0, 0.0, 0.0, 0.0, 0.0, 9.973922322101714e-10]
---
header: 
  seq: 5443
  stamp: 
    secs: 1518210006
    nsecs: 812541246
  frame_id: "swarmone/odom"
child_frame_id: "swarmone/base_link"
pose: 
  pose: 
    position: 
      x: 0.630806683187
      y: 5.11156123607
      z: 0.0
    orientation: 
      x: 0.0
      y: 0.0
      z: 0.666869861673
      w: 0.745174199494
  covariance: [23624514898.439453, -1741401782.937244, 0.0, 0.0, 0.0, 8.806386143141006e-37, -1741401782.9372497, 128419010.22742938, 0.0, 0.0, 0.0, -9.79724899620851e-38, 0.0, 0.0, 5.86004568544973e-07, 3.892704215707238e-42, 5.763497589436135e-35, 0.0, 0.0, 0.0, 3.8927042157072387e-42, 4.891914933489344e-07, 5.679782636474959e-32, 0.0, 0.0, 0.0, 5.763497589436134e-35, -5.679782636474959e-32, 4.891914933489344e-07, 0.0, 8.806386143141007e-37, -9.797248996208513e-38, 0.0, 0.0, 0.0, 9.165273435832269e-07]
twist: 
  twist: 
    linear: 
      x: -1.34455209402e-29
      y: 0.0
      z: 0.0
    angular: 
      x: 0.0
      y: 0.0
      z: 0.000130218534516
  covariance: [9.99999623686077e-10, 0.0, 0.0, 0.0, 0.0, 0.0, 0.0, 537385.0748047056, 0.0, 0.0, 0.0, 0.0, 0.0, 0.0, 5.261312415980943e-07, 9.562172862010163e-46, 1.0638095497405042e-46, 0.0, 0.0, 0.0, 9.562172862010161e-46, 3.947967881603133e-07, 2.321624287072561e-34, 0.0, 0.0, 0.0, 1.063809549740504e-46, -2.321624287072561e-34, 3.947967881603133e-07, 0.0, 0.0, 0.0, 0.0, 0.0, 0.0, 9.967445350100127e-10]
---
header: 
  seq: 5444
  stamp: 
    secs: 1518210006
    nsecs: 912618399
  frame_id: "swarmone/odom"
child_frame_id: "swarmone/base_link"
pose: 
  pose: 
    position: 
      x: 0.630806683187
      y: 5.11156123607
      z: 0.0
    orientation: 
      x: 0.0
      y: 0.0
      z: 0.666869879439
      w: 0.745174183595
  covariance: [23646225241.4485, -1743411587.338357, 0.0, 0.0, 0.0, 8.052399345167604e-37, -1743411587.3383627, 128597491.22373937, 0.0, 0.0, 0.0, -8.958434464719674e-38, 0.0, 0.0, 5.97910951780178e-07, 4.063310953044846e-42, 5.580078075404436e-35, 0.0, 0.0, 0.0, 4.063310953044846e-42, 4.983555738268136e-07, -3.8403914998462073e-31, 0.0, 0.0, 0.0, 5.580078075404437e-35, 3.8403914998462073e-31, 4.983555738268136e-07, 0.0, 8.052399345167604e-37, -8.958434464719674e-38, 0.0, 0.0, 0.0, 9.880529173141983e-07]
twist: 
  twist: 
    linear: 
      x: -1.26210265576e-29
      y: 0.0
      z: 0.0
    angular: 
      x: 0.0
      y: 0.0
      z: 0.000120839421848
  covariance: [9.999996248179803e-10, 0.0, 0.0, 0.0, 0.0, 0.0, 0.0, 537681.5686632765, 0.0, 0.0, 0.0, 0.0, 0.0, 0.0, 5.366021365075163e-07, 1.0444170031891612e-45, 1.1619333312801787e-46, 0.0, 0.0, 0.0, 1.0444170031891613e-45, 3.9913205626656296e-07, 9.68421906894435e-35, 0.0, 0.0, 0.0, 1.1619333312801789e-46, -9.684219068944351e-35, 3.9913205626656296e-07, 0.0, 0.0, 0.0, 0.0, 0.0, 0.0, 9.969790129491387e-10]
---
header: 
  seq: 5445
  stamp: 
    secs: 1518210007
    nsecs:  12485743
  frame_id: "swarmone/odom"
child_frame_id: "swarmone/base_link"
pose: 
  pose: 
    position: 
      x: 0.630806683187
      y: 5.11156123607
      z: 0.0
    orientation: 
      x: 0.0
      y: 0.0
      z: 0.67058739482
      w: 0.74183053719
  covariance: [23667905985.335346, -1745418833.0947757, 0.0, 0.0, 0.0, 7.660090673773378e-37, -1745418833.0947812, 128775770.62852645, 0.0, 0.0, 0.0, -8.008014458185087e-38, 0.0, 0.0, 5.955847695007341e-07, 3.396017065413733e-42, 5.199636478957519e-35, 0.0, 0.0, 0.0, 3.396017065413733e-42, 4.965491254067007e-07, 3.632922901970228e-30, 0.0, 0.0, 0.0, 5.199636478957518e-35, -3.632922901970228e-30, 4.965491254067007e-07, 0.0, 7.660090673773378e-37, -8.008014458185087e-38, 0.0, 0.0, 0.0, 9.737478025677493e-07]
twist: 
  twist: 
    linear: 
      x: -1.18486110006e-29
      y: 0.0
      z: 0.0
    angular: 
      x: 0.0
      y: 0.0
      z: 0.00012260557821
  covariance: [9.99999623981518e-10, 0.0, 0.0, 0.0, 0.0, 0.0, 0.0, 537977.5496279923, 0.0, 0.0, 0.0, 0.0, 0.0, 0.0, 5.345451205498445e-07, 9.518426290917041e-46, 9.626953254852438e-47, 0.0, 0.0, 0.0, 9.518426290917041e-46, 3.9826984031861354e-07, -1.9296231306556562e-34, 0.0, 0.0, 0.0, 9.626953254852434e-47, 1.9296231306556562e-34, 3.9826984031861354e-07, 0.0, 0.0, 0.0, 0.0, 0.0, 0.0, 9.969348590145253e-10]
---
header: 
  seq: 5446
  stamp: 
    secs: 1518210007
    nsecs: 112242699
  frame_id: "swarmone/odom"
child_frame_id: "swarmone/base_link"
pose: 
  pose: 
    position: 
      x: 0.630806683187
      y: 5.11156123607
      z: 0.0
    orientation: 
      x: 0.0
      y: 0.0
      z: 0.663135678733
      w: 0.74849921282
  covariance: [23689601663.581547, -1747317984.1996074, 0.0, 0.0, 0.0, 7.000440644225214e-37, -1747317984.1996129, 128937998.3723444, 0.0, 0.0, 0.0, -8.014734658348112e-38, 0.0, 0.0, 5.908507361114374e-07, 3.66054019015322e-42, 4.822755593079871e-35, 0.0, 0.0, 0.0, 3.6605401901532194e-42, 4.928969800650968e-07, -8.596715873085823e-31, 0.0, 0.0, 0.0, 4.822755593079871e-35, 8.596715873085823e-31, 4.928969800650968e-07, 0.0, 7.000440644225214e-37, -8.014734658348113e-38, 0.0, 0.0, 0.0, 9.451375730753625e-07]
twist: 
  twist: 
    linear: 
      x: -1.11242235684e-29
      y: 0.0
      z: 0.0
    angular: 
      x: 0.0
      y: 0.0
      z: 0.000126297436917
  covariance: [9.999996235398568e-10, 0.0, 0.0, 0.0, 0.0, 0.0, 0.0, 538273.311853166, 0.0, 0.0, 0.0, 0.0, 0.0, 0.0, 5.303758540256527e-07, 8.39735562756399e-46, 1.0193016474360973e-46, 0.0, 0.0, 0.0, 8.397355627563989e-46, 3.965382437155668e-07, -8.024800220301418e-35, 0.0, 0.0, 0.0, 1.0193016474360973e-46, 8.024800220301418e-35, 3.965382437155668e-07, 0.0, 0.0, 0.0, 0.0, 0.0, 0.0, 9.968425624991218e-10]
---
header: 
  seq: 5447
  stamp: 
    secs: 1518210007
    nsecs: 211874962
  frame_id: "swarmone/odom"
child_frame_id: "swarmone/base_link"
pose: 
  pose: 
    position: 
      x: 0.631110828116
      y: 5.11432189363
      z: 0.0
    orientation: 
      x: 0.0
      y: 0.0
      z: 0.79862150947
      w: 0.601833602095
  covariance: [23711237788.415413, -1749430447.5303729, 0.0, 0.0, 0.0, 6.420147471521975e-37, -1749430447.5303783, 129132110.86003467, 0.0, 0.0, 0.0, 9.568076386046183e-38, 0.0, 0.0, 5.932315137147722e-07, -3.202837257576945e-41, 4.547552476687021e-35, 0.0, 0.0, 0.0, -3.202837257576945e-41, 4.947300787090903e-07, -1.5900522235009185e-29, 0.0, 0.0, 0.0, 4.547552476687021e-35, 1.5900522235009185e-29, 4.947300787090903e-07, 0.0, 6.4201474715219745e-37, 9.568076386046183e-38, 0.0, 0.0, 0.0, 9.594426878212533e-07]
twist: 
  twist: 
    linear: 
      x: 0.055599979041
      y: 0.0
      z: 0.0
    angular: 
      x: 0.0
      y: 0.0
      z: -0.0194400913949
  covariance: [9.999996230397118e-10, 0.0, 0.0, 0.0, 0.0, 0.0, 0.0, 538568.8125634011, 0.0, 0.0, 0.0, 0.0, 0.0, 0.0, 5.324697573868837e-07, 7.85457994183742e-46, -2.251413267000049e-46, 0.0, 0.0, 0.0, 7.854579941837417e-46, 3.974051218399482e-07, -2.277529452462503e-34, 0.0, 0.0, 0.0, -2.2514132670000485e-46, 2.2775294524625023e-34, 3.974051218399482e-07, 0.0, 0.0, 0.0, 0.0, 0.0, 0.0, 9.96889395251737e-10]
---
header: 
  seq: 5448
  stamp: 
    secs: 1518210007
    nsecs: 312802076
  frame_id: "swarmone/odom"
child_frame_id: "swarmone/base_link"
pose: 
  pose: 
    position: 
      x: 0.630311123466
      y: 5.1290736001
      z: 0.0
    orientation: 
      x: 0.0
      y: 0.0
      z: 0.601198343596
      w: 0.799099838354
  covariance: [23732476551.842102, -1747171402.184561, 0.0, 0.0, 0.0, -1.8006231865912747e-15, -1747171402.184566, 128682432.44720303, 0.0, 0.0, 0.0, 1.2689192566520659e-17, 0.0, 0.0, 5.955848411438864e-07, 4.460927443121043e-21, -9.743302934110503e-14, 0.0, 0.0, 0.0, 4.460927443121039e-21, 4.96549104913189e-07, -3.9657887402110644e-27, 0.0, 0.0, 0.0, -9.743302934110502e-14, -3.963652272649985e-27, 4.965491049131655e-07, 0.0, -1.8006231865912747e-15, 1.2689192566520676e-17, 0.0, 0.0, 0.0, 9.73747802569501e-07]
twist: 
  twist: 
    linear: 
      x: 0.244399931077
      y: 0.0
      z: 0.0
    angular: 
      x: 0.0
      y: 0.0
      z: -0.129662834491
  covariance: [9.999996281707598e-10, 0.0, 0.0, 0.0, 0.0, 0.0, 0.0, 538868.2639384707, 0.0, 0.0, 0.0, 0.0, 0.0, 0.0, 5.345452628775626e-07, -1.7248462250040813e-24, -4.961593192494874e-25, 0.0, 0.0, 0.0, -1.7248462250040802e-24, 3.9827079052062826e-07, -1.4648588321291302e-31, 0.0, 0.0, 0.0, -4.961593192494872e-25, -1.4613770510286334e-31, 3.9827079052062826e-07, 0.0, 0.0, 0.0, 0.0, 0.0, 0.0, 9.969348590145747e-10]
---
header: 
  seq: 5449
  stamp: 
    secs: 1518210007
    nsecs: 412403822
  frame_id: "swarmone/odom"
child_frame_id: "swarmone/base_link"
pose: 
  pose: 
    position: 
      x: 0.637569613732
      y: 5.15633811888
      z: 0.0
    orientation: 
      x: 0.0
      y: 0.0
      z: 0.681638976502
      w: 0.731688667203
  covariance: [23753442037.11833, -1750968456.369638, 0.0, 0.0, 0.0, -8.053508428430293e-15, -1750968456.3696432, 129128864.95088218, 0.0, 0.0, 0.0, 1.4248119149718375e-15, 0.0, 0.0, 5.932315116016682e-07, 1.0893207200384653e-19, -4.252908860490233e-13, 0.0, 0.0, 0.0, 1.0893207200384653e-19, 4.947296076668164e-07, 7.687566445218866e-25, 0.0, 0.0, 0.0, -4.252908860490233e-13, 7.687560695178147e-25, 4.947296076663716e-07, 0.0, -8.053508428430295e-15, 1.4248119149718373e-15, 0.0, 0.0, 0.0, 9.59442687821203e-07]
twist: 
  twist: 
    linear: 
      x: 0.323199975829
      y: 0.0
      z: 0.0
    angular: 
      x: 0.0
      y: 0.0
      z: -0.159377879315
  covariance: [9.999996229177725e-10, 0.0, 0.0, 0.0, 0.0, 0.0, 0.0, 539163.8917388329, 0.0, 0.0, 0.0, 0.0, 0.0, 0.0, 5.32469753200852e-07, -7.632849908993637e-24, -5.4362531991475675e-25, 0.0, 0.0, 0.0, -7.63284990899364e-24, 3.9740509412216613e-07, -7.7574578829096915e-31, 0.0, 0.0, 0.0, -5.4362531991475675e-25, -7.757580295572362e-31, 3.9740509412216613e-07, 0.0, 0.0, 0.0, 0.0, 0.0, 0.0, 9.968893952517354e-10]
---
header: 
  seq: 5450
  stamp: 
    secs: 1518210007
    nsecs: 512779474
  frame_id: "swarmone/odom"
child_frame_id: "swarmone/base_link"
pose: 
  pose: 
    position: 
      x: 0.640004378821
      y: 5.19037689717
      z: 0.0
    orientation: 
      x: 0.0
      y: 0.0
      z: 0.609159190026
      w: 0.793047969045
  covariance: [23775392262.158314, -1752558012.0553722, 0.0, 0.0, 0.0, -1.0502937100039133e-14, -1752558012.0553777, 129243927.22864841, 0.0, 0.0, 0.0, 1.7635948300291425e-15, 0.0, 0.0, 5.908507792070715e-07, 7.607557510346856e-20, -5.581711331468576e-13, 0.0, 0.0, 0.0, 7.607557510346856e-20, 4.928969125609641e-07, 4.610793786848107e-25, 0.0, 0.0, 0.0, -5.581711331468577e-13, 4.610793969414994e-25, 4.928969125602022e-07, 0.0, -1.0502937100039135e-14, 1.7635948300291423e-15, 0.0, 0.0, 0.0, 9.451375730763919e-07]
twist: 
  twist: 
    linear: 
      x: 0.356899994412
      y: 0.0
      z: 0.0
    angular: 
      x: 0.0
      y: 0.0
      z: -0.129621107735
  covariance: [9.999996260021458e-10, 0.0, 0.0, 0.0, 0.0, 0.0, 0.0, 539461.9259376843, 0.0, 0.0, 0.0, 0.0, 0.0, 0.0, 5.303759391712802e-07, -9.472925874726088e-24, -2.5254064906235188e-24, 0.0, 0.0, 0.0, -9.472925874726085e-24, 3.9653880533454533e-07, -4.3042002820141735e-30, 0.0, 0.0, 0.0, -2.5254064906235184e-24, -4.304166294017377e-30, 3.9653880533454533e-07, 0.0, 0.0, 0.0, 0.0, 0.0, 0.0, 9.968425624991526e-10]
---
header: 
  seq: 5451
  stamp: 
    secs: 1518210007
    nsecs: 612739801
  frame_id: "swarmone/odom"
child_frame_id: "swarmone/base_link"
pose: 
  pose: 
    position: 
      x: 0.649066675701
      y: 5.22215951582
      z: 0.0
    orientation: 
      x: 0.0
      y: 0.0
      z: 0.655617655265
      w: 0.755093034072
  covariance: [23796581154.4841, -1756168466.3002014, 0.0, 0.0, 0.0, -1.1712473014576254e-14, -1756168466.300207, 129661974.41064332, 0.0, 0.0, 0.0, 2.3583534251498243e-15, 0.0, 0.0, 5.979109439220395e-07, 1.1147745929787318e-19, -6.245947770898346e-13, 0.0, 0.0, 0.0, 1.1147745929787322e-19, 4.983555486619349e-07, 1.4283077575623073e-24, 0.0, 0.0, 0.0, -6.245947770898345e-13, 1.4283069257733523e-24, 4.983555486609642e-07, 0.0, -1.1712473014576253e-14, 2.358353425149824e-15, 0.0, 0.0, 0.0, 9.880529173140045e-07]
twist: 
  twist: 
    linear: 
      x: 0.303000027608
      y: 0.0
      z: 0.0
    angular: 
      x: 0.0
      y: 0.0
      z: -0.0397583212923
  covariance: [9.999996243529865e-10, 0.0, 0.0, 0.0, 0.0, 0.0, 0.0, 539758.8360877861, 0.0, 0.0, 0.0, 0.0, 0.0, 0.0, 5.366021208513873e-07, -1.1661192178920506e-23, -1.654691913101627e-24, 0.0, 0.0, 0.0, -1.1661192178920509e-23, 3.991319511699007e-07, -3.388826102224829e-30, 0.0, 0.0, 0.0, -1.654691913101627e-24, -3.389000540502385e-30, 3.991319511699007e-07, 0.0, 0.0, 0.0, 0.0, 0.0, 0.0, 9.969790129491331e-10]
---
header: 
  seq: 5452
  stamp: 
    secs: 1518210007
    nsecs: 712746143
  frame_id: "swarmone/odom"
child_frame_id: "swarmone/base_link"
pose: 
  pose: 
    position: 
      x: 0.652989572698
      y: 5.24889926171
      z: 0.0
    orientation: 
      x: 0.0
      y: 0.0
      z: 0.601198698661
      w: 0.799099571223
  covariance: [23818320192.22941, -1758513590.7166412, 0.0, 0.0, 0.0, -9.872002517511413e-15, -1758513590.716647, 129890004.6781477, 0.0, 0.0, 0.0, 2.1046596924939512e-15, 0.0, 0.0, 5.90850753551668e-07, -6.569673265648501e-20, -5.192303752018989e-13, 0.0, 0.0, 0.0, -6.5696732656485e-20, 4.928970284412254e-07, 7.492621424385772e-26, 0.0, 0.0, 0.0, -5.192303752018988e-13, 7.493080053685173e-26, 4.928970284405661e-07, 0.0, -9.872002517511411e-15, 2.1046596924939512e-15, 0.0, 0.0, 0.0, 9.451375730757795e-07]
twist: 
  twist: 
    linear: 
      x: 0.23700003045
      y: 0.0
      z: 0.0
    angular: 
      x: 0.0
      y: 0.0
      z: 0.0200631486241
  covariance: [9.999996245363557e-10, 0.0, 0.0, 0.0, 0.0, 0.0, 0.0, 540055.9919135172, 0.0, 0.0, 0.0, 0.0, 0.0, 0.0, 5.303758884831422e-07, -8.764223805769567e-24, -2.52575536642948e-24, 0.0, 0.0, 0.0, -8.764223805769564e-24, 3.96538471039969e-07, -3.99954235318759e-30, 0.0, 0.0, 0.0, -2.5257553664294776e-24, -3.998851715915251e-30, 3.96538471039969e-07, 0.0, 0.0, 0.0, 0.0, 0.0, 0.0, 9.968425624991342e-10]
---
header: 
  seq: 5453
  stamp: 
    secs: 1518210007
    nsecs: 812767506
  frame_id: "swarmone/odom"
child_frame_id: "swarmone/base_link"
pose: 
  pose: 
    position: 
      x: 0.659346980573
      y: 5.26922468385
      z: 0.0
    orientation: 
      x: 0.0
      y: 0.0
      z: 0.64038568192
      w: 0.768053499694
  covariance: [23839435220.237785, -1762340291.055904, 0.0, 0.0, 0.0, -7.604475830577392e-15, -1762340291.0559092, 130341019.23961453, 0.0, 0.0, 0.0, 1.7769572910990506e-15, 0.0, 0.0, 5.95584780001037e-07, -6.630828752066175e-20, -4.078454600217646e-13, 0.0, 0.0, 0.0, -6.630828752066176e-20, 4.965491560937353e-07, -1.598756051997299e-25, 0.0, 0.0, 0.0, -4.078454600217647e-13, -1.5987398419786685e-25, 4.96549156093324e-07, 0.0, -7.604475830577393e-15, 1.776957291099051e-15, 0.0, 0.0, 0.0, 9.737478025680051e-07]
twist: 
  twist: 
    linear: 
      x: 0.187600022349
      y: 0.0
      z: 0.0
    angular: 
      x: 0.0
      y: 0.0
      z: 0.0200613027892
  covariance: [9.999996245961828e-10, 0.0, 0.0, 0.0, 0.0, 0.0, 0.0, 540353.3014388075, 0.0, 0.0, 0.0, 0.0, 0.0, 0.0, 5.345451414027344e-07, -7.391908600541147e-24, -1.3521998748411127e-24, 0.0, 0.0, 0.0, -7.391908600541149e-24, 3.982699794511562e-07, -1.7770443999066708e-30, 0.0, 0.0, 0.0, -1.352199874841113e-24, -1.777079122909348e-30, 3.982699794511562e-07, 0.0, 0.0, 0.0, 0.0, 0.0, 0.0, 9.969348590145325e-10]
---
header: 
  seq: 5454
  stamp: 
    secs: 1518210007
    nsecs: 912031651
  frame_id: "swarmone/odom"
child_frame_id: "swarmone/base_link"
pose: 
  pose: 
    position: 
      x: 0.662414889563
      y: 5.28511806992
      z: 0.0
    orientation: 
      x: 0.0
      y: 0.0
      z: 0.636537307845
      w: 0.771245911316
  covariance: [23860904443.78555, -1765098378.4072292, 0.0, 0.0, 0.0, -6.1345019082021e-15, -1765098378.4072347, 130631979.28522737, 0.0, 0.0, 0.0, 1.1533164389846792e-15, 0.0, 0.0, 5.955847280349235e-07, -2.9351038378761326e-20, -3.202178896712194e-13, 0.0, 0.0, 0.0, -2.9351038378761314e-20, 4.965489141010404e-07, -6.12916351296524e-26, 0.0, 0.0, 0.0, -3.202178896712193e-13, -6.12951856191697e-26, 4.965489141007866e-07, 0.0, -6.1345019082021e-15, 1.1533164389846792e-15, 0.0, 0.0, 0.0, 9.73747802566735e-07]
twist: 
  twist: 
    linear: 
      x: 0.138500021017
      y: 0.0
      z: 0.0
    angular: 
      x: 0.0
      y: 0.0
      z: 0.0100306514099
  covariance: [9.999996215568958e-10, 0.0, 0.0, 0.0, 0.0, 0.0, 0.0, 540648.4680263307, 0.0, 0.0, 0.0, 0.0, 0.0, 0.0, 5.345450381677556e-07, -5.7933482147451215e-24, -1.1188653400499175e-24, 0.0, 0.0, 0.0, -5.793348214745118e-24, 3.9826929026072124e-07, -1.1440553386129696e-30, 0.0, 0.0, 0.0, -1.1188653400499172e-24, -1.1439372202438595e-30, 3.9826929026072124e-07, 0.0, 0.0, 0.0, 0.0, 0.0, 0.0, 9.969348590144967e-10]
---
header: 
  seq: 5455
  stamp: 
    secs: 1518210008
    nsecs:  12706518
  frame_id: "swarmone/odom"
child_frame_id: "swarmone/base_link"
pose: 
  pose: 
    position: 
      x: 0.664771218616
      y: 5.2964781765
      z: 0.0
    orientation: 
      x: 0.0
      y: 0.0
      z: 0.644219433839
      w: 0.764840716139
  covariance: [23882653765.93824, -1768005477.2209406, 0.0, 0.0, 0.0, -1.1346756857603982e-14, -1768005477.220946, 130943637.99922031, 0.0, 0.0, 0.0, 2.0031686428857076e-15, 0.0, 0.0, 8.154831769701766e-07, -1.9267024553541602e-19, -2.4663223310332917e-13, 0.0, 0.0, 0.0, -1.9267024553541597e-19, 7.109594710977094e-07, -2.611053559622419e-25, 0.0, 0.0, 0.0, -2.4663223310332917e-13, -2.611006156901002e-25, 7.109594710973798e-07, 0.0, -1.1346756857603984e-14, 2.0031686428857076e-15, 0.0, 0.0, 0.0, 3.920601440268321e-06]
twist: 
  twist: 
    linear: 
      x: 0.0913000187522
      y: 0.0
      z: 0.0
    angular: 
      x: 0.0
      y: 0.0
      z: 0.0200382106826
  covariance: [9.99999627181666e-10, 0.0, 0.0, 0.0, 0.0, 0.0, 0.0, 540947.9392367034, 0.0, 0.0, 0.0, 0.0, 0.0, 0.0, 7.568687923290296e-07, -2.9253283562712815e-23, -5.045232054115354e-24, 0.0, 0.0, 0.0, -2.925328356271281e-23, 5.355358378398332e-07, -1.2693032574116306e-29, 0.0, 0.0, 0.0, -5.045232054115351e-24, -1.269264780793765e-29, 5.355358378398332e-07, 0.0, 0.0, 0.0, 0.0, 0.0, 0.0, 9.992357858925154e-10]
---
header: 
  seq: 5456
  stamp: 
    secs: 1518210008
    nsecs: 112716436
  frame_id: "swarmone/odom"
child_frame_id: "swarmone/base_link"
pose: 
  pose: 
    position: 
      x: 0.666077960945
      y: 5.30359510146
      z: 0.0
    orientation: 
      x: 0.0
      y: 0.0
      z: 0.632674332954
      w: 0.774417967522
  covariance: [23904354295.579594, -1770682690.6603053, 0.0, 0.0, 0.0, -1.1975343542889267e-14, -1770682690.6603105, 131221564.99260686, 0.0, 0.0, 0.0, 2.254929004851549e-15, 0.0, 0.0, 8.211481936817475e-07, -1.0830352133304326e-19, -1.5699389646626635e-13, 0.0, 0.0, 0.0, -1.0830352133304326e-19, 7.179564230223275e-07, -1.0036738718359607e-25, 0.0, 0.0, 0.0, -1.5699389646626635e-13, -1.003662832158119e-25, 7.179564230221898e-07, 0.0, -1.1975343542889265e-14, 2.2549290048515485e-15, 0.0, 0.0, 0.0, 4.092262817220804e-06]
twist: 
  twist: 
    linear: 
      x: 0.0532000143034
      y: 0.0
      z: 0.0
    angular: 
      x: 0.0
      y: 0.0
      z: 0.0100292878344
  covariance: [9.999996245505086e-10, 0.0, 0.0, 0.0, 0.0, 0.0, 0.0, 541245.5419381377, 0.0, 0.0, 0.0, 0.0, 0.0, 0.0, 7.634505578710307e-07, -1.9372328728539325e-23, -3.9432283139599735e-24, 0.0, 0.0, 0.0, -1.9372328728539325e-23, 5.416265540182717e-07, -6.577467991464293e-30, 0.0, 0.0, 0.0, -3.943228313959974e-24, -6.578236600208884e-30, 5.416265540182717e-07, 0.0, 0.0, 0.0, 0.0, 0.0, 0.0, 9.992678038644796e-10]
---
header: 
  seq: 5457
  stamp: 
    secs: 1518210008
    nsecs: 212755442
  frame_id: "swarmone/odom"
child_frame_id: "swarmone/base_link"
pose: 
  pose: 
    position: 
      x: 0.666907988837
      y: 5.30715442655
      z: 0.0
    orientation: 
      x: 0.0
      y: 0.0
      z: 0.651833946174
      w: 0.758361725442
  covariance: [23925954888.141308, -1773683350.3088055, 0.0, 0.0, 0.0, -4.266320835669302e-15, -1773683350.3088107, 131548227.65549782, 0.0, 0.0, 0.0, 8.275308634053204e-16, 0.0, 0.0, 5.908507560887013e-07, -8.039830112119036e-21, -8.302434038952548e-14, 0.0, 0.0, 0.0, -8.039830112119033e-21, 4.928970015530181e-07, -4.957082717474775e-27, 0.0, 0.0, 0.0, -8.302434038952549e-14, -4.957923262558218e-27, 4.928970015530013e-07, 0.0, -4.266320835669302e-15, 8.275308634053206e-16, 0.0, 0.0, 0.0, 9.451375730759201e-07]
twist: 
  twist: 
    linear: 
      x: 0.0196000117334
      y: 0.0
      z: 0.0
    angular: 
      x: 0.0
      y: 0.0
      z: -0.00987370253149
  covariance: [9.999996246662743e-10, 0.0, 0.0, 0.0, 0.0, 0.0, 0.0, 541543.3403742337, 0.0, 0.0, 0.0, 0.0, 0.0, 0.0, 5.303758937695375e-07, -1.4494557937912072e-24, -2.2071088196314183e-25, 0.0, 0.0, 0.0, -1.4494557937912072e-24, 3.965385136613466e-07, -6.30787347201539e-32, 0.0, 0.0, 0.0, -2.2071088196314187e-25, -6.330330725651683e-32, 3.965385136613466e-07, 0.0, 0.0, 0.0, 0.0, 0.0, 0.0, 9.968425624991358e-10]
---
header: 
  seq: 5458
  stamp: 
    secs: 1518210008
    nsecs: 312731743
  frame_id: "swarmone/odom"
child_frame_id: "swarmone/base_link"
pose: 
  pose: 
    position: 
      x: 0.66707209981
      y: 5.30815847401
      z: 0.0
    orientation: 
      x: 0.0
      y: 0.0
      z: 0.670588301371
      w: 0.741829717701
  covariance: [23947750487.502487, -1776149125.73429, 0.0, 0.0, 0.0, -1.4554354743604662e-15, -1776149125.734295, 131794410.63795952, 0.0, 0.0, 0.0, 1.6102758381978036e-16, 0.0, 0.0, 8.373751197870654e-07, -7.809979391728098e-21, -2.5283255129433134e-14, 0.0, 0.0, 0.0, -7.809979391728098e-21, 7.385279696939365e-07, -1.1794905521598536e-27, 0.0, 0.0, 0.0, -2.5283255129433137e-14, -1.1799077032422304e-27, 7.385279696939326e-07, 0.0, -1.4554354743604662e-15, 1.6102758381978036e-16, 0.0, 0.0, 0.0, 4.650162292319659e-06]
twist: 
  twist: 
    linear: 
      x: 0.000700005501431
      y: 0.0
      z: 0.0
    angular: 
      x: 0.0
      y: 0.0
      z: 2.57778177458e-05
  covariance: [9.999996244164776e-10, 0.0, 0.0, 0.0, 0.0, 0.0, 0.0, 541841.0612639163, 0.0, 0.0, 0.0, 0.0, 0.0, 0.0, 7.825793430790621e-07, -3.605608826061704e-24, -3.6459178873446363e-25, 0.0, 0.0, 0.0, -3.605608826061704e-24, 5.603642625015025e-07, -1.1443029107396204e-31, 0.0, 0.0, 0.0, -3.6459178873446368e-25, -1.1346045801688937e-31, 5.603642625015025e-07, 0.0, 0.0, 0.0, 0.0, 0.0, 0.0, 9.993555541541885e-10]
---
header: 
  seq: 5459
  stamp: 
    secs: 1518210008
    nsecs: 412652969
  frame_id: "swarmone/odom"
child_frame_id: "swarmone/base_link"
pose: 
  pose: 
    position: 
      x: 0.667082606331
      y: 5.30819159284
      z: 0.0
    orientation: 
      x: 0.0
      y: 0.0
      z: 0.663135682299
      w: 0.74849920966
  covariance: [23969688211.87532, -1778074365.058094, 0.0, 0.0, 0.0, 2.1482618998773972e-16, -1778074365.0580988, 131959440.97371769, 0.0, 0.0, 0.0, -2.3154584365946562e-17, 0.0, 0.0, 5.932315340114537e-07, 5.620477697456137e-22, 7.298317324709023e-15, 0.0, 0.0, 0.0, 5.620477697456136e-22, 4.947296769752246e-07, -1.0908744591567897e-29, 0.0, 0.0, 0.0, 7.298317324709024e-15, -9.259637128273278e-30, 4.947296769752244e-07, 0.0, 2.1482618998773972e-16, -2.3154584365946556e-17, 0.0, 0.0, 0.0, 9.5944268782184e-07]
twist: 
  twist: 
    linear: 
      x: -1.67115313341e-09
      y: 0.0
      z: 0.0
    angular: 
      x: 0.0
      y: 0.0
      z: 0.000124424127699
  covariance: [9.999996241966527e-10, 0.0, 0.0, 0.0, 0.0, 0.0, 0.0, 542138.7271541022, 0.0, 0.0, 0.0, 0.0, 0.0, 0.0, 5.3246979790221e-07, 1.3042792790905886e-25, 1.5827396320659262e-26, 0.0, 0.0, 0.0, 1.3042792790905882e-25, 3.9740539981937223e-07, -5.409042746478266e-34, 0.0, 0.0, 0.0, 1.582739632065926e-26, -1.6307291389170905e-34, 3.9740539981937223e-07, 0.0, 0.0, 0.0, 0.0, 0.0, 0.0, 9.968893952517511e-10]
---
header: 
  seq: 5460
  stamp: 
    secs: 1518210008
    nsecs: 512373447
  frame_id: "swarmone/odom"
child_frame_id: "swarmone/base_link"
pose: 
  pose: 
    position: 
      x: 0.667085306435
      y: 5.30819082902
      z: 0.0
    orientation: 
      x: 0.0
      y: 0.0
      z: 0.663135677482
      w: 0.748499213927
  covariance: [23991549179.218723, -1780214381.1184669, 0.0, 0.0, 0.0, 1.1458712407963214e-16, -1780214381.1184711, 132156864.51258655, 0.0, 0.0, 0.0, -1.390939831309727e-17, 0.0, 0.0, 5.908507335510528e-07, 6.027332368457016e-22, 7.939808182571154e-15, 0.0, 0.0, 0.0, 6.0273323684570145e-22, 4.928969721966586e-07, -1.0360421701720857e-29, 0.0, 0.0, 0.0, 7.939808182571149e-15, -1.30325425326926e-29, 4.928969721966585e-07, 0.0, 1.1458712407963217e-16, -1.390939831309727e-17, 0.0, 0.0, 0.0, 9.45137573075301e-07]
twist: 
  twist: 
    linear: 
      x: -1.83211653227e-09
      y: 0.0
      z: 0.0
    angular: 
      x: 0.0
      y: 0.0
      z: 0.000126297436897
  covariance: [9.999996233937368e-10, 0.0, 0.0, 0.0, 0.0, 0.0, 0.0, 542435.9036834384, 0.0, 0.0, 0.0, 0.0, 0.0, 0.0, 5.303758489648709e-07, 1.382462653597486e-25, 1.678133375167134e-26, 0.0, 0.0, 0.0, 1.3824626535974862e-25, 3.965382103016909e-07, -3.4797662419438866e-34, 0.0, 0.0, 0.0, 1.678133375167134e-26, -4.424710078565646e-34, 3.965382103016909e-07, 0.0, 0.0, 0.0, 0.0, 0.0, 0.0, 9.9684256249912e-10]
---
header: 
  seq: 5461
  stamp: 
    secs: 1518210008
    nsecs: 612144232
  frame_id: "swarmone/odom"
child_frame_id: "swarmone/base_link"
pose: 
  pose: 
    position: 
      x: 0.667087678523
      y: 5.30819008267
      z: 0.0
    orientation: 
      x: 0.0
      y: 0.0
      z: 0.65938503034
      w: 0.751805414827
  covariance: [24013437137.49941, -1782357317.917216, 0.0, 0.0, 0.0, 1.4372475199683018e-16, -1782357317.9172206, 132354596.91838081, 0.0, 0.0, 0.0, -1.8543711268932223e-17, 0.0, 0.0, 6.58757776424045e-07, 1.0438995969404885e-21, 8.389773518351796e-15, 0.0, 0.0, 0.0, 1.0438995969404887e-21, 5.485680237683727e-07, -2.2021353971513197e-29, 0.0, 0.0, 0.0, 8.389773518351794e-15, -1.9019962318178643e-29, 5.485680237683725e-07, 0.0, 1.437247519968302e-16, -1.8543711268932226e-17, 0.0, 0.0, 0.0, 1.431511474442879e-06]
twist: 
  twist: 
    linear: 
      x: -1.72009311829e-09
      y: 0.0
      z: 0.0
    angular: 
      x: 0.0
      y: 0.0
      z: 8.35356642007e-05
  covariance: [9.99999623595014e-10, 0.0, 0.0, 0.0, 0.0, 0.0, 0.0, 542733.3387930563, 0.0, 0.0, 0.0, 0.0, 0.0, 0.0, 5.924375440107072e-07, 2.769302245339171e-25, 3.6430474878050745e-26, 0.0, 0.0, 0.0, 2.769302245339171e-25, 4.246816750298655e-07, -1.4656964498949254e-33, 0.0, 0.0, 0.0, 3.6430474878050745e-26, -6.948936600019422e-34, 4.246816750298655e-07, 0.0, 0.0, 0.0, 0.0, 0.0, 0.0, 9.97911607351444e-10]
---
header: 
  seq: 5462
  stamp: 
    secs: 1518210008
    nsecs: 711869478
  frame_id: "swarmone/odom"
child_frame_id: "swarmone/base_link"
pose: 
  pose: 
    position: 
      x: 0.667077369446
      y: 5.30811076595
      z: 0.0
    orientation: 
      x: 0.0
      y: 0.0
      z: 0.789507251884
      w: 0.613741231483
  covariance: [24035303325.60924, -1784608771.0647712, 0.0, 0.0, 0.0, 1.1906352257082348e-16, -1784608771.0647762, 132568633.32571982, 0.0, 0.0, 0.0, 1.0728603371223778e-17, 0.0, 0.0, 5.979109281107725e-07, -2.020287494536504e-20, 7.113590490694011e-15, 0.0, 0.0, 0.0, -2.0202874945365043e-20, 4.983581436647761e-07, 3.4200424187377555e-28, 0.0, 0.0, 0.0, 7.113590490694013e-15, 3.7283824749777375e-28, 4.983581436647759e-07, 0.0, 1.1906352257082348e-16, 1.0728603371223777e-17, 0.0, 0.0, 0.0, 9.88052917313625e-07]
twist: 
  twist: 
    linear: 
      x: -0.00160000101242
      y: 0.0
      z: 0.0
    angular: 
      x: 0.0
      y: 0.0
      z: 0.560422937127
  covariance: [9.999996234124608e-10, 0.0, 0.0, 0.0, 0.0, 0.0, 0.0, 543030.7467811437, 0.0, 0.0, 0.0, 0.0, 0.0, 0.0, 5.366020894179914e-07, 1.298655387955533e-25, -3.303469113731851e-26, 0.0, 0.0, 0.0, 1.2986553879555323e-25, 3.9913174117767825e-07, 7.408048997838138e-35, 0.0, 0.0, 0.0, -3.3034691137318497e-26, 1.0393436406349507e-33, 3.9913174117767825e-07, 0.0, 0.0, 0.0, 0.0, 0.0, 0.0, 9.969790129491224e-10]
---
header: 
  seq: 5463
  stamp: 
    secs: 1518210008
    nsecs: 812499523
  frame_id: "swarmone/odom"
child_frame_id: "swarmone/base_link"
pose: 
  pose: 
    position: 
      x: 0.667149077412
      y: 5.30757236981
      z: 0.0
    orientation: 
      x: 0.0
      y: 0.0
      z: 0.501221895581
      w: 0.86531879177
  covariance: [24056885850.361874, -1782666305.497118, 0.0, 0.0, 0.0, 1.4093692299423786e-16, -1782666305.497123, 132160260.19815712, 0.0, 0.0, 0.0, -3.2212050409251095e-17, 0.0, 0.0, 5.979109887760739e-07, 8.990808564214785e-20, 9.557527255532721e-15, 0.0, 0.0, 0.0, 8.990808564214787e-20, 4.983599769021435e-07, -1.3940869253145843e-27, 0.0, 0.0, 0.0, 9.557527255532716e-15, -1.660433762266393e-27, 4.983599769021432e-07, 0.0, 1.4093692299423786e-16, -3.221205040925109e-17, 0.0, 0.0, 0.0, 9.880529173151154e-07]
twist: 
  twist: 
    linear: 
      x: -0.00939999864287
      y: 0.0
      z: 0.0
    angular: 
      x: 0.0
      y: 0.0
      z: 1.50918433248
  covariance: [9.999996270051416e-10, 0.0, 0.0, 0.0, 0.0, 0.0, 0.0, 543330.9632395471, 0.0, 0.0, 0.0, 0.0, 0.0, 0.0, 5.366022102117114e-07, 1.5623414347107956e-25, 8.953879730272207e-26, 0.0, 0.0, 0.0, 1.5623414347107956e-25, 3.9913255146881023e-07, -1.8407958569347896e-33, 0.0, 0.0, 0.0, 8.953879730272203e-26, -2.6087283751747013e-33, 3.9913255146881023e-07, 0.0, 0.0, 0.0, 0.0, 0.0, 0.0, 9.969790129491637e-10]
---
header: 
  seq: 5464
  stamp: 
    secs: 1518210008
    nsecs: 912761927
  frame_id: "swarmone/odom"
child_frame_id: "swarmone/base_link"
pose: 
  pose: 
    position: 
      x: 0.666619569816
      y: 5.30692563498
      z: 0.0
    orientation: 
      x: 0.0
      y: 0.0
      z: 0.543839879391
      w: 0.839189004685
  covariance: [24076147412.468327, -1788906870.760916, 0.0, 0.0, 0.0, 3.602248243010533e-16, -1788906870.760921, 132982326.44056918, 0.0, 0.0, 0.0, -1.8206832851342056e-16, 0.0, 0.0, 5.884419523064151e-07, 2.3638984868190103e-19, 2.2346616108332205e-14, 0.0, 0.0, 0.0, 2.363898486819011e-19, 4.910537852845783e-07, -4.6715615835965935e-26, 0.0, 0.0, 0.0, 2.23466161083322e-14, -4.674886393680567e-26, 4.91053785284577e-07, 0.0, 3.6022482430105335e-16, -1.820683285134206e-16, 0.0, 0.0, 0.0, 9.308324583301044e-07]
twist: 
  twist: 
    linear: 
      x: -0.00640000275958
      y: 0.0
      z: 0.0
    angular: 
      x: 0.0
      y: 0.0
      z: 1.40798040889
  covariance: [9.99999625553762e-10, 0.0, 0.0, 0.0, 0.0, 0.0, 0.0, 543630.1929136169, 0.0, 0.0, 0.0, 0.0, 0.0, 0.0, 5.2826316339326e-07, 3.497068967662423e-25, 1.5643812157762374e-25, 0.0, 0.0, 0.0, 3.497068967662422e-25, 3.9566921412164897e-07, -9.199848153584764e-33, 0.0, 0.0, 0.0, 1.5643812157762374e-25, -1.0819017899454696e-32, 3.9566921412164897e-07, 0.0, 0.0, 0.0, 0.0, 0.0, 0.0, 9.96794297977634e-10]
---
header: 
  seq: 5465
  stamp: 
    secs: 1518210009
    nsecs:  12573481
  frame_id: "swarmone/odom"
child_frame_id: "swarmone/base_link"
pose: 
  pose: 
    position: 
      x: 0.666511217173
      y: 5.30769173866
      z: 0.0
    orientation: 
      x: 0.0
      y: 0.0
      z: 0.692537329646
      w: 0.721382039593
  covariance: [24096339011.315243, -1794175880.4807255, 0.0, 0.0, 0.0, 6.064152342991516e-16, -1794175880.4807303, 133656088.40210597, 0.0, 0.0, 0.0, -7.282679708863614e-17, 0.0, 0.0, 7.699391484242315e-07, 2.6503542503598607e-20, 1.9224284657776013e-14, 0.0, 0.0, 0.0, 2.650354250359861e-20, 6.579180773984005e-07, -8.118347975265342e-27, 0.0, 0.0, 0.0, 1.922428465777601e-14, -8.117789775097882e-27, 6.579180773983989e-07, 0.0, 6.064152342991517e-16, -7.282679708863617e-17, 0.0, 0.0, 0.0, 2.8477178343078698e-06]
twist: 
  twist: 
    linear: 
      x: 0.0209999882239
      y: 0.0
      z: 0.0
    angular: 
      x: 0.0
      y: 0.0
      z: 0.199810707562
  covariance: [9.99999623758702e-10, 0.0, 0.0, 0.0, 0.0, 0.0, 0.0, 543928.1861473107, 0.0, 0.0, 0.0, 0.0, 0.0, 0.0, 7.056875231725863e-07, 1.6100969318904342e-24, 6.545527867162277e-26, 0.0, 0.0, 0.0, 1.610096931890434e-24, 4.934663762344454e-07, -9.2218477759896e-33, 0.0, 0.0, 0.0, 6.545527867162277e-26, -9.232646504064812e-33, 4.934663762344454e-07, 0.0, 0.0, 0.0, 0.0, 0.0, 0.0, 9.98948371281124e-10]
---
header: 
  seq: 5466
  stamp: 
    secs: 1518210009
    nsecs: 112178326
  frame_id: "swarmone/odom"
child_frame_id: "swarmone/base_link"
pose: 
  pose: 
    position: 
      x: 0.666500873994
      y: 5.30905251764
      z: 0.0
    orientation: 
      x: 0.0
      y: 0.0
      z: 0.757842393653
      w: 0.652437664749
  covariance: [24118410749.62461, -1795450102.0184202, 0.0, 0.0, 0.0, -1.25338663407157e-15, -1795450102.018425, 133723313.86104618, 0.0, 0.0, 0.0, -7.122325107953513e-18, 0.0, 0.0, 5.95584751717132e-07, -5.3012517163262194e-21, -3.138924381063197e-14, 0.0, 0.0, 0.0, -5.30125171632622e-21, 4.96548785616985e-07, -2.101072105425537e-27, 0.0, 0.0, 0.0, -3.138924381063197e-14, -2.1001631558276104e-27, 4.965487856169826e-07, 0.0, -1.25338663407157e-15, -7.122325107953504e-18, 0.0, 0.0, 0.0, 9.737478025673616e-07]
twist: 
  twist: 
    linear: 
      x: 0.00610000487146
      y: 0.0
      z: 0.0
    angular: 
      x: 0.0
      y: 0.0
      z: -0.109754788368
