header: 
  seq: 8935
  stamp: 
    secs: 1518208792
    nsecs: 634294987
  frame_id: "swarmone/map"
child_frame_id: "swarmone/base_link"
pose: 
  pose: 
    position: 
      x: 0.438084203339
      y: 5.09089425672
      z: 0.0
    orientation: 
      x: 0.0
      y: 0.0
      z: 0.713863607736
      w: 0.700284763186
  covariance: [2822054071582.995, -145486683617.5764, 0.0, 0.0, 0.0, 8.088407953810464e-24, -145486683617.57663, 7520833151.818906, 0.0, 0.0, 0.0, 1.5535170618517976e-25, 0.0, 0.0, 4.999748407216823e-07, -6.295079706319843e-30, 8.281347223830084e-26, 0.0, 0.0, 0.0, -6.2950797063198406e-30, 4.999748407289256e-07, 1.63634315053696e-35, 0.0, 0.0, 0.0, 8.281347223830085e-26, -1.636343146392302e-35, 4.999748407289256e-07, 0.0, 8.088407953810466e-24, 1.5535170618517976e-25, 0.0, 0.0, 0.0, 9.999979874288375e-10]
twist: 
  twist: 
    linear: 
      x: -5.58734316435e-10
      y: 0.0
      z: 0.0
    angular: 
      x: 0.0
      y: 0.0
      z: 0.0399999999999
  covariance: [0.010973209804979104, 0.0, 0.0, 0.0, 0.0, 0.0, 0.0, 23781105.27750682, 0.0, 0.0, 0.0, 0.0, 0.0, 0.0, 4.99997483806639e-07, 2.623092533988464e-36, -5.03386703149073e-38, 0.0, 0.0, 0.0, 2.623092533988464e-36, 4.999748406980192e-07, -4.23378731589355e-39, 0.0, 0.0, 0.0, -5.033867031490727e-38, 4.233787315896223e-39, 4.999748406980192e-07, 0.0, 0.0, 0.0, 0.0, 0.0, 0.0, 9.999998993677185e-10]
---
header: 
  seq: 8936
  stamp: 
    secs: 1518208792
    nsecs: 734791756
  frame_id: "swarmone/map"
child_frame_id: "swarmone/base_link"
pose: 
  pose: 
    position: 
      x: 0.438084203335
      y: 5.09089425693
      z: 0.0
    orientation: 
      x: 0.0
      y: 0.0
      z: 0.713863607736
      w: 0.700284763186
  covariance: [2823648359699.819, -145512123114.18973, 0.0, 0.0, 0.0, -1.946581603397125e-23, -145512123114.1899, 7519267807.815125, 0.0, 0.0, 0.0, -3.7387372684219866e-25, 0.0, 0.0, 4.99975122561618e-07, 1.5651978559181524e-29, -2.0360841028316102e-25, 0.0, 0.0, 0.0, 1.5651978559181515e-29, 4.999751225684354e-07, 1.5997899545063552e-35, 0.0, 0.0, 0.0, -2.0360841028316095e-25, -1.599789928882569e-35, 4.999751225684354e-07, 0.0, -1.9465816033971253e-23, -3.738737268421987e-25, 0.0, 0.0, 0.0, 9.999980099580914e-10]
twist: 
  twist: 
    linear: 
      x: 1.20756951703e-09
      y: 0.0
      z: 0.0
    angular: 
      x: 0.0
      y: 0.0
      z: 0.0300000009949
  covariance: [0.011109382103417928, 0.0, 0.0, 0.0, 0.0, 0.0, 0.0, 23789130.109086547, 0.0, 0.0, 0.0, 0.0, 0.0, 0.0, 4.999975119982519e-07, -6.882734994038768e-36, 1.3209052604764097e-37, 0.0, 0.0, 0.0, -6.882734994038773e-36, 4.999751225380104e-07, 2.1940565088638078e-39, 0.0, 0.0, 0.0, 1.32090526047641e-37, -2.1940151506638667e-39, 4.999751225380104e-07, 0.0, 0.0, 0.0, 0.0, 0.0, 0.0, 9.999999004943327e-10]
---
header: 
  seq: 8937
  stamp: 
    secs: 1518208792
    nsecs: 835217953
  frame_id: "swarmone/map"
child_frame_id: "swarmone/base_link"
pose: 
  pose: 
    position: 
      x: 0.438084203329
      y: 5.09089425724
      z: 0.0
    orientation: 
      x: 0.0
      y: 0.0
      z: 0.713863607036
      w: 0.700284763899
  covariance: [2825242246950.387, -145537539306.65247, 0.0, 0.0, 0.0, -4.095151921979176e-23, -145537539306.65262, 7517703523.181297, 0.0, 0.0, 0.0, -7.865368246392046e-25, 0.0, 0.0, 4.999751049728597e-07, 2.4162379812522633e-29, -4.189668695233324e-25, 0.0, 0.0, 0.0, 2.416237981252263e-29, 4.999751049764615e-07, 1.601906535131436e-35, 0.0, 0.0, 0.0, -4.189668695233323e-25, -1.6019064572753448e-35, 4.999751049764615e-07, 0.0, -4.0951519219791756e-23, -7.865368246392047e-25, 0.0, 0.0, 0.0, 9.999980085615072e-10]
twist: 
  twist: 
    linear: 
      x: 2.52086062346e-09
      y: 0.0
      z: 0.0
    angular: 
      x: 0.0
      y: 0.0
      z: 0.0399999990041
  covariance: [0.011100836312951138, 0.0, 0.0, 0.0, 0.0, 0.0, 0.0, 23797151.108578846, 0.0, 0.0, 0.0, 0.0, 0.0, 0.0, 4.999975102378358e-07, -1.4775447410133435e-35, 2.8362279197575076e-37, 0.0, 0.0, 0.0, -1.4775447410133432e-35, 4.999751049492139e-07, 1.2985878878866559e-39, 0.0, 0.0, 0.0, 2.836227919757507e-37, -1.2984810523759092e-39, 4.999751049492139e-07, 0.0, 0.0, 0.0, 0.0, 0.0, 0.0, 9.999999004244078e-10]
---
header: 
  seq: 8938
  stamp: 
    secs: 1518208792
    nsecs: 934691429
  frame_id: "swarmone/map"
child_frame_id: "swarmone/base_link"
pose: 
  pose: 
    position: 
      x: 0.438084203326
      y: 5.09089425741
      z: 0.0
    orientation: 
      x: 0.0
      y: 0.0
      z: 0.713863607736
      w: 0.700284763186
  covariance: [2826821721761.8467, -145562707003.1141, 0.0, 0.0, 0.0, -1.4773840449524065e-22, -145562707003.11426, 7516153833.955367, 0.0, 0.0, 0.0, -2.837898212199073e-24, 0.0, 0.0, 4.999748528771895e-07, 3.460403644030231e-29, -4.549626962563961e-25, 0.0, 0.0, 0.0, 3.4604036440302306e-29, 4.999748528924618e-07, 3.268356352113685e-35, 0.0, 0.0, 0.0, -4.5496269625639605e-25, -3.268356233849183e-35, 4.999748528924618e-07, 0.0, -1.4773840449524065e-22, -2.837898212199073e-24, 0.0, 0.0, 0.0, 9.99997989711154e-10]
twist: 
  twist: 
    linear: 
      x: 2.07015104791e-09
      y: 0.0
      z: 0.0
    angular: 
      x: 0.0
      y: 0.0
      z: 0.0399999999994
  covariance: [0.010978808615283666, 0.0, 0.0, 0.0, 0.0, 0.0, 0.0, 23805097.79185187, 0.0, 0.0, 0.0, 0.0, 0.0, 0.0, 4.999974849725197e-07, -9.38154195290843e-35, 1.8015250274473206e-36, 0.0, 0.0, 0.0, -9.381541952908432e-35, 4.999748528524778e-07, -2.6465405352355308e-40, 0.0, 0.0, 0.0, 1.8015250274473213e-36, 2.671583538632881e-40, 4.999748528524778e-07, 0.0, 0.0, 0.0, 0.0, 0.0, 0.0, 9.999998994706994e-10]
---
header: 
  seq: 8939
  stamp: 
    secs: 1518208793
    nsecs:  35152674
  frame_id: "swarmone/map"
child_frame_id: "swarmone/base_link"
pose: 
  pose: 
    position: 
      x: 0.438084203323
      y: 5.09089425755
      z: 0.0
    orientation: 
      x: 0.0
      y: 0.0
      z: 0.713863607736
      w: 0.700284763186
  covariance: [2828417596655.805, -145588120867.67447, 0.0, 0.0, 0.0, -2.6465909090208975e-23, -145588120867.67462, 7514588888.138893, 0.0, 0.0, 0.0, -5.083225370464613e-25, 0.0, 0.0, 4.999751137113297e-07, 2.1048005408477637e-29, -2.7389946208270594e-25, 0.0, 0.0, 0.0, 2.1048005408477643e-29, 4.99975113718243e-07, 3.201762946379625e-35, 0.0, 0.0, 0.0, -2.7389946208270603e-25, -3.2017629035242396e-35, 4.99975113718243e-07, 0.0, -2.6465909090208975e-23, -5.083225370464613e-25, 0.0, 0.0, 0.0, 9.999980092553202e-10]
twist: 
  twist: 
    linear: 
      x: 1.62629301841e-09
      y: 0.0
      z: 0.0
    angular: 
      x: 0.0
      y: 0.0
      z: 0.0399999999999
  covariance: [0.011105084890857556, 0.0, 0.0, 0.0, 0.0, 0.0, 0.0, 23813125.18076896, 0.0, 0.0, 0.0, 0.0, 0.0, 0.0, 4.999975111124476e-07, -9.486868146096377e-36, 1.8207081403741376e-37, 0.0, 0.0, 0.0, -9.48686814609638e-36, 4.999751136877028e-07, -5.8342859540998945e-40, 0.0, 0.0, 0.0, 1.8207081403741387e-37, 5.834298143173701e-40, 4.999751136877028e-07, 0.0, 0.0, 0.0, 0.0, 0.0, 0.0, 9.999999004591463e-10]
---
header: 
  seq: 8940
  stamp: 
    secs: 1518208793
    nsecs: 135009050
  frame_id: "swarmone/map"
child_frame_id: "swarmone/base_link"
pose: 
  pose: 
    position: 
      x: 0.43808420332
      y: 5.09089425771
      z: 0.0
    orientation: 
      x: 0.0
      y: 0.0
      z: 0.717356086709
      w: 0.696706713661
  covariance: [2830004576108.982, -145613376196.2568, 0.0, 0.0, 0.0, -2.6441677820058894e-23, -145613376196.257, 7513033313.726117, 0.0, 0.0, 0.0, -5.078571339006841e-25, 0.0, 0.0, 4.999749629588321e-07, 2.10288565192146e-29, -2.7530151546658408e-25, 0.0, 0.0, 0.0, 2.1028856519214605e-29, 4.999749629658284e-07, -1.6203234669686778e-35, 0.0, 0.0, 0.0, -2.753015154665841e-25, 1.6203235114794601e-35, 4.999749629658284e-07, 0.0, -2.6441677820058897e-23, -5.078571339006841e-25, 0.0, 0.0, 0.0, 9.9999799719628e-10]
twist: 
  twist: 
    linear: 
      x: 1.6234993144e-09
      y: 0.0
      z: 0.0
    angular: 
      x: 0.0
      y: 0.0
      z: 0.0400000000002
  covariance: [0.011031912341789556, 0.0, 0.0, 0.0, 0.0, 0.0, 0.0, 23821106.02567564, 0.0, 0.0, 0.0, 0.0, 0.0, 0.0, 4.99997496034081e-07, -9.649679903624781e-36, 1.8519780371763657e-37, 0.0, 0.0, 0.0, -9.649679903624785e-36, 4.999749629352058e-07, 2.774965255673175e-39, 0.0, 0.0, 0.0, 1.8519780371763655e-37, -2.7748954381724667e-39, 4.999749629352058e-07, 0.0, 0.0, 0.0, 0.0, 0.0, 0.0, 9.999998998561895e-10]
---
header: 
  seq: 8941
  stamp: 
    secs: 1518208793
    nsecs: 234419346
  frame_id: "swarmone/map"
child_frame_id: "swarmone/base_link"
pose: 
  pose: 
    position: 
      x: 0.438084203317
      y: 5.09089425781
      z: 0.0
    orientation: 
      x: 0.0
      y: 0.0
      z: 0.710353289393
      w: 0.70384529852
  covariance: [2831584790001.669, -145630600159.82687, 0.0, 0.0, 0.0, -2.1821011202181007e-23, -145630600159.82703, 7510678472.088285, 0.0, 0.0, 0.0, -6.374499377357186e-25, 0.0, 0.0, 4.999748501699463e-07, 2.428936780743134e-29, -2.100584667208217e-25, 0.0, 0.0, 0.0, 2.4289367807431343e-29, 4.999748501776951e-07, -3.269956490238511e-35, 0.0, 0.0, 0.0, -2.100584667208218e-25, 3.269956530817942e-35, 4.999748501776951e-07, 0.0, -2.1821011202181004e-23, -6.374499377357185e-25, 0.0, 0.0, 0.0, 9.999979882165184e-10]
twist: 
  twist: 
    linear: 
      x: 1.18362759797e-09
      y: 0.0
      z: 0.0
    angular: 
      x: 0.0
      y: 0.0
      z: 0.0399999999991
  covariance: [0.010977713356987495, 0.0, 0.0, 0.0, 0.0, 0.0, 0.0, 23829052.98936419, 0.0, 0.0, 0.0, 0.0, 0.0, 0.0, 4.999974847483086e-07, -8.967837002220284e-36, 2.618145770688106e-37, 0.0, 0.0, 0.0, -8.967837002220272e-36, 4.999748501461819e-07, 1.1219295731506375e-39, 0.0, 0.0, 0.0, 2.6181457706881047e-37, -1.1219293878978998e-39, 4.999748501461819e-07, 0.0, 0.0, 0.0, 0.0, 0.0, 0.0, 9.999998994068172e-10]
---
header: 
  seq: 8942
  stamp: 
    secs: 1518208793
    nsecs: 334889412
  frame_id: "swarmone/map"
child_frame_id: "swarmone/base_link"
pose: 
  pose: 
    position: 
      x: 0.438084203315
      y: 5.09089425799
      z: 0.0
    orientation: 
      x: 0.0
      y: 0.0
      z: 0.713863600766
      w: 0.700284770291
  covariance: [2833183180054.4136, -145663995647.39224, 0.0, 0.0, 0.0, -2.644100505469105e-23, -145663995647.3924, 7509928262.038463, 0.0, 0.0, 0.0, -2.433805342442161e-25, 0.0, 0.0, 4.999751158964973e-07, 1.0077610081257925e-29, -2.735801406838007e-25, 0.0, 0.0, 0.0, 1.0077610081257925e-29, 4.999751159034116e-07, -1.600595807772249e-35, 0.0, 0.0, 0.0, -2.735801406838007e-25, 1.6005958290636504e-35, 4.999751159034116e-07, 0.0, -2.6441005054691046e-23, -2.4338053424421616e-25, 0.0, 0.0, 0.0, 9.99998009430117e-10]
twist: 
  twist: 
    linear: 
      x: 1.62296952885e-09
      y: 0.0
      z: 0.0
    angular: 
      x: 0.0
      y: 0.0
      z: 0.0400000000002
  covariance: [0.011106128422501879, 0.0, 0.0, 0.0, 0.0, 0.0, 0.0, 23837086.46785506, 0.0, 0.0, 0.0, 0.0, 0.0, 0.0, 4.999975113310096e-07, -9.457961767763012e-36, 8.701073922192021e-38, 0.0, 0.0, 0.0, -9.457961767763017e-36, 4.999751158728703e-07, -1.4307406422282274e-39, 0.0, 0.0, 0.0, 8.701073922192026e-38, 1.4307476971582974e-39, 4.999751158728703e-07, 0.0, 0.0, 0.0, 0.0, 0.0, 0.0, 9.99999900467886e-10]
---
header: 
  seq: 8943
  stamp: 
    secs: 1518208793
    nsecs: 435406208
  frame_id: "swarmone/map"
child_frame_id: "swarmone/base_link"
pose: 
  pose: 
    position: 
      x: 0.438084203313
      y: 5.09089425809
      z: 0.0
    orientation: 
      x: 0.0
      y: 0.0
      z: 0.717356086755
      w: 0.696706713614
  covariance: [2834782807444.57, -145689401332.49274, 0.0, 0.0, 0.0, -2.096995949477288e-23, -145689401332.49286, 7508362243.020466, 0.0, 0.0, 0.0, -4.0276358762096125e-25, 0.0, 0.0, 4.999751271998433e-07, 1.5817852452036732e-29, -2.057278527867315e-25, 0.0, 0.0, 0.0, 1.5817852452036735e-29, 4.999751272071894e-07, 3.198580262004691e-35, 0.0, 0.0, 0.0, -2.057278527867315e-25, -3.1985802375756267e-35, 4.999751272071894e-07, 0.0, -2.096995949477288e-23, -4.027635876209613e-25, 0.0, 0.0, 0.0, 9.999980103603185e-10]
twist: 
  twist: 
    linear: 
      x: 1.18299796487e-09
      y: 0.0
      z: 0.0
    angular: 
      x: 0.0
      y: 0.0
      z: 0.0400000000002
  covariance: [0.011111699242286848, 0.0, 0.0, 0.0, 0.0, 0.0, 0.0, 23845125.48943727, 0.0, 0.0, 0.0, 0.0, 0.0, 0.0, 4.99997512458742e-07, -8.183124586078661e-36, 1.570648196502184e-37, 0.0, 0.0, 0.0, -8.183124586078658e-36, 4.999751271761268e-07, 2.002787824155213e-39, 0.0, 0.0, 0.0, 1.5706481965021844e-37, -2.002806964758484e-39, 4.999751271761268e-07, 0.0, 0.0, 0.0, 0.0, 0.0, 0.0, 9.999999005141583e-10]
---
header: 
  seq: 8944
  stamp: 
    secs: 1518208793
    nsecs: 534896374
  frame_id: "swarmone/map"
child_frame_id: "swarmone/base_link"
pose: 
  pose: 
    position: 
      x: 0.438084203307
      y: 5.09089425833
      z: 0.0
    orientation: 
      x: 0.0
      y: 0.0
      z: 0.713863614775
      w: 0.700284756011
  covariance: [2836366423934.9365, -145706611993.99512, 0.0, 0.0, 0.0, -3.426996169417342e-23, -145706611993.9952, 7506005282.098477, 0.0, 0.0, 0.0, -1.0011154412562361e-24, 0.0, 0.0, 4.999748706881857e-07, 4.056866952591152e-29, -3.50559631079929e-25, 0.0, 0.0, 0.0, 4.056866952591154e-29, 4.999748706954092e-07, 6.529232144772383e-35, 0.0, 0.0, 0.0, -3.5055963107992917e-25, -6.529232038532476e-35, 4.999748706954092e-07, 0.0, -3.4269961694173415e-23, -1.0011154412562361e-24, 0.0, 0.0, 0.0, 9.999979898259047e-10]
twist: 
  twist: 
    linear: 
      x: 2.06047116964e-09
      y: 0.0
      z: 0.0
    angular: 
      x: 0.0
      y: 0.0
      z: 0.0399999999995
  covariance: [0.010987589676877074, 0.0, 0.0, 0.0, 0.0, 0.0, 0.0, 23853084.183941253, 0.0, 0.0, 0.0, 0.0, 0.0, 0.0, 4.999974868039163e-07, -1.2866194055759244e-35, 3.7557740127359114e-37, 0.0, 0.0, 0.0, -1.2866194055759241e-35, 4.999748706645224e-07, -7.989535575420334e-40, 0.0, 0.0, 0.0, 3.7557740127359093e-37, 7.989822468382712e-40, 4.999748706645224e-07, 0.0, 0.0, 0.0, 0.0, 0.0, 0.0, 9.999998994875728e-10]
---
header: 
  seq: 8945
  stamp: 
    secs: 1518208793
    nsecs: 634322405
  frame_id: "swarmone/map"
child_frame_id: "swarmone/base_link"
pose: 
  pose: 
    position: 
      x: 0.4380842033
      y: 5.09089425865
      z: 0.0
    orientation: 
      x: 0.0
      y: 0.0
      z: 0.713863607736
      w: 0.700284763186
  covariance: [2837950109017.992, -145731728662.04364, 0.0, 0.0, 0.0, -4.563943845293558e-23, -145731728662.04373, 7504456249.273659, 0.0, 0.0, 0.0, -8.765833258729526e-25, 0.0, 0.0, 4.999748546941186e-07, 3.710908717782479e-29, -4.879099540886431e-25, 0.0, 0.0, 0.0, 3.7109087177824796e-29, 4.999748547009887e-07, 3.268485919765214e-35, 0.0, 0.0, 0.0, -4.87909954088643e-25, -3.268485782699734e-35, 4.999748547009887e-07, 0.0, -4.563943845293557e-23, -8.765833258729524e-25, 0.0, 0.0, 0.0, 9.999979885253967e-10]
twist: 
  twist: 
    linear: 
      x: 2.93012853203e-09
      y: 0.0
      z: 0.0
    angular: 
      x: 0.0
      y: 0.0
      z: 0.0399999999999
  covariance: [0.010979893961224509, 0.0, 0.0, 0.0, 0.0, 0.0, 0.0, 23861039.517000634, 0.0, 0.0, 0.0, 0.0, 0.0, 0.0, 4.999974852065801e-07, -1.5967687610220764e-35, 3.064610340703284e-37, 0.0, 0.0, 0.0, -1.5967687610220767e-35, 4.999748546705321e-07, 1.663117078367681e-39, 0.0, 0.0, 0.0, 3.064610340703284e-37, -1.6630140339291853e-39, 4.999748546705321e-07, 0.0, 0.0, 0.0, 0.0, 0.0, 0.0, 9.999998994227376e-10]
---
header: 
  seq: 8946
  stamp: 
    secs: 1518208793
    nsecs: 734287262
  frame_id: "swarmone/map"
child_frame_id: "swarmone/base_link"
pose: 
  pose: 
    position: 
      x: 0.438084203295
      y: 5.09089425893
      z: 0.0
    orientation: 
      x: 0.0
      y: 0.0
      z: 0.717356086717
      w: 0.696706713654
  covariance: [2839543088749.6772, -145756975925.147, 0.0, 0.0, 0.0, -4.62191785966042e-23, -145756975925.1471, 7502898772.263865, 0.0, 0.0, 0.0, -8.87717037999736e-25, 0.0, 0.0, 4.999749901833644e-07, 3.7164138386024e-29, -4.860113939448454e-25, 0.0, 0.0, 0.0, 3.7164138386024e-29, 4.999749901902538e-07, -1.9661203601982224e-39, 0.0, 0.0, 0.0, -4.860113939448455e-25, 1.967495321331498e-39, 4.999749901902538e-07, 0.0, -4.621917859660421e-23, -8.877170379997363e-25, 0.0, 0.0, 0.0, 9.999979993688037e-10]
twist: 
  twist: 
    linear: 
      x: 2.91789324366e-09
      y: 0.0
      z: 0.0
    angular: 
      x: 0.0
      y: 0.0
      z: 0.0400000000002
  covariance: [0.011044987094812105, 0.0, 0.0, 0.0, 0.0, 0.0, 0.0, 23869039.745934952, 0.0, 0.0, 0.0, 0.0, 0.0, 0.0, 4.999974987576978e-07, -1.626349617722012e-35, 3.121209643789181e-37, 0.0, 0.0, 0.0, -1.6263496177220117e-35, 4.999749901597574e-07, -1.7155904798359396e-39, 0.0, 0.0, 0.0, 3.121209643789183e-37, 1.7157015373697467e-39, 4.999749901597574e-07, 0.0, 0.0, 0.0, 0.0, 0.0, 0.0, 9.999998999648643e-10]
---
header: 
  seq: 8947
  stamp: 
    secs: 1518208793
    nsecs: 835392237
  frame_id: "swarmone/map"
child_frame_id: "swarmone/base_link"
pose: 
  pose: 
    position: 
      x: 0.438084203293
      y: 5.09089425897
      z: 0.0
    orientation: 
      x: 0.0
      y: 0.0
      z: 0.717356093686
      w: 0.696706706478
  covariance: [2841154572984.1855, -145774435869.43756, 0.0, 0.0, 0.0, -2.0156377895753735e-23, -145774435869.43768, 7500503463.991827, 0.0, 0.0, 0.0, -5.888201743157797e-25, 0.0, 0.0, 4.999752720107868e-07, 2.3610384477269312e-29, -2.0077492388818832e-25, 0.0, 0.0, 0.0, 2.3610384477269315e-29, 4.99975272017877e-07, 9.484057645677079e-35, 0.0, 0.0, 0.0, -2.0077492388818844e-25, -9.484057609072916e-35, 4.99975272017877e-07, 0.0, -2.0156377895753732e-23, -5.888201743157797e-25, 0.0, 0.0, 0.0, 9.999980219335098e-10]
twist: 
  twist: 
    linear: 
      x: 1.15485680147e-09
      y: 0.0
      z: 0.0
    angular: 
      x: 0.0
      y: 0.0
      z: 0.0499999990108
  covariance: [0.011182984494839752, 0.0, 0.0, 0.0, 0.0, 0.0, 0.0, 23877133.037698884, 0.0, 0.0, 0.0, 0.0, 0.0, 0.0, 4.999975269439401e-07, -7.627015572874495e-36, 2.226472759545171e-37, 0.0, 0.0, 0.0, -7.627015572874498e-36, 4.999752719871041e-07, -1.458664924689032e-39, 0.0, 0.0, 0.0, 2.22647275954517e-37, 1.4586560274956836e-39, 4.999752719871041e-07, 0.0, 0.0, 0.0, 0.0, 0.0, 0.0, 9.999999010929176e-10]
---
header: 
  seq: 8948
  stamp: 
    secs: 1518208793
    nsecs: 935055733
  frame_id: "swarmone/map"
child_frame_id: "swarmone/base_link"
pose: 
  pose: 
    position: 
      x: 0.438084203287
      y: 5.09089425921
      z: 0.0
    orientation: 
      x: 0.0
      y: 0.0
      z: 0.710353290061
      w: 0.703845297846
  covariance: [2842743796912.7656, -145791635257.00638, 0.0, 0.0, 0.0, -3.213015531052514e-23, -145791635257.0065, 7498142358.773383, 0.0, 0.0, 0.0, -9.38610954694618e-25, 0.0, 0.0, 4.999749146094593e-07, 4.9668672813935064e-29, -3.430955144105391e-25, 0.0, 0.0, 0.0, 4.9668672813935053e-29, 4.999749146196918e-07, -6.506664034623685e-35, 0.0, 0.0, 0.0, -3.430955144105391e-25, 6.50666416354269e-35, 4.999749146196918e-07, 0.0, -3.2130155310525136e-23, -9.386109546946179e-25, 0.0, 0.0, 0.0, 9.999979933182013e-10]
twist: 
  twist: 
    linear: 
      x: 2.03511701875e-09
      y: 0.0
      z: 0.0
    angular: 
      x: 0.0
      y: 0.0
      z: 0.0400000010026
  covariance: [0.011008679393035938, 0.0, 0.0, 0.0, 0.0, 0.0, 0.0, 23885112.731717207, 0.0, 0.0, 0.0, 0.0, 0.0, 0.0, 4.999974911993549e-07, -1.14838134301091e-35, 3.3514957639916354e-37, 0.0, 0.0, 0.0, -1.1483813430109103e-35, 4.999749145858725e-07, -2.815886928837532e-40, 0.0, 0.0, 0.0, 3.3514957639916358e-37, 2.8164487438465536e-40, 4.999749145858725e-07, 0.0, 0.0, 0.0, 0.0, 0.0, 0.0, 9.999998996623796e-10]
---
header: 
  seq: 8949
  stamp: 
    secs: 1518208794
    nsecs:  34546137
  frame_id: "swarmone/map"
child_frame_id: "swarmone/base_link"
pose: 
  pose: 
    position: 
      x: 0.438084203286
      y: 5.09089425935
      z: 0.0
    orientation: 
      x: 0.0
      y: 0.0
      z: 0.713863600698
      w: 0.700284770361
  covariance: [2844331578942.994, -145824686587.8148, 0.0, 0.0, 0.0, -2.6562479379934754e-23, -145824686587.81488, 7497399382.071002, 0.0, 0.0, 0.0, -2.444993873731171e-25, 0.0, 0.0, 4.999748708025702e-07, 1.0014684452585056e-29, -2.7453897354427195e-25, 0.0, 0.0, 0.0, 1.0014684452585057e-29, 4.999748708097091e-07, 2.448526476236742e-35, 0.0, 0.0, 0.0, -2.745389735442719e-25, -2.448526455222052e-35, 4.999748708097091e-07, 0.0, -2.656247937993476e-23, -2.4449938737311715e-25, 0.0, 0.0, 0.0, 9.999979898297693e-10]
twist: 
  twist: 
    linear: 
      x: 1.59258026845e-09
      y: 0.0
      z: 0.0
    angular: 
      x: 0.0
      y: 0.0
      z: 0.0400000000002
  covariance: [0.010987617443737531, 0.0, 0.0, 0.0, 0.0, 0.0, 0.0, 23893080.33993901, 0.0, 0.0, 0.0, 0.0, 0.0, 0.0, 4.999974868159442e-07, -9.909215618632391e-36, 9.114568270548612e-38, 0.0, 0.0, 0.0, -9.909215618632391e-36, 4.999748707789251e-07, 1.7048392104264543e-39, 0.0, 0.0, 0.0, 9.114568270548608e-38, -1.7048247885593678e-39, 4.999748707789251e-07, 0.0, 0.0, 0.0, 0.0, 0.0, 0.0, 9.999998994878135e-10]
---
header: 
  seq: 8950
  stamp: 
    secs: 1518208794
    nsecs: 135058403
  frame_id: "swarmone/map"
child_frame_id: "swarmone/base_link"
pose: 
  pose: 
    position: 
      x: 0.438084203295
      y: 5.09089425889
      z: 0.0
    orientation: 
      x: 0.0
      y: 0.0
      z: 0.717356086755
      w: 0.696706713615
  covariance: [2845936160346.9253, -145850047311.30518, 0.0, 0.0, 0.0, 4.1922043318415677e-23, -145850047311.30527, 7495833269.108507, 0.0, 0.0, 0.0, 8.051830154641105e-25, 0.0, 0.0, 4.999751263974415e-07, -3.3708400517018523e-29, 4.384280788980542e-25, 0.0, 0.0, 0.0, -3.370840051701852e-29, 4.999751264042567e-07, 4.797907857240913e-35, 0.0, 0.0, 0.0, 4.384280788980542e-25, -4.7979077436177883e-35, 4.999751264042567e-07, 0.0, 4.1922043318415677e-23, 8.051830154641107e-25, 0.0, 0.0, 0.0, 9.999980102649293e-10]
twist: 
  twist: 
    linear: 
      x: -2.78690113091e-09
      y: 0.0
      z: 0.0
    angular: 
      x: 0.0
      y: 0.0
      z: 0.0400000000002
  covariance: [0.011111290514697178, 0.0, 0.0, 0.0, 0.0, 0.0, 0.0, 23901131.582239475, 0.0, 0.0, 0.0, 0.0, 0.0, 0.0, 4.999975123819131e-07, 1.393270586093435e-35, -2.6736487084795167e-37, 0.0, 0.0, 0.0, 1.3932705860934346e-35, 4.999751263738341e-07, -1.795230329361393e-39, 0.0, 0.0, 0.0, -2.673648708479516e-37, 1.7952763553030368e-39, 4.999751263738341e-07, 0.0, 0.0, 0.0, 0.0, 0.0, 0.0, 9.999999005096748e-10]
---
header: 
  seq: 8951
  stamp: 
    secs: 1518208794
    nsecs: 234611750
  frame_id: "swarmone/map"
child_frame_id: "swarmone/base_link"
pose: 
  pose: 
    position: 
      x: 0.438084203289
      y: 5.09089425914
      z: 0.0
    orientation: 
      x: 0.0
      y: 0.0
      z: 0.717356093686
      w: 0.696706706478
  covariance: [2847525761336.4434, -145867200552.0614, 0.0, 0.0, 0.0, -1.2394171937581872e-23, -145867200552.06146, 7493474560.823322, 0.0, 0.0, 0.0, -3.620667834446959e-25, 0.0, 0.0, 4.999748868529475e-07, 1.5327075536830113e-29, -1.323586107260149e-25, 0.0, 0.0, 0.0, 1.532707553683011e-29, 4.99974886859797e-07, 2.3515401602906427e-39, 0.0, 0.0, 0.0, -1.3235861072601487e-25, -2.3513959844763942e-39, 4.99974886859797e-07, 0.0, -1.2394171937581872e-23, -3.6206678344469583e-25, 0.0, 0.0, 0.0, 9.99997991097876e-10]
twist: 
  twist: 
    linear: 
      x: 7.55888965371e-10
      y: 0.0
      z: 0.0
    angular: 
      x: 0.0
      y: 0.0
      z: 0.0399999999999
  covariance: [0.010995318017483956, 0.0, 0.0, 0.0, 0.0, 0.0, 0.0, 23909107.795767505, 0.0, 0.0, 0.0, 0.0, 0.0, 0.0, 4.999974884231292e-07, -4.556021199736817e-36, 1.3298859971455042e-37, 0.0, 0.0, 0.0, -4.556021199736815e-36, 4.999748868293609e-07, 5.1205202281342774e-39, 0.0, 0.0, 0.0, 1.3298859971455042e-37, -5.120520228091508e-39, 4.999748868293609e-07, 0.0, 0.0, 0.0, 0.0, 0.0, 0.0, 9.999998995513625e-10]
---
header: 
  seq: 8952
  stamp: 
    secs: 1518208794
    nsecs: 335020781
  frame_id: "swarmone/map"
child_frame_id: "swarmone/base_link"
pose: 
  pose: 
    position: 
      x: 0.438084203278
      y: 5.09089425953
      z: 0.0
    orientation: 
      x: 0.0
      y: 0.0
      z: 0.71386361471
      w: 0.700284756076
  covariance: [2849129743765.818, -145884489577.7238, 0.0, 0.0, 0.0, -4.989494075124936e-23, -145884489577.72382, 7491095636.607519, 0.0, 0.0, 0.0, -1.4575646103530439e-24, 0.0, 0.0, 4.999751005567632e-07, 5.783653357112044e-29, -4.952191989775119e-25, 0.0, 0.0, 0.0, 5.783653357112044e-29, 4.99975100564035e-07, -9.615403289474028e-35, 0.0, 0.0, 0.0, -4.952191989775121e-25, 9.615403509117892e-35, 4.99975100564035e-07, 0.0, -4.989494075124935e-23, -1.4575646103530435e-24, 0.0, 0.0, 0.0, 9.999980082238946e-10]
twist: 
  twist: 
    linear: 
      x: 2.95002155078e-09
      y: 0.0
      z: 0.0
    angular: 
      x: 0.0
      y: 0.0
      z: 0.0399999999995
  covariance: [0.011098650989578244, 0.0, 0.0, 0.0, 0.0, 0.0, 0.0, 23917154.363994356, 0.0, 0.0, 0.0, 0.0, 0.0, 0.0, 4.999975097944303e-07, -1.856698511644934e-35, 5.420016103128958e-37, 0.0, 0.0, 0.0, -1.856698511644935e-35, 4.999751005330637e-07, 2.8578616279318464e-39, 0.0, 0.0, 0.0, 5.420016103128961e-37, -2.857682348996208e-39, 4.999751005330637e-07, 0.0, 0.0, 0.0, 0.0, 0.0, 0.0, 9.99999900407384e-10]
---
header: 
  seq: 8953
  stamp: 
    secs: 1518208794
    nsecs: 434581518
  frame_id: "swarmone/map"
child_frame_id: "swarmone/base_link"
pose: 
  pose: 
    position: 
      x: 0.438084203274
      y: 5.09089425975
      z: 0.0
    orientation: 
      x: 0.0
      y: 0.0
      z: 0.717356086689
      w: 0.696706713683
  covariance: [2850721273104.0425, -145909588771.53772, 0.0, 0.0, 0.0, -3.95679194841536e-23, -145909588771.53778, 7489544380.263636, 0.0, 0.0, 0.0, -7.599702145437713e-25, 0.0, 0.0, 4.999748886635199e-07, 3.1816026301078483e-29, -4.17753794469746e-25, 0.0, 0.0, 0.0, 3.1816026301078494e-29, 4.999748886704647e-07, 4.5238016233814374e-39, 0.0, 0.0, 0.0, -4.177537944697463e-25, -4.522795124275165e-39, 4.999748886704647e-07, 0.0, -3.956791948415361e-23, -7.599702145437715e-25, 0.0, 0.0, 0.0, 9.999979912479653e-10]
twist: 
  twist: 
    linear: 
      x: 2.4956676274e-09
      y: 0.0
      z: 0.0
    angular: 
      x: 0.0
      y: 0.0
      z: 0.0400000000002
  covariance: [0.010996179802381992, 0.0, 0.0, 0.0, 0.0, 0.0, 0.0, 23925134.73414215, 0.0, 0.0, 0.0, 0.0, 0.0, 0.0, 4.999974886036108e-07, -1.4157297727136201e-35, 2.717198453709299e-37, 0.0, 0.0, 0.0, -1.4157297727136196e-35, 4.999748886399131e-07, -1.9284480713686392e-39, 0.0, 0.0, 0.0, 2.7171984537092974e-37, 1.9285276370888984e-39, 4.999748886399131e-07, 0.0, 0.0, 0.0, 0.0, 0.0, 0.0, 9.999998995588193e-10]
---
header: 
  seq: 8954
  stamp: 
    secs: 1518208794
    nsecs: 535165548
  frame_id: "swarmone/map"
child_frame_id: "swarmone/base_link"
pose: 
  pose: 
    position: 
      x: 0.43808420328
      y: 5.0908942595
      z: 0.0
    orientation: 
      x: 0.0
      y: 0.0
      z: 0.741296467719
      w: 0.671177731266
  covariance: [2852329491680.661, -145926881820.537, 0.0, 0.0, 0.0, 1.6179338810368845e-22, -145926881820.53705, 7487160767.190127, 0.0, 0.0, 0.0, 4.727475885691751e-24, 0.0, 0.0, 4.999751039808718e-07, -2.48104012139468e-29, 2.123653200492729e-25, 0.0, 0.0, 0.0, -2.4810401213946797e-29, 4.999751039985992e-07, 6.409070070788183e-35, 0.0, 0.0, 0.0, 2.123653200492729e-25, -6.409070031937329e-35, 4.999751039985992e-07, 0.0, 1.6179338810368845e-22, 4.727475885691751e-24, 0.0, 0.0, 0.0, 9.999980123404007e-10]
twist: 
  twist: 
    linear: 
      x: -1.00349559255e-09
      y: 0.0
      z: 0.0
    angular: 
      x: 0.0
      y: 0.0
      z: 0.0400000000237
  covariance: [0.011099990452193275, 0.0, 0.0, 0.0, 0.0, 0.0, 0.0, 23933198.929574765, 0.0, 0.0, 0.0, 0.0, 0.0, 0.0, 4.999975100736082e-07, 4.759122523624254e-35, -1.3901744310980325e-36, 0.0, 0.0, 0.0, 4.759122523624254e-35, 4.999751039559543e-07, 2.8602590374966664e-39, 0.0, 0.0, 0.0, -1.3901744310980317e-36, -2.859760632143203e-39, 4.999751039559543e-07, 0.0, 0.0, 0.0, 0.0, 0.0, 0.0, 9.99999900580594e-10]
---
header: 
  seq: 8955
  stamp: 
    secs: 1518208794
    nsecs: 634810925
  frame_id: "swarmone/map"
child_frame_id: "swarmone/base_link"
pose: 
  pose: 
    position: 
      x: 0.438084203215
      y: 5.09089426041
      z: 0.0
    orientation: 
      x: 0.0
      y: 0.0
      z: 0.713863663956
      w: 0.700284705876
  covariance: [2853916255965.86, -145888132726.22073, 0.0, 0.0, 0.0, -9.812939597270788e-23, -145888132726.22086, 7479155101.741406, 0.0, 0.0, 0.0, -9.76693331181364e-24, 0.0, 0.0, 4.999749098322624e-07, 3.957877230171412e-28, -1.006744503640314e-24, 0.0, 0.0, 0.0, 3.957877230171412e-28, 4.999749098394027e-07, -1.301916059744258e-34, 0.0, 0.0, 0.0, -1.006744503640314e-24, 1.3019163771317214e-34, 4.999749098394027e-07, 0.0, -9.812939597270788e-23, -9.76693331181364e-24, 0.0, 0.0, 0.0, 9.999979929571012e-10]
twist: 
  twist: 
    linear: 
      x: 6.04717756603e-09
      y: 0.0
      z: 0.0
    angular: 
      x: 0.0
      y: 0.0
      z: 0.0399999999972
  covariance: [0.011006316131268531, 0.0, 0.0, 0.0, 0.0, 0.0, 0.0, 23941189.656222913, 0.0, 0.0, 0.0, 0.0, 0.0, 0.0, 4.999974907191416e-07, -3.6273113493363617e-35, 3.592073085051909e-36, 0.0, 0.0, 0.0, -3.627311349336363e-35, 4.999749098085992e-07, 7.265748609660764e-39, 0.0, 0.0, 0.0, 3.5920730850519124e-36, -7.26311694300129e-39, 4.999749098085992e-07, 0.0, 0.0, 0.0, 0.0, 0.0, 0.0, 9.99999899644134e-10]
---
header: 
  seq: 8956
  stamp: 
    secs: 1518208794
    nsecs: 734332085
  frame_id: "swarmone/map"
child_frame_id: "swarmone/base_link"
pose: 
  pose: 
    position: 
      x: 0.438084203146
      y: 5.09089426355
      z: 0.0
    orientation: 
      x: 0.0
      y: 0.0
      z: 0.710353282305
      w: 0.703845305673
  covariance: [2855509288344.946, -145913183831.37875, 0.0, 0.0, 0.0, -3.723392572297984e-22, -145913183831.37888, 7477605123.580952, 0.0, 0.0, 0.0, -7.151473581080247e-24, 0.0, 0.0, 4.99974878730678e-07, 3.0274736202579176e-28, -3.976700222625457e-24, 0.0, 0.0, 0.0, 3.0274736202579176e-28, 4.999748787375351e-07, 4.032066057029585e-39, 0.0, 0.0, 0.0, -3.9767002226254565e-24, -3.9361587254611286e-39, 4.999748787375351e-07, 0.0, -3.7233925722979846e-22, -7.151473581080247e-24, 0.0, 0.0, 0.0, 9.999979904481516e-10]
twist: 
  twist: 
    linear: 
      x: 2.43547412377e-08
      y: 0.0
      z: 0.0
    angular: 
      x: 0.0
      y: 0.0
      z: 0.0300000010044
  covariance: [0.010991375123689372, 0.0, 0.0, 0.0, 0.0, 0.0, 0.0, 23949172.196869053, 0.0, 0.0, 0.0, 0.0, 0.0, 0.0, 4.999974876107342e-07, -1.280620320681803e-34, 2.4589207573622506e-36, 0.0, 0.0, 0.0, -1.280620320681803e-34, 4.999748787070913e-07, -3.138324802325351e-39, 0.0, 0.0, 0.0, 2.4589207573622502e-36, 3.1447555614258207e-39, 4.999748787070913e-07, 0.0, 0.0, 0.0, 0.0, 0.0, 0.0, 9.999998995188758e-10]
---
header: 
  seq: 8957
  stamp: 
    secs: 1518208794
    nsecs: 834333658
  frame_id: "swarmone/map"
child_frame_id: "swarmone/base_link"
pose: 
  pose: 
    position: 
      x: 0.438084203177
      y: 5.09089426262
      z: 0.0
    orientation: 
      x: 0.0
      y: 0.0
      z: 0.717356079076
      w: 0.696706721521
  covariance: [2857110953400.2334, -145946349844.2728, 0.0, 0.0, 0.0, -1.2528647727882643e-21, -145946349844.27292, 7476857031.21418, 0.0, 0.0, 0.0, -1.1556239738229534e-23, 0.0, 0.0, 4.999748373793043e-07, 1.297842566481119e-29, -4.735661079422638e-25, 0.0, 0.0, 0.0, 1.297842566481119e-29, 4.999748373938043e-07, 8.183338301989924e-36, 0.0, 0.0, 0.0, -4.735661079422639e-25, -8.183337830821621e-36, 4.999748373938043e-07, 0.0, -1.252864772788264e-21, -1.1556239738229534e-23, 0.0, 0.0, 0.0, 9.999980026349636e-10]
twist: 
  twist: 
    linear: 
      x: 1.82582880552e-09
      y: 0.0
      z: 0.0
    angular: 
      x: 0.0
      y: 0.0
      z: 0.0399999990224
  covariance: [0.010971126315798186, 0.0, 0.0, 0.0, 0.0, 0.0, 0.0, 23957195.058276024, 0.0, 0.0, 0.0, 0.0, 0.0, 0.0, 4.999974833974223e-07, -7.368382352888011e-35, 6.778962502882861e-37, 0.0, 0.0, 0.0, -7.36838235288801e-35, 4.999748373542863e-07, -4.672992246440029e-40, 0.0, 0.0, 0.0, 6.778962502882859e-37, 4.6974302035021355e-40, 4.999748373542863e-07, 0.0, 0.0, 0.0, 0.0, 0.0, 0.0, 9.999999000007277e-10]
---
header: 
  seq: 8958
  stamp: 
    secs: 1518208794
    nsecs: 935201645
  frame_id: "swarmone/map"
child_frame_id: "swarmone/base_link"
pose: 
  pose: 
    position: 
      x: 0.438084203181
      y: 5.09089426246
      z: 0.0
    orientation: 
      x: 0.0
      y: 0.0
      z: 0.713863614678
      w: 0.700284756109
  covariance: [2858726601617.5566, -145963640476.6721, 0.0, 0.0, 0.0, 1.458154471228951e-23, -145963640476.6722, 7474468016.424807, 0.0, 0.0, 0.0, 4.260202309640478e-25, 0.0, 0.0, 4.999752117986191e-07, -1.2211880082170663e-29, 1.0409715823483657e-25, 0.0, 0.0, 0.0, -1.2211880082170663e-29, 4.999752118084515e-07, -6.35246817904257e-35, 0.0, 0.0, 0.0, 1.0409715823483648e-25, 6.35246818930051e-35, 4.999752118084515e-07, 0.0, 1.4581544712289504e-23, 4.260202309640478e-25, 0.0, 0.0, 0.0, 9.99998017323069e-10]
twist: 
  twist: 
    linear: 
      x: -7.37680406807e-10
      y: 0.0
      z: 0.0
    angular: 
      x: 0.0
      y: 0.0
      z: 0.0399999999993
  covariance: [0.011153010615354281, 0.0, 0.0, 0.0, 0.0, 0.0, 0.0, 23965289.244613767, 0.0, 0.0, 0.0, 0.0, 0.0, 0.0, 4.999975209045329e-07, 5.3527193319749845e-36, -1.558329314741352e-37, 0.0, 0.0, 0.0, 5.352719331974985e-36, 4.999752117744774e-07, -1.2825919482013973e-39, 0.0, 0.0, 0.0, -1.5583293147413515e-37, 1.2825923030086715e-39, 4.999752117744774e-07, 0.0, 0.0, 0.0, 0.0, 0.0, 0.0, 9.999999008605359e-10]
---
header: 
  seq: 8959
  stamp: 
    secs: 1518208795
    nsecs:  35331726
  frame_id: "swarmone/map"
child_frame_id: "swarmone/base_link"
pose: 
  pose: 
    position: 
      x: 0.438084203166
      y: 5.09089426316
      z: 0.0
    orientation: 
      x: 0.0
      y: 0.0
      z: 0.71735608673
      w: 0.69670671364
  covariance: [2860331540680.2627, -145988822346.62445, 0.0, 0.0, 0.0, -8.615065799832433e-22, -145988822346.62454, 7472907841.7828865, 0.0, 0.0, 0.0, -1.6552830580308395e-23, 0.0, 0.0, 4.999749877108672e-07, 8.138917916246854e-29, -1.0640999252149901e-24, 0.0, 0.0, 0.0, 8.138917916246858e-29, 4.999749877288206e-07, -3.2340275147691144e-35, 0.0, 0.0, 0.0, -1.06409992521499e-24, 3.234028211905753e-35, 4.999749877288206e-07, 0.0, -8.615065799832429e-22, -1.6552830580308398e-23, 0.0, 0.0, 0.0, 9.999980033768024e-10]
twist: 
  twist: 
    linear: 
      x: 4.51100885661e-09
      y: 0.0
      z: 0.0
    angular: 
      x: 0.0
      y: 0.0
      z: 0.0400000000023
  covariance: [0.011043446156873197, 0.0, 0.0, 0.0, 0.0, 0.0, 0.0, 23973326.020447746, 0.0, 0.0, 0.0, 0.0, 0.0, 0.0, 4.999974984428122e-07, -2.6704720301838566e-34, 5.1271313173792127e-36, 0.0, 0.0, 0.0, -2.670472030183857e-34, 4.999749876859409e-07, -1.4485168046994375e-38, 0.0, 0.0, 0.0, 5.127131317379213e-36, 1.4512018317908358e-38, 4.999749876859409e-07, 0.0, 0.0, 0.0, 0.0, 0.0, 0.0, 9.999999001298577e-10]
---
header: 
  seq: 8960
  stamp: 
    secs: 1518208795
    nsecs: 134928703
  frame_id: "swarmone/map"
child_frame_id: "swarmone/base_link"
pose: 
  pose: 
    position: 
      x: 0.43808420317
      y: 5.09089426298
      z: 0.0
    orientation: 
      x: 0.0
      y: 0.0
      z: 0.703279450585
      w: 0.710913506965
  covariance: [2861928262132.418, -146005869571.00833, 0.0, 0.0, 0.0, -4.748424265108167e-23, -146005869571.00842, 7470548439.1893, 0.0, 0.0, 0.0, -1.387423904010805e-24, 0.0, 0.0, 4.99974858279247e-07, 7.506176404943915e-30, -6.488145820956193e-26, 0.0, 0.0, 0.0, 7.506176404943913e-30, 4.999748582970974e-07, 3.2666823136092506e-35, 0.0, 0.0, 0.0, -6.488145820956192e-26, -3.2666823097346324e-35, 4.999748582970974e-07, 0.0, -4.748424265108166e-23, -1.3874239040108047e-24, 0.0, 0.0, 0.0, 9.99997992612042e-10]
twist: 
  twist: 
    linear: 
      x: 1.36764700489e-10
      y: 0.0
      z: 0.0
    angular: 
      x: 0.0
      y: 0.0
      z: 0.0399999999846
  covariance: [0.010981207093526107, 0.0, 0.0, 0.0, 0.0, 0.0, 0.0, 23981321.78981089, 0.0, 0.0, 0.0, 0.0, 0.0, 0.0, 4.999974854974375e-07, -2.445324488866776e-35, 7.144131880978386e-37, 0.0, 0.0, 0.0, -2.445324488866775e-35, 4.999748582543351e-07, 4.8218447478784587e-39, 0.0, 0.0, 0.0, 7.144131880978388e-37, -4.8218446238234615e-39, 4.999748582543351e-07, 0.0, 0.0, 0.0, 0.0, 0.0, 0.0, 9.99999899595305e-10]
---
header: 
  seq: 8961
  stamp: 
    secs: 1518208795
    nsecs: 235135555
  frame_id: "swarmone/map"
child_frame_id: "swarmone/base_link"
pose: 
  pose: 
    position: 
      x: 0.43808420317
      y: 5.09089426327
      z: 0.0
    orientation: 
      x: 0.0
      y: 0.0
      z: 0.717356065877
      w: 0.696706735112
  covariance: [2863536071919.3975, -146055188919.25793, 0.0, 0.0, 0.0, -3.2245638051157784e-23, -146055188919.258, 7471425946.59131, 0.0, 0.0, 0.0, 3.481201123025607e-25, 0.0, 0.0, 4.999750504769896e-07, -1.4259041481201583e-29, -3.3090522252771696e-25, 0.0, 0.0, 0.0, -1.4259041481201586e-29, 4.999750504840298e-07, -1.6091355469229731e-35, 0.0, 0.0, 0.0, -3.3090522252771696e-25, 1.6091355108354577e-35, 4.999750504840298e-07, 0.0, -3.224563805115778e-23, 3.4812011230256075e-25, 0.0, 0.0, 0.0, 9.999980042022748e-10]
twist: 
  twist: 
    linear: 
      x: 1.88955967779e-09
      y: 0.0
      z: 0.0
    angular: 
      x: 0.0
      y: 0.0
      z: 0.0400000000012
  covariance: [0.01107416234290854, 0.0, 0.0, 0.0, 0.0, 0.0, 0.0, 23989368.314717427, 0.0, 0.0, 0.0, 0.0, 0.0, 0.0, 4.999975047871212e-07, -1.2157718001742648e-35, -1.2807058668167336e-37, 0.0, 0.0, 0.0, -1.2157718001742648e-35, 4.999750504533441e-07, 1.4846544598339492e-39, 0.0, 0.0, 0.0, -1.280705866816734e-37, -1.4846732326407704e-39, 4.999750504533441e-07, 0.0, 0.0, 0.0, 0.0, 0.0, 0.0, 9.999999002064445e-10]
---
header: 
  seq: 8962
  stamp: 
    secs: 1518208795
    nsecs: 335289478
  frame_id: "swarmone/map"
child_frame_id: "swarmone/base_link"
pose: 
  pose: 
    position: 
      x: 0.438084203198
      y: 5.09089426223
      z: 0.0
    orientation: 
      x: 0.0
      y: 0.0
      z: 0.713863614728
      w: 0.700284756058
  covariance: [2865143161397.2036, -146072322969.6293, 0.0, 0.0, 0.0, 1.068419605474088e-22, -146072322969.62933, 7469053439.275412, 0.0, 0.0, 0.0, 3.1211302830732696e-24, 0.0, 0.0, 4.999750372911484e-07, -1.278403458575521e-28, 1.0973932007409001e-24, 0.0, 0.0, 0.0, -1.2784034585755204e-28, 4.999750372981908e-07, 3.2215700239089047e-35, 0.0, 0.0, 0.0, 1.0973932007409e-24, -3.221568916110771e-35, 4.999750372981908e-07, 0.0, 1.068419605474088e-22, 3.1211302830732696e-24, 0.0, 0.0, 0.0, 9.999980031475137e-10]
twist: 
  twist: 
    linear: 
      x: -6.84365215484e-09
      y: 0.0
      z: 0.0
    angular: 
      x: 0.0
      y: 0.0
      z: 0.0399999999995
  covariance: [0.011067796073501128, 0.0, 0.0, 0.0, 0.0, 0.0, 0.0, 23997412.387767885, 0.0, 0.0, 0.0, 0.0, 0.0, 0.0, 4.999975034682639e-07, 3.7268298392651214e-35, -1.087785264612644e-36, 0.0, 0.0, 0.0, 3.7268298392651214e-35, 4.999750372675028e-07, 1.4203733839099478e-39, 0.0, 0.0, 0.0, -1.0877852646126448e-36, -1.4196570398087537e-39, 4.999750372675028e-07, 0.0, 0.0, 0.0, 0.0, 0.0, 0.0, 9.999999001537061e-10]
---
header: 
  seq: 8963
  stamp: 
    secs: 1518208795
    nsecs: 434427738
  frame_id: "swarmone/map"
child_frame_id: "swarmone/base_link"
pose: 
  pose: 
    position: 
      x: 0.438084203186
      y: 5.09089426275
      z: 0.0
    orientation: 
      x: 0.0
      y: 0.0
      z: 0.713863607736
      w: 0.700284763186
  covariance: [2866735048329.7427, -146097241151.66534, 0.0, 0.0, 0.0, -1.9318354162475438e-23, -146097241151.66537, 7467509002.17131, 0.0, 0.0, 0.0, -3.7104007170271696e-25, 0.0, 0.0, 4.999747815381038e-07, 1.5197032219791406e-29, -2.0038938286626883e-25, 0.0, 0.0, 0.0, 1.519703221979141e-29, 4.9997478154529e-07, -4.931793674794511e-35, 0.0, 0.0, 0.0, -2.0038938286626883e-25, 4.931793697208421e-35, 4.9997478154529e-07, 0.0, -1.931835416247544e-23, -3.710400717027171e-25, 0.0, 0.0, 0.0, 9.999979826893354e-10]
twist: 
  twist: 
    linear: 
      x: 1.12110000018e-09
      y: 0.0
      z: 0.0
    angular: 
      x: 0.0
      y: 0.0
      z: 0.0399999999999
  covariance: [0.01094498445743555, 0.0, 0.0, 0.0, 0.0, 0.0, 0.0, 24005376.656454563, 0.0, 0.0, 0.0, 0.0, 0.0, 0.0, 4.999974778876319e-07, -7.483000980958308e-36, 1.4362500117567493e-37, 0.0, 0.0, 0.0, -7.483000980958304e-36, 4.999747815144592e-07, -4.958481780980613e-40, 0.0, 0.0, 0.0, 1.4362500117567489e-37, 4.958627307384777e-40, 4.999747815144592e-07, 0.0, 0.0, 0.0, 0.0, 0.0, 0.0, 9.999998991307893e-10]
---
header: 
  seq: 8964
  stamp: 
    secs: 1518208795
    nsecs: 534889936
  frame_id: "swarmone/map"
child_frame_id: "swarmone/base_link"
pose: 
  pose: 
    position: 
      x: 0.438084203181
      y: 5.09089426299
      z: 0.0
    orientation: 
      x: 0.0
      y: 0.0
      z: 0.710353282239
      w: 0.70384530574
  covariance: [2868348914775.747, -146122486475.5973, 0.0, 0.0, 0.0, -3.284386227025865e-23, -146122486475.59732, 7465943893.541134, 0.0, 0.0, 0.0, -6.3082191201210975e-25, 0.0, 0.0, 4.999751139475824e-07, 2.612037780501924e-29, -3.399034563396039e-25, 0.0, 0.0, 0.0, 2.612037780501923e-29, 4.999751139544957e-07, -3.201699296073586e-35, 0.0, 0.0, 0.0, -3.399034563396038e-25, 3.2016993639535214e-35, 4.999751139544957e-07, 0.0, -3.284386227025865e-23, -6.3082191201210975e-25, 0.0, 0.0, 0.0, 9.999980092742186e-10]
twist: 
  twist: 
    linear: 
      x: 2.00383233697e-09
      y: 0.0
      z: 0.0
    angular: 
      x: 0.0
      y: 0.0
      z: 0.0399999999995
  covariance: [0.011105107697074578, 0.0, 0.0, 0.0, 0.0, 0.0, 0.0, 24013449.081067484, 0.0, 0.0, 0.0, 0.0, 0.0, 0.0, 4.999975111360779e-07, -1.1784034081911985e-35, 2.261577416024743e-37, 0.0, 0.0, 0.0, -1.1784034081911985e-35, 4.999751139239555e-07, 1.6387542168735287e-39, 0.0, 0.0, 0.0, 2.261577416024743e-37, -1.6386894088872357e-39, 4.999751139239555e-07, 0.0, 0.0, 0.0, 0.0, 0.0, 0.0, 9.999999004600913e-10]
---
header: 
  seq: 8965
  stamp: 
    secs: 1518208795
    nsecs: 634310007
  frame_id: "swarmone/map"
child_frame_id: "swarmone/base_link"
pose: 
  pose: 
    position: 
      x: 0.438084203179
      y: 5.09089426319
      z: 0.0
    orientation: 
      x: 0.0
      y: 0.0
      z: 0.879589879597
      w: 0.475732743997
  covariance: [2869946981565.391, -146155461071.52994, 0.0, 0.0, 0.0, -3.140372818811628e-23, -146155461071.52997, 7465201463.849134, 0.0, 0.0, 0.0, -2.8905881864064587e-25, 0.0, 0.0, 4.999748532403897e-07, 1.237596027592571e-29, -3.395082361630817e-25, 0.0, 0.0, 0.0, 1.2375960275925717e-29, 4.999748532471683e-07, -2.452009302845558e-35, 0.0, 0.0, 0.0, -3.395082361630818e-25, 2.452009334526821e-35, 4.999748532471683e-07, 0.0, -3.140372818811628e-23, -2.890588186406459e-25, 0.0, 0.0, 0.0, 9.99997988403848e-10]
twist: 
  twist: 
    linear: 
      x: 2.00273828503e-09
      y: 0.0
      z: 0.0
    angular: 
      x: 0.0
      y: 0.0
      z: 0.0400000000177
  covariance: [0.010979155417450249, 0.0, 0.0, 0.0, 0.0, 0.0, 0.0, 24021439.549196698, 0.0, 0.0, 0.0, 0.0, 0.0, 0.0, 4.999974850618015e-07, -1.1120644156672427e-35, 1.0229108947604092e-37, 0.0, 0.0, 0.0, -1.112064415667242e-35, 4.999748532168235e-07, 1.1242672583774756e-39, 0.0, 0.0, 0.0, 1.0229108947604086e-37, -1.1242392820874456e-39, 4.999748532168235e-07, 0.0, 0.0, 0.0, 0.0, 0.0, 0.0, 9.999998994167076e-10]
---
header: 
  seq: 8966
  stamp: 
    secs: 1518208795
    nsecs: 734804153
  frame_id: "swarmone/map"
child_frame_id: "swarmone/base_link"
pose: 
  pose: 
    position: 
      x: 0.435049446088
      y: 5.09802972052
      z: 0.0
    orientation: 
      x: 0.0
      y: 0.0
      z: 0.640386023432
      w: 0.768053214949
  covariance: [2871299479887.204, -145747239817.2154, 0.0, 0.0, 0.0, -7.547403499999462e-16, -145747239817.21545, 7420640913.199201, 0.0, 0.0, 0.0, -4.936229890223666e-16, 0.0, 0.0, 4.99975121806518e-07, 2.0218688515471956e-20, -9.22169656923954e-18, 0.0, 0.0, 0.0, 2.0218688515471968e-20, 4.999751218112561e-07, 7.494540284452323e-27, 0.0, 0.0, 0.0, -9.221696569239542e-18, 7.494539260511821e-27, 4.999751218112561e-07, 0.0, -7.547403499999465e-16, -4.936229890223667e-16, 0.0, 0.0, 0.0, 9.99998009908061e-10]
twist: 
  twist: 
    linear: 
      x: 0.0566439185643
      y: 0.0
      z: 0.0
    angular: 
      x: 0.0
      y: 0.0
      z: 0.0799999959946
  covariance: [0.011108969763095243, 0.0, 0.0, 0.0, 0.0, 0.0, 0.0, 24029518.142804265, 0.0, 0.0, 0.0, 0.0, 0.0, 0.0, 4.999975119215444e-07, -4.1064321425134353e-29, 2.670131335487382e-29, 0.0, 0.0, 0.0, -4.106432142513433e-29, 4.999751217828223e-07, 4.910451096176891e-35, 0.0, 0.0, 0.0, 2.6701313354873806e-29, 4.905337908647656e-35, 4.999751217828223e-07, 0.0, 0.0, 0.0, 0.0, 0.0, 0.0, 9.99999900491736e-10]
---
header: 
  seq: 8967
  stamp: 
    secs: 1518208795
    nsecs: 835320234
  frame_id: "swarmone/map"
child_frame_id: "swarmone/base_link"
pose: 
  pose: 
    position: 
      x: 0.438380325013
      y: 5.12641227542
      z: 0.0
    orientation: 
      x: 0.0
      y: 0.0
      z: 0.731145665511
      w: 0.68222138328
  covariance: [2872890242296.7954, -145932639531.00012, 0.0, 0.0, 0.0, -3.449852568728689e-15, -145932639531.00015, 7435268613.746895, 0.0, 0.0, 0.0, 6.305953360457061e-16, 0.0, 0.0, 4.999751272893617e-07, -5.2221955443039924e-20, -3.6408659204587806e-17, 0.0, 0.0, 0.0, -5.222195544303993e-20, 4.999751273086569e-07, -7.644249222889745e-26, 0.0, 0.0, 0.0, -3.6408659204587806e-17, -7.644249325230333e-26, 4.999751273086569e-07, 0.0, -3.4498525687286897e-15, 6.305953360457063e-16, 0.0, 0.0, 0.0, 9.999980103413966e-10]
twist: 
  twist: 
    linear: 
      x: 0.223243690564
      y: 0.0
      z: 0.0
    angular: 
      x: 0.0
      y: 0.0
      z: 0.020000005977
  covariance: [0.011111721437420449, 0.0, 0.0, 0.0, 0.0, 0.0, 0.0, 24037600.311352022, 0.0, 0.0, 0.0, 0.0, 0.0, 0.0, 4.999975124704532e-07, -1.893351972489257e-28, -3.42674197714313e-29, 0.0, 0.0, 0.0, -1.8933519724892569e-28, 4.99975127264959e-07, -2.9086442433065274e-34, 0.0, 0.0, 0.0, -3.4267419771431293e-29, -2.9093540965087865e-34, 4.99975127264959e-07, 0.0, 0.0, 0.0, 0.0, 0.0, 0.0, 9.999999005134505e-10]
---
header: 
  seq: 8968
  stamp: 
    secs: 1518208795
    nsecs: 935014963
  frame_id: "swarmone/map"
child_frame_id: "swarmone/base_link"
pose: 
  pose: 
    position: 
      x: 0.437375839915
      y: 5.14000980047
      z: 0.0
    orientation: 
      x: 0.0
      y: 0.0
      z: 0.670587283607
      w: 0.741830637723
  covariance: [2874491020744.586, -145917426386.00974, 0.0, 0.0, 0.0, -7.399462828186744e-15, -145917426386.00983, 7429686606.619757, 0.0, 0.0, 0.0, -5.128902710671657e-16, 0.0, 0.0, 4.999749157241618e-07, 4.809968384602801e-21, -3.49711399424355e-17, 0.0, 0.0, 0.0, 4.809968384602803e-21, 4.999749157281695e-07, 6.705838618944652e-27, 0.0, 0.0, 0.0, -3.4971139942435516e-17, 6.705838228603833e-27, 4.999749157281695e-07, 0.0, -7.399462828186744e-15, -5.128902710671657e-16, 0.0, 0.0, 0.0, 9.999979940601497e-10]
twist: 
  twist: 
    linear: 
      x: 0.173984647643
      y: 0.0
      z: 0.0
    angular: 
      x: 0.0
      y: 0.0
      z: 0.0199999999848
  covariance: [0.011008981311513656, 0.0, 0.0, 0.0, 0.0, 0.0, 0.0, 24045618.22758167, 0.0, 0.0, 0.0, 0.0, 0.0, 0.0, 4.999974912723305e-07, -2.58673599200603e-28, 1.7890632903251836e-29, 0.0, 0.0, 0.0, -2.58673599200603e-28, 4.999749156990809e-07, 1.9126335797162756e-34, 0.0, 0.0, 0.0, 1.7890632903251834e-29, 1.9123323854588684e-34, 4.999749156990809e-07, 0.0, 0.0, 0.0, 0.0, 0.0, 0.0, 9.999998996938104e-10]
---
header: 
  seq: 8969
  stamp: 
    secs: 1518208796
    nsecs:  34504175
  frame_id: "swarmone/map"
child_frame_id: "swarmone/base_link"
pose: 
  pose: 
    position: 
      x: 0.438698883903
      y: 5.14864128226
      z: 0.0
    orientation: 
      x: 0.0
      y: 0.0
      z: 0.827701618554
      w: 0.561168451219
  covariance: [2876084912887.565, -146038112336.74908, 0.0, 0.0, 0.0, -1.9415848146277103e-15, -146038112336.74918, 7437794690.286909, 0.0, 0.0, 0.0, 1.963662444258123e-16, 0.0, 0.0, 4.999748705016887e-07, -4.021638026229544e-21, -2.012896619839121e-17, 0.0, 0.0, 0.0, -4.021638026229542e-21, 4.999748705016838e-07, -3.221403847940219e-27, 0.0, 0.0, 0.0, -2.0128966198391217e-17, -3.2214031949936948e-27, 4.999748705016838e-07, 0.0, -1.9415848146277103e-15, 1.9636624442581232e-16, 0.0, 0.0, 0.0, 9.999979898056825e-10]
twist: 
  twist: 
    linear: 
      x: 0.120845630807
      y: 0.0
      z: 0.0
    angular: 
      x: 0.0
      y: 0.0
      z: -0.239999973851
  covariance: [0.010987437543959616, 0.0, 0.0, 0.0, 0.0, 0.0, 0.0, 24053621.392439645, 0.0, 0.0, 0.0, 0.0, 0.0, 0.0, 4.999974867858263e-07, -1.0633870009197186e-28, -1.0728894998445205e-29, 0.0, 0.0, 0.0, -1.063387000919719e-28, 4.999748704778096e-07, -5.05494089320922e-35, 0.0, 0.0, 0.0, -1.0728894998445215e-29, -5.055824237708399e-35, 4.999748704778096e-07, 0.0, 0.0, 0.0, 0.0, 0.0, 0.0, 9.999998994866093e-10]
---
header: 
  seq: 8970
  stamp: 
    secs: 1518208796
    nsecs: 135026693
  frame_id: "swarmone/map"
child_frame_id: "swarmone/base_link"
pose: 
  pose: 
    position: 
      x: 0.4341377018
      y: 5.16001121828
      z: 0.0
    orientation: 
      x: 0.0
      y: 0.0
      z: 0.717356316754
      w: 0.696706476799
  covariance: [2877589243413.9414, -145776176726.46066, 0.0, 0.0, 0.0, -1.897195754666377e-15, -145776176726.46075, 7407677126.160873, 0.0, 0.0, 0.0, -7.5600014915559e-16, 0.0, 0.0, 4.999751288287591e-07, -1.8579606085850745e-19, -2.0341463123365757e-17, 0.0, 0.0, 0.0, -1.8579606085850735e-19, 4.999751287472549e-07, -1.5195829487254722e-25, 0.0, 0.0, 0.0, -2.0341463123365754e-17, -1.5195829691926322e-25, 4.999751287472549e-07, 0.0, -1.8971957546663766e-15, -7.5600014915559e-16, 0.0, 0.0, 0.0, 9.999980104697673e-10]
twist: 
  twist: 
    linear: 
      x: 0.126253737722
      y: 0.0
      z: 0.0
    angular: 
      x: 0.0
      y: 0.0
      z: 0.149999961192
  covariance: [0.011112444494982733, 0.0, 0.0, 0.0, 0.0, 0.0, 0.0, 24061709.48243991, 0.0, 0.0, 0.0, 0.0, 0.0, 0.0, 4.999975126238928e-07, -9.935302264988997e-29, 4.08833825507516e-29, 0.0, 0.0, 0.0, -9.935302264988991e-29, 4.999751288048567e-07, 1.8187556749674423e-34, 0.0, 0.0, 0.0, 4.088338255075159e-29, 1.8190148194862336e-34, 4.999751288048567e-07, 0.0, 0.0, 0.0, 0.0, 0.0, 0.0, 9.999999005198214e-10]
---
header: 
  seq: 8971
  stamp: 
    secs: 1518208796
    nsecs: 234565258
  frame_id: "swarmone/map"
child_frame_id: "swarmone/base_link"
pose: 
  pose: 
    position: 
      x: 0.433071642786
      y: 5.18933952966
      z: 0.0
    orientation: 
      x: 0.0
      y: 0.0
      z: 0.674288011729
      w: 0.738468467328
  covariance: [2879192776596.2256, -145792975588.08066, 0.0, 0.0, 0.0, -3.854213102483669e-15, -145792975588.08075, 7405326928.556964, 0.0, 0.0, 0.0, -1.126022027436008e-16, 0.0, 0.0, 4.999748831243598e-07, 1.787552748988168e-20, -4.1615706874102493e-17, 0.0, 0.0, 0.0, 1.787552748988168e-20, 4.999748831678351e-07, 2.9617683268110263e-26, 0.0, 0.0, 0.0, -4.161570687410248e-17, 2.9617683137656523e-26, 4.99974883167835e-07, 0.0, -3.85421310248367e-15, -1.126022027436008e-16, 0.0, 0.0, 0.0, 9.999979907995364e-10]
twist: 
  twist: 
    linear: 
      x: 0.250621814115
      y: 0.0
      z: 0.0
    angular: 
      x: 0.0
      y: 0.0
      z: 0.159999998991
  covariance: [0.01099350729504732, 0.0, 0.0, 0.0, 0.0, 0.0, 0.0, 24069720.189432327, 0.0, 0.0, 0.0, 0.0, 0.0, 0.0, 4.999974880500946e-07, -2.1743575567380695e-28, 6.238106986699746e-30, 0.0, 0.0, 0.0, -2.174357556738071e-28, 4.999748830997855e-07, 6.04342731972056e-35, 0.0, 0.0, 0.0, 6.238106986699746e-30, 6.043177678037283e-35, 4.999748830997855e-07, 0.0, 0.0, 0.0, 0.0, 0.0, 0.0, 9.999998995364453e-10]
---
header: 
  seq: 8972
  stamp: 
    secs: 1518208796
    nsecs: 335036993
  frame_id: "swarmone/map"
child_frame_id: "swarmone/base_link"
pose: 
  pose: 
    position: 
      x: 0.43509803621
      y: 5.20714073152
      z: 0.0
    orientation: 
      x: 0.0
      y: 0.0
      z: 0.70682512906
      w: 0.707388321171
  covariance: [2880806084341.559, -145906878522.35965, 0.0, 0.0, 0.0, -4.540986150057703e-15, -145906878522.35974, 7412694640.679963, 0.0, 0.0, 0.0, 4.134232139074425e-16, 0.0, 0.0, 4.99975114961862e-07, -5.4032430229504746e-20, -3.76729385701768e-17, 0.0, 0.0, 0.0, -5.403243022950476e-20, 4.999751150138193e-07, -8.179911601428152e-26, 0.0, 0.0, 0.0, -3.7672938570176795e-17, -8.179911652648705e-26, 4.999751150138193e-07, 0.0, -4.540986150057704e-15, 4.1342321390744257e-16, 0.0, 0.0, 0.0, 9.999980094869955e-10]
twist: 
  twist: 
    linear: 
      x: 0.21002274727
      y: 0.0
      z: 0.0
    angular: 
      x: 0.0
      y: 0.0
      z: 0.130000002989
  covariance: [0.011105617609258057, 0.0, 0.0, 0.0, 0.0, 0.0, 0.0, 24077807.799354866, 0.0, 0.0, 0.0, 0.0, 0.0, 0.0, 4.99997511225052e-07, -2.247147034677523e-28, -2.0077330257741913e-29, 0.0, 0.0, 0.0, -2.247147034677524e-28, 4.999751149371176e-07, -1.961514389097018e-34, 0.0, 0.0, 0.0, -2.0077330257741916e-29, -1.9613757467100874e-34, 4.999751149371176e-07, 0.0, 0.0, 0.0, 0.0, 0.0, 0.0, 9.99999900469539e-10]
---
header: 
  seq: 8973
  stamp: 
    secs: 1518208796
    nsecs: 434595108
  frame_id: "swarmone/map"
child_frame_id: "swarmone/base_link"
pose: 
  pose: 
    position: 
      x: 0.435277040349
      y: 5.21817571575
      z: 0.0
    orientation: 
      x: 0.0
      y: 0.0
      z: 0.822048717917
      w: 0.569417162871
  covariance: [2882412050132.7563, -145947794017.78262, 0.0, 0.0, 0.0, -2.337877402833336e-15, -145947794017.78275, 7412758633.646743, 0.0, 0.0, 0.0, 1.858027180524362e-18, 0.0, 0.0, 4.99974888002351e-07, -2.5269286617178214e-22, -2.4899400515748137e-17, 0.0, 0.0, 0.0, -2.5269286617178223e-22, 4.999748880398087e-07, -2.5055609731007703e-28, 0.0, 0.0, 0.0, -2.4899400515748143e-17, -2.505560952720764e-28, 4.999748880398087e-07, 0.0, -2.3378774028333364e-15, 1.8580271805243616e-18, 0.0, 0.0, 0.0, 9.999979911950483e-10]
twist: 
  twist: 
    linear: 
      x: 0.147444894641
      y: 0.0
      z: 0.0
    angular: 
      x: 0.0
      y: 0.0
      z: -0.169999969856
  covariance: [0.010995851064080511, 0.0, 0.0, 0.0, 0.0, 0.0, 0.0, 24085823.653015394, 0.0, 0.0, 0.0, 0.0, 0.0, 0.0, 4.999974885374448e-07, -1.3091273050083892e-28, -1.02260205144155e-31, 0.0, 0.0, 0.0, -1.3091273050083894e-28, 4.999748879783908e-07, -5.955497810131591e-37, 0.0, 0.0, 0.0, -1.0226020514415506e-31, -5.956243874313926e-37, 4.999748879783908e-07, 0.0, 0.0, 0.0, 0.0, 0.0, 0.0, 9.999998995561736e-10]
---
header: 
  seq: 8974
  stamp: 
    secs: 1518208796
    nsecs: 535021305
  frame_id: "swarmone/map"
child_frame_id: "swarmone/base_link"
pose: 
  pose: 
    position: 
      x: 0.430298211539
      y: 5.2310781357
      z: 0.0
    orientation: 
      x: 0.0
      y: 0.0
      z: 0.62098643419
      w: 0.783821311621
  covariance: [2883929293993.0854, -145700940646.49362, 0.0, 0.0, 0.0, -2.333203058186598e-15, -145700940646.49374, 7384220336.193474, 0.0, 0.0, 0.0, -8.76092204326537e-16, 0.0, 0.0, 4.999751047600522e-07, -1.4622985605907552e-19, -2.39807448069878e-17, 0.0, 0.0, 0.0, -1.4622985605907555e-19, 4.999751046989879e-07, -1.4085899274323726e-25, 0.0, 0.0, 0.0, -2.3980744806987792e-17, -1.4085899479391831e-25, 4.99975104698988e-07, 0.0, -2.333203058186598e-15, -8.760922043265369e-16, 0.0, 0.0, 0.0, 9.999980085653178e-10]
twist: 
  twist: 
    linear: 
      x: 0.144097420784
      y: 0.0
      z: 0.0
    angular: 
      x: 0.0
      y: 0.0
      z: 0.15999996712
  covariance: [0.011100689184001748, 0.0, 0.0, 0.0, 0.0, 0.0, 0.0, 24093911.20191153, 0.0, 0.0, 0.0, 0.0, 0.0, 0.0, 4.999975102142605e-07, -1.212020377683761e-28, 4.653670442981908e-29, 0.0, 0.0, 0.0, -1.2120203776837603e-28, 4.999751047359892e-07, 2.5064499392456263e-34, 0.0, 0.0, 0.0, 4.6536704429819074e-29, 2.5077407378077928e-34, 4.999751047359892e-07, 0.0, 0.0, 0.0, 0.0, 0.0, 0.0, 9.999999004244078e-10]
---
header: 
  seq: 8975
  stamp: 
    secs: 1518208796
    nsecs: 634542465
  frame_id: "swarmone/map"
child_frame_id: "swarmone/base_link"
pose: 
  pose: 
    position: 
      x: 0.435584124752
      y: 5.25984387047
      z: 0.0
    orientation: 
      x: 0.0
      y: 0.0
      z: 0.69971593603
      w: 0.714421170505
  covariance: [2885493460229.5684, -145923864942.18228, 0.0, 0.0, 0.0, -3.9033528872858815e-15, -145923864942.1824, 7402619575.3512125, 0.0, 0.0, 0.0, 9.172054462568461e-16, 0.0, 0.0, 4.999748786778758e-07, -1.5359426130001395e-19, -4.2828138537366376e-17, 0.0, 0.0, 0.0, -1.5359426130001388e-19, 4.999748787235726e-07, -2.618559145442974e-25, 0.0, 0.0, 0.0, -4.2828138537366376e-17, -2.6185591350028127e-25, 4.999748787235726e-07, 0.0, -3.903352887285881e-15, 9.172054462568461e-16, 0.0, 0.0, 0.0, 9.999979904491043e-10]
twist: 
  twist: 
    linear: 
      x: 0.255011225775
      y: 0.0
      z: 0.0
    angular: 
      x: 0.0
      y: 0.0
      z: -0.0999999738687
  covariance: [0.010991385939328552, 0.0, 0.0, 0.0, 0.0, 0.0, 0.0, 24101927.65196503, 0.0, 0.0, 0.0, 0.0, 0.0, 0.0, 4.99997487604735e-07, -2.1954940347892127e-28, -5.057941298962124e-29, 0.0, 0.0, 0.0, -2.1954940347892123e-28, 4.999748786532289e-07, -4.937982480015389e-34, 0.0, 0.0, 0.0, -5.057941298962122e-29, -4.938200188602848e-34, 4.999748786532289e-07, 0.0, 0.0, 0.0, 0.0, 0.0, 0.0, 9.99999899518876e-10]
---
header: 
  seq: 8976
  stamp: 
    secs: 1518208796
    nsecs: 735002756
  frame_id: "swarmone/map"
child_frame_id: "swarmone/base_link"
pose: 
  pose: 
    position: 
      x: 0.436136706972
      y: 5.2781835298
      z: 0.0
    orientation: 
      x: 0.0
      y: 0.0
      z: 0.624897464342
      w: 0.780706832978
  covariance: [2887115759387.914, -145981361689.71936, 0.0, 0.0, 0.0, -3.4593857820135777e-15, -145981361689.71948, 7404309633.277243, 0.0, 0.0, 0.0, 7.196159795913472e-17, 0.0, 0.0, 4.999751134227794e-07, 7.368741452059313e-21, -3.492119018188182e-17, 0.0, 0.0, 0.0, 7.368741452059313e-21, 4.999751133816787e-07, 1.0339992593012021e-26, 0.0, 0.0, 0.0, -3.4921190181881826e-17, 1.0339992528981257e-26, 4.999751133816787e-07, 0.0, -3.4593857820135777e-15, 7.196159795913472e-17, 0.0, 0.0, 0.0, 9.999980092373743e-10]
twist: 
  twist: 
    linear: 
      x: 0.212491292224
      y: 0.0
      z: 0.0
    angular: 
      x: 0.0
      y: 0.0
      z: 0.00999998904418
  covariance: [0.011104933522862497, 0.0, 0.0, 0.0, 0.0, 0.0, 0.0, 24110021.552387644, 0.0, 0.0, 0.0, 0.0, 0.0, 0.0, 4.999975110829287e-07, -1.8490308376242574e-28, -3.893762425962395e-30, 0.0, 0.0, 0.0, -1.8490308376242572e-28, 4.999751133983972e-07, -3.221092336752736e-35, 0.0, 0.0, 0.0, -3.8937624259623935e-30, -3.2204728133215255e-35, 4.999751133983972e-07, 0.0, 0.0, 0.0, 0.0, 0.0, 0.0, 9.999999004582014e-10]
---
header: 
  seq: 8977
  stamp: 
    secs: 1518208796
    nsecs: 834869385
  frame_id: "swarmone/map"
child_frame_id: "swarmone/base_link"
pose: 
  pose: 
    position: 
      x: 0.439445350192
      y: 5.28895770994
      z: 0.0
    orientation: 
      x: 0.0
      y: 0.0
      z: 0.692536869268
      w: 0.721382481562
  covariance: [2888690360144.1943, -146197520988.2649, 0.0, 0.0, 0.0, -2.3241069694296823e-15, -146197520988.265, 7422017202.526789, 0.0, 0.0, 0.0, 5.216563693217912e-16, 0.0, 0.0, 4.999749655295312e-07, -5.400090951538982e-21, -2.4718283139263458e-17, 0.0, 0.0, 0.0, -5.400090951538983e-21, 4.999749655258554e-07, -5.3319409047650906e-27, 0.0, 0.0, 0.0, -2.471828313926345e-17, -5.3319410343530234e-27, 4.999749655258552e-07, 0.0, -2.324106969429682e-15, 5.216563693217911e-16, 0.0, 0.0, 0.0, 9.999979974018876e-10]
twist: 
  twist: 
    linear: 
      x: 0.146514896263
      y: 0.0
      z: 0.0
    angular: 
      x: 0.0
      y: 0.0
      z: 0.0599999949991
