header: 
  seq: 9455
  stamp: 
    secs: 1518208844
    nsecs: 635192156
  frame_id: "swarmone/map"
child_frame_id: "swarmone/base_link"
pose: 
  pose: 
    position: 
      x: 0.496018426536
      y: 6.07919496879
      z: 0.0
    orientation: 
      x: 0.0
      y: 0.0
      z: 0.677971813396
      w: 0.73508789967
  covariance: [3741696691647.233, -203142969474.4542, 0.0, 0.0, 0.0, 3.209609827895927e-23, -203142969474.4549, 11043566485.041645, 0.0, 0.0, 0.0, -2.5988833552061624e-24, 0.0, 0.0, 4.999751204427784e-07, 1.0761203626940875e-28, 3.331008043564679e-25, 0.0, 0.0, 0.0, 1.0761203626940868e-28, 4.999751204496466e-07, 1.9200241379242924e-34, 0.0, 0.0, 0.0, 3.3310080435646794e-25, -1.9200241660469425e-34, 4.999751204496466e-07, 0.0, 3.209609827895927e-23, -2.598883355206162e-24, 0.0, 0.0, 0.0, 9.999980097937846e-10]
twist: 
  twist: 
    linear: 
      x: -1.92421605146e-09
      y: 0.0
      z: 0.0
    angular: 
      x: 0.0
      y: 0.0
      z: 0.0399999999999
  covariance: [0.011108387268214937, 0.0, 0.0, 0.0, 0.0, 0.0, 0.0, 28179305.62073073, 0.0, 0.0, 0.0, 0.0, 0.0, 0.0, 4.999975117857315e-07, 1.1755119796193625e-35, 9.511458645136045e-37, 0.0, 0.0, 0.0, 1.1755119796193628e-35, 4.999751204191513e-07, 1.1336072212917538e-38, 0.0, 0.0, 0.0, 9.511458645136045e-37, -1.1336315856522886e-38, 4.999751204191513e-07, 0.0, 0.0, 0.0, 0.0, 0.0, 0.0, 9.999999004860698e-10]
---
header: 
  seq: 9456
  stamp: 
    secs: 1518208844
    nsecs: 734719992
  frame_id: "swarmone/map"
child_frame_id: "swarmone/base_link"
pose: 
  pose: 
    position: 
      x: 0.49601842651
      y: 6.07919496846
      z: 0.0
    orientation: 
      x: 0.0
      y: 0.0
      z: 0.674287922001
      w: 0.738468549258
  covariance: [3743669611826.2876, -203276199262.40405, 0.0, 0.0, 0.0, 4.7192317111094326e-23, -203276199262.40475, 11052206872.40155, 0.0, 0.0, 0.0, -3.821252580349573e-24, 0.0, 0.0, 4.999748801998117e-07, 1.5485048934999101e-28, 4.839329291639873e-25, 0.0, 0.0, 0.0, 1.5485048934999101e-28, 4.999748802069909e-07, -6.524218052991984e-35, 0.0, 0.0, 0.0, 4.839329291639874e-25, 6.524217484129163e-35, 4.999748802069909e-07, 0.0, 4.7192317111094326e-23, -3.821252580349573e-24, 0.0, 0.0, 0.0, 9.999979905867546e-10]
twist: 
  twist: 
    linear: 
      x: -2.80759317907e-09
      y: 0.0
      z: 0.0
    angular: 
      x: 0.0
      y: 0.0
      z: 0.0399999999995
  covariance: [0.01099212625054613, 0.0, 0.0, 0.0, 0.0, 0.0, 0.0, 28188204.954250842, 0.0, 0.0, 0.0, 0.0, 0.0, 0.0, 4.999974877552776e-07, 1.790811963236352e-35, 1.4490557079047414e-36, 0.0, 0.0, 0.0, 1.790811963236352e-35, 4.999748801761484e-07, 9.408409792266289e-39, 0.0, 0.0, 0.0, 1.4490557079047416e-36, -9.408658057095995e-39, 4.999748801761484e-07, 0.0, 0.0, 0.0, 0.0, 0.0, 0.0, 9.999998995256157e-10]
---
header: 
  seq: 9457
  stamp: 
    secs: 1518208844
    nsecs: 835301876
  frame_id: "swarmone/map"
child_frame_id: "swarmone/base_link"
pose: 
  pose: 
    position: 
      x: 0.496018426473
      y: 6.07919496806
      z: 0.0
    orientation: 
      x: 0.0
      y: 0.0
      z: 0.67058716598
      w: 0.741830744053
  covariance: [3745662556113.607, -203420828694.10034, 0.0, 0.0, 0.0, 5.864587693742388e-23, -203420828694.10104, 11062022475.101768, 0.0, 0.0, 0.0, -5.339470817214458e-24, 0.0, 0.0, 4.999751436145585e-07, 2.235357987045141e-28, 6.153248844672077e-25, 0.0, 0.0, 0.0, 2.2353579870451416e-28, 4.999751436213114e-07, 2.55539852609246e-34, 0.0, 0.0, 0.0, 6.153248844672077e-25, -2.555398638384078e-34, 4.999751436213114e-07, 0.0, 5.864587693742389e-23, -5.3394708172144584e-24, 0.0, 0.0, 0.0, 9.999980116421724e-10]
twist: 
  twist: 
    linear: 
      x: -3.68324713617e-09
      y: 0.0
      z: 0.0
    angular: 
      x: 0.0
      y: 0.0
      z: 0.0399999999996
  covariance: [0.011119736897310578, 0.0, 0.0, 0.0, 0.0, 0.0, 0.0, 28197200.439416382, 0.0, 0.0, 0.0, 0.0, 0.0, 0.0, 4.999975141039785e-07, 2.0584207944751158e-35, 1.8726608631255797e-36, 0.0, 0.0, 0.0, 2.0584207944751153e-35, 4.99975143590951e-07, -1.8239092512819417e-38, 0.0, 0.0, 0.0, 1.8726608631255804e-36, 1.8238230313971868e-38, 4.99975143590951e-07, 0.0, 0.0, 0.0, 0.0, 0.0, 0.0, 9.999999005785374e-10]
---
header: 
  seq: 9458
  stamp: 
    secs: 1518208844
    nsecs: 934721708
  frame_id: "swarmone/map"
child_frame_id: "swarmone/base_link"
pose: 
  pose: 
    position: 
      x: 0.496018426437
      y: 6.0791949677
      z: 0.0
    orientation: 
      x: 0.0
      y: 0.0
      z: 0.681638740872
      w: 0.731688886715
  covariance: [3747631416102.5864, -203573657146.482, 0.0, 0.0, 0.0, 5.938093326302794e-23, -203573657146.48267, 11072796704.29041, 0.0, 0.0, 0.0, -6.00569119304849e-24, 0.0, 0.0, 4.999748530182275e-07, 2.486778124118276e-28, 6.239983032794499e-25, 0.0, 0.0, 0.0, 2.4867781241182754e-28, 4.999748530252169e-07, -2.6155219675464448e-34, 0.0, 0.0, 0.0, 6.239983032794503e-25, 2.6155218432087107e-34, 4.999748530252169e-07, 0.0, 5.938093326302794e-23, -6.0056911930484894e-24, 0.0, 0.0, 0.0, 9.999979884018819e-10]
twist: 
  twist: 
    linear: 
      x: -3.67441744515e-09
      y: 0.0
      z: 0.0
    angular: 
      x: 0.0
      y: 0.0
      z: 0.0400000000008
  covariance: [0.010979133688801596, 0.0, 0.0, 0.0, 0.0, 0.0, 0.0, 28206093.87762698, 0.0, 0.0, 0.0, 0.0, 0.0, 0.0, 4.999974850377356e-07, 2.1814335180602778e-35, 2.204657577154111e-36, 0.0, 0.0, 0.0, 2.1814335180602784e-35, 4.999748529946018e-07, 7.722097813388394e-39, 0.0, 0.0, 0.0, 2.204657577154112e-36, -7.723189407465668e-39, 4.999748529946018e-07, 0.0, 0.0, 0.0, 0.0, 0.0, 0.0, 9.999998994164665e-10]
---
header: 
  seq: 9459
  stamp: 
    secs: 1518208845
    nsecs:  35212755
  frame_id: "swarmone/map"
child_frame_id: "swarmone/base_link"
pose: 
  pose: 
    position: 
      x: 0.496018426412
      y: 6.07919496734
      z: 0.0
    orientation: 
      x: 0.0
      y: 0.0
      z: 0.67797182071
      w: 0.735087892923
  covariance: [3749627475948.6016, -203698441191.80768, 0.0, 0.0, 0.0, 5.947601538775249e-23, -203698441191.80838, 11080456791.164059, 0.0, 0.0, 0.0, -4.217700307884863e-24, 0.0, 0.0, 4.999751210921115e-07, 1.7464240291007085e-28, 6.167736473223492e-25, 0.0, 0.0, 0.0, 1.7464240291007083e-28, 4.999751210989895e-07, 1.2797949035303233e-34, 0.0, 0.0, 0.0, 6.167736473223488e-25, -1.2797949931293317e-34, 4.999751210989895e-07, 0.0, 5.947601538775249e-23, -4.217700307884863e-24, 0.0, 0.0, 0.0, 9.999980098457261e-10]
twist: 
  twist: 
    linear: 
      x: -3.66767106277e-09
      y: 0.0
      z: 0.0
    angular: 
      x: 0.0
      y: 0.0
      z: 0.0300000009947
  covariance: [0.011108701521071958, 0.0, 0.0, 0.0, 0.0, 0.0, 0.0, 28215085.039728664, 0.0, 0.0, 0.0, 0.0, 0.0, 0.0, 4.999975118506781e-07, 2.1227196218319244e-35, 1.5042334988419574e-36, 0.0, 0.0, 0.0, 2.122719621831925e-35, 4.999751210684845e-07, -1.6843486309335989e-40, 0.0, 0.0, 0.0, 1.5042334988419564e-36, 1.6782360948766026e-40, 4.999751210684845e-07, 0.0, 0.0, 0.0, 0.0, 0.0, 0.0, 9.999999004886667e-10]
---
header: 
  seq: 9460
  stamp: 
    secs: 1518208845
    nsecs: 134690762
  frame_id: "swarmone/map"
child_frame_id: "swarmone/base_link"
pose: 
  pose: 
    position: 
      x: 0.496018426398
      y: 6.07919496717
      z: 0.0
    orientation: 
      x: 0.0
      y: 0.0
      z: 0.674287921267
      w: 0.738468549929
  covariance: [3751602749831.0024, -203831865271.6844, 0.0, 0.0, 0.0, 3.995454814126028e-23, -203831865271.6851, 11089113203.116621, 0.0, 0.0, 0.0, -3.2352012308716245e-24, 0.0, 0.0, 4.999748676164393e-07, 9.832698232205334e-29, 4.09515971112324e-25, 0.0, 0.0, 0.0, 9.832698232205333e-29, 4.999748676201847e-07, 1.3060213763437143e-34, 0.0, 0.0, 0.0, 4.095159711123239e-25, -1.3060214069986853e-34, 4.999748676201847e-07, 0.0, 3.9954548141260267e-23, -3.235201230871624e-24, 0.0, 0.0, 0.0, 9.99997989580191e-10]
twist: 
  twist: 
    linear: 
      x: -2.34764332321e-09
      y: 0.0
      z: 0.0
    angular: 
      x: 0.0
      y: 0.0
      z: 0.0399999989943
  covariance: [0.010986098524316718, 0.0, 0.0, 0.0, 0.0, 0.0, 0.0, 28223987.444520492, 0.0, 0.0, 0.0, 0.0, 0.0, 0.0, 4.999974864966773e-07, 1.5334347129332075e-35, 1.2410163121037367e-36, 0.0, 0.0, 0.0, 1.5334347129332075e-35, 4.999748675927762e-07, 2.8801889371534957e-38, 0.0, 0.0, 0.0, 1.2410163121037362e-36, -2.880215683856332e-38, 4.999748675927762e-07, 0.0, 0.0, 0.0, 0.0, 0.0, 0.0, 9.99999899475287e-10]
---
header: 
  seq: 9461
  stamp: 
    secs: 1518208845
    nsecs: 235168695
  frame_id: "swarmone/map"
child_frame_id: "swarmone/base_link"
pose: 
  pose: 
    position: 
      x: 0.496018426371
      y: 6.07919496687
      z: 0.0
    orientation: 
      x: 0.0
      y: 0.0
      z: 0.674287914582
      w: 0.738468556033
  covariance: [3753597007022.263, -203976625503.9233, 0.0, 0.0, 0.0, 4.501568991043967e-23, -203976625503.924, 11098941740.249249, 0.0, 0.0, 0.0, -4.098497217729384e-24, 0.0, 0.0, 4.99975117898024e-07, 1.715827802656915e-28, 4.728010674742419e-25, 0.0, 0.0, 0.0, 1.715827802656915e-28, 4.999751179047909e-07, -1.2802923334626181e-34, 0.0, 0.0, 0.0, 4.728010674742421e-25, 1.2802922717287902e-34, 4.999751179047909e-07, 0.0, 4.501568991043969e-23, -4.098497217729384e-24, 0.0, 0.0, 0.0, 9.999980095850381e-10]
twist: 
  twist: 
    linear: 
      x: -2.79037761928e-09
      y: 0.0
      z: 0.0
    angular: 
      x: 0.0
      y: 0.0
      z: 0.0399999999999
  covariance: [0.011107138318678378, 0.0, 0.0, 0.0, 0.0, 0.0, 0.0, 28232981.234731495, 0.0, 0.0, 0.0, 0.0, 0.0, 0.0, 4.999975115317967e-07, 1.6001357562118362e-35, 1.4557473407227487e-36, 0.0, 0.0, 0.0, 1.6001357562118356e-35, 4.999751178744166e-07, -4.63741319981065e-39, 0.0, 0.0, 0.0, 1.4557473407227474e-36, 4.6368807115001514e-39, 4.999751178744166e-07, 0.0, 0.0, 0.0, 0.0, 0.0, 0.0, 9.9999990047568e-10]
---
header: 
  seq: 9462
  stamp: 
    secs: 1518208845
    nsecs: 334609747
  frame_id: "swarmone/map"
child_frame_id: "swarmone/base_link"
pose: 
  pose: 
    position: 
      x: 0.49601842634
      y: 6.07919496653
      z: 0.0
    orientation: 
      x: 0.0
      y: 0.0
      z: 0.677971806004
      w: 0.735087906487
  covariance: [3755571519200.5967, -204119962643.78253, 0.0, 0.0, 0.0, 5.48172575038189e-23, -204119962643.78323, 11108674818.906063, 0.0, 0.0, 0.0, -4.9908903286673945e-24, 0.0, 0.0, 4.999748582218218e-07, 2.0012040104330492e-28, 5.571705920887179e-25, 0.0, 0.0, 0.0, 2.0012040104330495e-28, 4.999748582290895e-07, -1.3071735568609253e-34, 0.0, 0.0, 0.0, 5.571705920887178e-25, 1.3071734651548324e-34, 4.999748582290895e-07, 0.0, 5.481725750381892e-23, -4.990890328667394e-24, 0.0, 0.0, 0.0, 9.999979888339973e-10]
twist: 
  twist: 
    linear: 
      x: -3.22892473328e-09
      y: 0.0
      z: 0.0
    angular: 
      x: 0.0
      y: 0.0
      z: 0.0400000000002
  covariance: [0.010981597269517064, 0.0, 0.0, 0.0, 0.0, 0.0, 0.0, 28241884.09444684, 0.0, 0.0, 0.0, 0.0, 0.0, 0.0, 4.999974855564398e-07, 2.1055695864137946e-35, 1.9157374385671735e-36, 0.0, 0.0, 0.0, 2.1055695864137951e-35, 4.999748581981408e-07, -8.874666638566457e-40, 0.0, 0.0, 0.0, 1.9157374385671745e-36, 8.867762335219945e-40, 4.999748581981408e-07, 0.0, 0.0, 0.0, 0.0, 0.0, 0.0, 9.999998994379294e-10]
---
header: 
  seq: 9463
  stamp: 
    secs: 1518208845
    nsecs: 435074329
  frame_id: "swarmone/map"
child_frame_id: "swarmone/base_link"
pose: 
  pose: 
    position: 
      x: 0.496018426319
      y: 6.07919496627
      z: 0.0
    orientation: 
      x: 0.0
      y: 0.0
      z: 0.677971813395
      w: 0.73508789967
  covariance: [3757568915864.4966, -204254907754.47986, 0.0, 0.0, 0.0, 1.34675502106525e-22, -204254907754.48056, 11117432580.07953, 0.0, 0.0, 0.0, -1.0904767316738442e-23, 0.0, 0.0, 4.99975107024271e-07, 1.8984773032580467e-28, 5.8798632364999465e-25, 0.0, 0.0, 0.0, 1.8984773032580467e-28, 4.999751070375011e-07, 6.977315064274875e-39, 0.0, 0.0, 0.0, 5.8798632364999465e-25, -6.985867034973763e-39, 4.999751070375011e-07, 0.0, 1.3467550210652497e-22, -1.0904767316738442e-23, 0.0, 0.0, 0.0, 9.999980094489925e-10]
twist: 
  twist: 
    linear: 
      x: -2.78978789729e-09
      y: 0.0
      z: 0.0
    angular: 
      x: 0.0
      y: 0.0
      z: 0.030000000995
  covariance: [0.011101612723745293, 0.0, 0.0, 0.0, 0.0, 0.0, 0.0, 28250880.490274314, 0.0, 0.0, 0.0, 0.0, 0.0, 0.0, 4.999975104042754e-07, 8.895232324212408e-35, 7.20072943092947e-36, 0.0, 0.0, 0.0, 8.895232324212414e-35, 4.999751069997264e-07, 1.9992816719244128e-38, 0.0, 0.0, 0.0, 7.200729430929472e-36, -2.0002000795490954e-38, 4.999751069997264e-07, 0.0, 0.0, 0.0, 0.0, 0.0, 0.0, 9.999999004624494e-10]
---
header: 
  seq: 9464
  stamp: 
    secs: 1518208845
    nsecs: 534531355
  frame_id: "swarmone/map"
child_frame_id: "swarmone/base_link"
pose: 
  pose: 
    position: 
      x: 0.496018426271
      y: 6.07919496569
      z: 0.0
    orientation: 
      x: 0.0
      y: 0.0
      z: 0.677971812661
      w: 0.735087900347
  covariance: [3759547117058.355, -204388564821.4077, 0.0, 0.0, 0.0, 7.993757069111011e-23, -204388564821.40845, 11126107528.245884, 0.0, 0.0, 0.0, -6.472713250715621e-24, 0.0, 0.0, 4.999748624227077e-07, 2.01010651127849e-28, 8.373485936108353e-25, 0.0, 0.0, 0.0, 2.0101065112784908e-28, 4.999748624262995e-07, 5.2268099697476764e-34, 0.0, 0.0, 0.0, 8.373485936108352e-25, -5.226810104588518e-34, 4.999748624262995e-07, 0.0, 7.993757069111012e-23, -6.47271325071562e-24, 0.0, 0.0, 0.0, 9.999979891541675e-10]
twist: 
  twist: 
    linear: 
      x: -4.97667759051e-09
      y: 0.0
      z: 0.0
    angular: 
      x: 0.0
      y: 0.0
      z: 0.0399999989944
  covariance: [0.010983602666468811, 0.0, 0.0, 0.0, 0.0, 0.0, 0.0, 28259788.543140534, 0.0, 0.0, 0.0, 0.0, 0.0, 0.0, 4.999974859783793e-07, 2.9147571917222934e-35, 2.358853227114821e-36, 0.0, 0.0, 0.0, 2.914757191722294e-35, 4.999748623990816e-07, 1.2321526846173323e-38, 0.0, 0.0, 0.0, 2.3588532271148234e-36, -1.2322884509850642e-38, 4.999748623990816e-07, 0.0, 0.0, 0.0, 0.0, 0.0, 0.0, 9.99999899454081e-10]
---
header: 
  seq: 9465
  stamp: 
    secs: 1518208845
    nsecs: 635016441
  frame_id: "swarmone/map"
child_frame_id: "swarmone/base_link"
pose: 
  pose: 
    position: 
      x: 0.496018426268
      y: 6.07919496564
      z: 0.0
    orientation: 
      x: 0.0
      y: 0.0
      z: 0.681638755669
      w: 0.731688872931
  covariance: [3761546612034.25, -204523667850.15906, 0.0, 0.0, 0.0, 3.5102854380330514e-23, -204523667850.15976, 11134877041.50303, 0.0, 0.0, 0.0, -2.8423439432539887e-24, 0.0, 0.0, 4.999751192434383e-07, 1.0938929507835647e-28, 3.3861919094184976e-25, 0.0, 0.0, 0.0, 1.0938929507835647e-28, 4.999751192509144e-07, -6.400130488579787e-35, 0.0, 0.0, 0.0, 3.386191909418499e-25, 6.400130204717693e-35, 4.999751192509144e-07, 0.0, 3.510285438033051e-23, -2.842343943253989e-24, 0.0, 0.0, 0.0, 9.999980097343411e-10]
twist: 
  twist: 
    linear: 
      x: -1.89600212969e-09
      y: 0.0
      z: 0.0
    angular: 
      x: 0.0
      y: 0.0
      z: 0.0400000000002
  covariance: [0.01110775750437323, 0.0, 0.0, 0.0, 0.0, 0.0, 0.0, 28268790.57771468, 0.0, 0.0, 0.0, 0.0, 0.0, 0.0, 4.999975116618572e-07, 1.4160552677486168e-35, 1.1458875442392449e-36, 0.0, 0.0, 0.0, 1.4160552677486176e-35, 4.999751192196889e-07, 6.442836048297558e-39, 0.0, 0.0, 0.0, 1.1458875442392454e-36, -6.443006048817179e-39, 4.999751192196889e-07, 0.0, 0.0, 0.0, 0.0, 0.0, 0.0, 9.99999900482764e-10]
---
header: 
  seq: 9466
  stamp: 
    secs: 1518208845
    nsecs: 734980106
  frame_id: "swarmone/map"
child_frame_id: "swarmone/base_link"
pose: 
  pose: 
    position: 
      x: 0.496018426244
      y: 6.07919496532
      z: 0.0
    orientation: 
      x: 0.0
      y: 0.0
      z: 0.685288664285
      w: 0.728271547297
  covariance: [3763538087146.174, -204648220249.27853, 0.0, 0.0, 0.0, 4.501445208523072e-23, -204648220249.27924, 11142527331.229523, 0.0, 0.0, 0.0, -3.1921651987093688e-24, 0.0, 0.0, 4.99974989885103e-07, 1.3363906335790053e-28, 4.744442195813528e-25, 0.0, 0.0, 0.0, 1.3363906335790049e-28, 4.999749898919614e-07, 1.9403297522529916e-34, 0.0, 0.0, 0.0, 4.744442195813528e-25, -1.940329800177127e-34, 4.999749898919614e-07, 0.0, 4.5014452085230716e-23, -3.1921651987093684e-24, 0.0, 0.0, 0.0, 9.999979993449448e-10]
twist: 
  twist: 
    linear: 
      x: -2.78172227877e-09
      y: 0.0
      z: 0.0
    angular: 
      x: 0.0
      y: 0.0
      z: 0.0400000000002
  covariance: [0.011044915025363672, 0.0, 0.0, 0.0, 0.0, 0.0, 0.0, 28277747.7969967, 0.0, 0.0, 0.0, 0.0, 0.0, 0.0, 4.999974987278655e-07, 1.6312800877496455e-35, 1.1559821510721695e-36, 0.0, 0.0, 0.0, 1.6312800877496447e-35, 4.999749898614959e-07, -6.356734148820501e-39, 0.0, 0.0, 0.0, 1.1559821510721697e-36, 6.356361484074882e-39, 4.999749898614959e-07, 0.0, 0.0, 0.0, 0.0, 0.0, 0.0, 9.999998999636713e-10]
---
header: 
  seq: 9467
  stamp: 
    secs: 1518208845
    nsecs: 834540129
  frame_id: "swarmone/map"
child_frame_id: "swarmone/base_link"
pose: 
  pose: 
    position: 
      x: 0.49601842624
      y: 6.07919496522
      z: 0.0
    orientation: 
      x: 0.0
      y: 0.0
      z: 0.677971828161
      w: 0.735087886052
  covariance: [3765523666761.3843, -204762434936.63623, 0.0, 0.0, 0.0, 6.705130256694933e-23, -204762434936.63696, 11149074948.603165, 0.0, 0.0, 0.0, -4.081387080555254e-24, 0.0, 0.0, 4.999748818904281e-07, 7.725592570794179e-29, 3.2070223044089883e-25, 0.0, 0.0, 0.0, 7.725592570794179e-29, 4.999748819033337e-07, 6.523049415175119e-35, 0.0, 0.0, 0.0, 3.207022304408989e-25, -6.523049605514304e-35, 4.999748819033337e-07, 0.0, 6.705130256694932e-23, -4.081387080555253e-24, 0.0, 0.0, 0.0, 9.99997991343947e-10]
twist: 
  twist: 
    linear: 
      x: -1.46850729309e-09
      y: 0.0
      z: 0.0
    angular: 
      x: 0.0
      y: 0.0
      z: 0.0399999999979
  covariance: [0.010992733246914788, 0.0, 0.0, 0.0, 0.0, 0.0, 0.0, 28286670.728454545, 0.0, 0.0, 0.0, 0.0, 0.0, 0.0, 4.999974878885533e-07, 4.6494072851614383e-35, 2.8293253831832426e-36, 0.0, 0.0, 0.0, 4.649407285161436e-35, 4.999748818659357e-07, 7.057017626190987e-39, 0.0, 0.0, 0.0, 2.829325383183242e-36, -7.058653483581704e-39, 4.999748818659357e-07, 0.0, 0.0, 0.0, 0.0, 0.0, 0.0, 9.999998995580943e-10]
---
header: 
  seq: 9468
  stamp: 
    secs: 1518208845
    nsecs: 935035467
  frame_id: "swarmone/map"
child_frame_id: "swarmone/base_link"
pose: 
  pose: 
    position: 
      x: 0.496018426262
      y: 6.0791949655
      z: 0.0
    orientation: 
      x: 0.0
      y: 0.0
      z: 0.677971813396
      w: 0.73508789967
  covariance: [3767525906497.3228, -204897737378.3544, 0.0, 0.0, 0.0, -2.4064504675636345e-23, -204897737378.35513, 11157858760.409807, 0.0, 0.0, 0.0, 1.9485504225122606e-24, 0.0, 0.0, 4.999751219420755e-07, -7.731832043630281e-29, -2.3931614837406704e-25, 0.0, 0.0, 0.0, -7.73183204363028e-29, 4.999751219492965e-07, -1.2797978251812022e-34, 0.0, 0.0, 0.0, -2.39316148374067e-25, 1.2797978110002593e-34, 4.999751219492965e-07, 0.0, -2.4064504675636345e-23, 1.948550422512261e-24, 0.0, 0.0, 0.0, 9.999980099345263e-10]
twist: 
  twist: 
    linear: 
      x: 1.58355554361e-09
      y: 0.0
      z: 0.0
    angular: 
      x: 0.0
      y: 0.0
      z: 0.0399999999999
  covariance: [0.011109086438094065, 0.0, 0.0, 0.0, 0.0, 0.0, 0.0, 28295679.389743805, 0.0, 0.0, 0.0, 0.0, 0.0, 0.0, 4.999975119334064e-07, -8.065134586546317e-36, -6.5238311567317734e-37, 0.0, 0.0, 0.0, -8.065134586546321e-36, 4.999751219183761e-07, 2.8987266867761324e-39, 0.0, 0.0, 0.0, -6.523831156731769e-37, -2.8987078129663475e-39, 4.999751219183761e-07, 0.0, 0.0, 0.0, 0.0, 0.0, 0.0, 9.999999004929163e-10]
---
header: 
  seq: 9469
  stamp: 
    secs: 1518208846
    nsecs:  35239220
  frame_id: "swarmone/map"
child_frame_id: "swarmone/base_link"
pose: 
  pose: 
    position: 
      x: 0.496018426222
      y: 6.079194965
      z: 0.0
    orientation: 
      x: 0.0
      y: 0.0
      z: 0.681638755648
      w: 0.73168887295
  covariance: [3769523184257.655, -205032712040.23758, 0.0, 0.0, 0.0, 4.8733855073059226e-23, -205032712040.23828, 11166622021.07322, 0.0, 0.0, 0.0, -3.946072934957984e-24, 0.0, 0.0, 4.99975049544784e-07, 1.5658008479396357e-28, 4.860523191150629e-25, 0.0, 0.0, 0.0, 1.5658008479396362e-28, 4.999750495520449e-07, 1.930777468799088e-34, 0.0, 0.0, 0.0, 4.86052319115063e-25, -1.930777527027367e-34, 4.999750495520449e-07, 0.0, 4.8733855073059215e-23, -3.946072934957983e-24, 0.0, 0.0, 0.0, 9.99998004143398e-10]
twist: 
  twist: 
    linear: 
      x: -2.83236013173e-09
      y: 0.0
      z: 0.0
    angular: 
      x: 0.0
      y: 0.0
      z: 0.0400000000002
  covariance: [0.011073832074882285, 0.0, 0.0, 0.0, 0.0, 0.0, 0.0, 28304663.81670442, 0.0, 0.0, 0.0, 0.0, 0.0, 0.0, 4.999975046921698e-07, 1.8680541543992497e-35, 1.51158080108602e-36, 0.0, 0.0, 0.0, 1.8680541543992497e-35, 4.999750495210848e-07, -7.100333703181737e-40, 0.0, 0.0, 0.0, 1.5115808010860198e-36, 7.09426707950233e-40, 4.999750495210848e-07, 0.0, 0.0, 0.0, 0.0, 0.0, 0.0, 9.999999002033574e-10]
---
header: 
  seq: 9470
  stamp: 
    secs: 1518208846
    nsecs: 134711742
  frame_id: "swarmone/map"
child_frame_id: "swarmone/base_link"
pose: 
  pose: 
    position: 
      x: 0.496018426211
      y: 6.07919496484
      z: 0.0
    orientation: 
      x: 0.0
      y: 0.0
      z: 0.677971820785
      w: 0.735087892855
  covariance: [3771508231590.893, -205156882556.26562, 0.0, 0.0, 0.0, 8.779258338716157e-23, -205156882556.26636, 11174250510.934002, 0.0, 0.0, 0.0, -6.2256429103530536e-24, 0.0, 0.0, 4.999748596132497e-07, 1.1624012650586488e-28, 4.148289536658761e-25, 0.0, 0.0, 0.0, 1.1624012650586488e-28, 4.999748596262434e-07, 2.614051075521436e-34, 0.0, 0.0, 0.0, 4.148289536658762e-25, -2.6140511117978372e-34, 4.999748596262434e-07, 0.0, 8.779258338716158e-23, -6.225642910353054e-24, 0.0, 0.0, 0.0, 9.999979895797674e-10]
twist: 
  twist: 
    linear: 
      x: -1.95368248941e-09
      y: 0.0
      z: 0.0
    angular: 
      x: 0.0
      y: 0.0
      z: 0.0399999999988
  covariance: [0.010982090399129434, 0.0, 0.0, 0.0, 0.0, 0.0, 0.0, 28313584.56130145, 0.0, 0.0, 0.0, 0.0, 0.0, 0.0, 4.999974856597947e-07, 5.954867877467551e-35, 4.221674613769965e-36, 0.0, 0.0, 0.0, 5.954867877467554e-35, 4.999748595887487e-07, -5.270015394921849e-38, 0.0, 0.0, 0.0, 4.221674613769965e-36, 5.269724781035249e-38, 4.999748595887487e-07, 0.0, 0.0, 0.0, 0.0, 0.0, 0.0, 9.99999899469742e-10]
---
header: 
  seq: 9471
  stamp: 
    secs: 1518208846
    nsecs: 235193253
  frame_id: "swarmone/map"
child_frame_id: "swarmone/base_link"
pose: 
  pose: 
    position: 
      x: 0.496018426195
      y: 6.07919496464
      z: 0.0
    orientation: 
      x: 0.0
      y: 0.0
      z: 0.685288657075
      w: 0.728271554081
  covariance: [3773512739114.935, -205292357930.8645, 0.0, 0.0, 0.0, 3.3313828507110057e-23, -205292357930.86526, 11183047457.399113, 0.0, 0.0, 0.0, -2.6974822635730104e-24, 0.0, 0.0, 4.999751186246328e-07, 1.093114650648776e-28, 3.38386149723496e-25, 0.0, 0.0, 0.0, 1.093114650648776e-28, 4.99975118631681e-07, 1.280380893369618e-34, 0.0, 0.0, 0.0, 3.383861497234958e-25, -1.2803809217134211e-34, 4.99975118631681e-07, 0.0, 3.331382850711005e-23, -2.6974822635730107e-24, 0.0, 0.0, 0.0, 9.999980096587397e-10]
twist: 
  twist: 
    linear: 
      x: -1.95816410914e-09
      y: 0.0
      z: 0.0
    angular: 
      x: 0.0
      y: 0.0
      z: 0.0400000000005
  covariance: [0.011107480631349115, 0.0, 0.0, 0.0, 0.0, 0.0, 0.0, 28322597.695163466, 0.0, 0.0, 0.0, 0.0, 0.0, 0.0, 4.999975116027195e-07, 1.2451621572476494e-35, 1.0073800963244996e-36, 0.0, 0.0, 0.0, 1.245162157247649e-35, 4.999751186009687e-07, -1.669037761819914e-38, 0.0, 0.0, 0.0, 1.0073800963245001e-36, 1.66901697475153e-38, 4.999751186009687e-07, 0.0, 0.0, 0.0, 0.0, 0.0, 0.0, 9.999999004792222e-10]
---
header: 
  seq: 9472
  stamp: 
    secs: 1518208846
    nsecs: 334645033
  frame_id: "swarmone/map"
child_frame_id: "swarmone/base_link"
pose: 
  pose: 
    position: 
      x: 0.496018426174
      y: 6.07919496432
      z: 0.0
    orientation: 
      x: 0.0
      y: 0.0
      z: 0.677971828178
      w: 0.735087886036
  covariance: [3775500360758.156, -205406719943.8849, 0.0, 0.0, 0.0, 4.414320787290336e-23, -205406719943.88565, 11189605428.926338, 0.0, 0.0, 0.0, -2.687031624950281e-24, 0.0, 0.0, 4.999748612586122e-07, 1.1504430068254026e-28, 4.779423288816297e-25, 0.0, 0.0, 0.0, 1.1504430068254022e-28, 4.999748612653619e-07, 8.290102822247557e-39, 0.0, 0.0, 0.0, 4.779423288816298e-25, -8.294268975970376e-39, 4.999748612653619e-07, 0.0, 4.414320787290335e-23, -2.687031624950281e-24, 0.0, 0.0, 0.0, 9.999979890452518e-10]
twist: 
  twist: 
    linear: 
      x: -2.83671118144e-09
      y: 0.0
      z: 0.0
    angular: 
      x: 0.0
      y: 0.0
      z: 0.0399999999993
  covariance: [0.010983064424473075, 0.0, 0.0, 0.0, 0.0, 0.0, 0.0, 28331520.346129604, 0.0, 0.0, 0.0, 0.0, 0.0, 0.0, 4.999974858637895e-07, 1.5548794555689694e-35, 9.457886095740032e-37, 0.0, 0.0, 0.0, 1.5548794555689696e-35, 4.99974861235046e-07, -4.325292831437706e-39, 0.0, 0.0, 0.0, 9.457886095740027e-37, 4.325105943286989e-39, 4.99974861235046e-07, 0.0, 0.0, 0.0, 0.0, 0.0, 0.0, 9.99999899448778e-10]
---
header: 
  seq: 9473
  stamp: 
    secs: 1518208846
    nsecs: 435168266
  frame_id: "swarmone/map"
child_frame_id: "swarmone/base_link"
pose: 
  pose: 
    position: 
      x: 0.496018426186
      y: 6.07919496447
      z: 0.0
    orientation: 
      x: 0.0
      y: 0.0
      z: 0.677971813396
      w: 0.73508789967
  covariance: [3777507397404.136, -205542375542.18347, 0.0, 0.0, 0.0, -1.97936840048108e-24, -205542375542.18417, 11198414981.047293, 0.0, 0.0, 0.0, 1.6027492821343604e-25, 0.0, 0.0, 4.999751288992805e-07, -6.425157989701135e-30, -1.988164330996009e-26, 0.0, 0.0, 0.0, -6.425157989701137e-30, 4.999751289064108e-07, 2.5582400711988312e-34, 0.0, 0.0, 0.0, -1.9881643309960086e-26, -2.558240071301569e-34, 4.999751289064108e-07, 0.0, -1.9793684004810795e-24, 1.6027492821343602e-25, 0.0, 0.0, 0.0, 9.999980104858295e-10]
twist: 
  twist: 
    linear: 
      x: 2.32614387642e-10
      y: 0.0
      z: 0.0
    angular: 
      x: 0.0
      y: 0.0
      z: 0.0399999999999
  covariance: [0.011112501197630005, 0.0, 0.0, 0.0, 0.0, 0.0, 0.0, 28340541.030283574, 0.0, 0.0, 0.0, 0.0, 0.0, 0.0, 4.9999751262983e-07, -1.0383093386637678e-37, -8.365355760547589e-39, 0.0, 0.0, 0.0, -1.0383093386637672e-37, 4.999751288755984e-07, 5.169341070814846e-40, 0.0, 0.0, 0.0, -8.365355760547587e-39, -5.169341070814846e-40, 4.999751288755984e-07, 0.0, 0.0, 0.0, 0.0, 0.0, 0.0, 9.999999005205293e-10]
---
header: 
  seq: 9474
  stamp: 
    secs: 1518208846
    nsecs: 534653187
  frame_id: "swarmone/map"
child_frame_id: "swarmone/base_link"
pose: 
  pose: 
    position: 
      x: 0.496018426162
      y: 6.07919496416
      z: 0.0
    orientation: 
      x: 0.0
      y: 0.0
      z: 0.677971813396
      w: 0.73508789967
  covariance: [3779494543050.584, -205676694161.16565, 0.0, 0.0, 0.0, 3.397541888031442e-23, -205676694161.1664, 11207138429.804005, 0.0, 0.0, 0.0, -2.7510546126805352e-24, 0.0, 0.0, 4.999748693089522e-07, 1.1030850159860424e-28, 3.448809937112393e-25, 0.0, 0.0, 0.0, 1.1030850159860421e-28, 4.999748693162255e-07, -5.8772309222992874e-34, 0.0, 0.0, 0.0, 3.4488099371123933e-25, 5.877230893411662e-34, 4.999748693162255e-07, 0.0, 3.3975418880314427e-23, -2.7510546126805356e-24, 0.0, 0.0, 0.0, 9.999979897208704e-10]
twist: 
  twist: 
    linear: 
      x: -1.98071540677e-09
      y: 0.0
      z: 0.0
    angular: 
      x: 0.0
      y: 0.0
      z: 0.0399999999999
  covariance: [0.010986898774494025, 0.0, 0.0, 0.0, 0.0, 0.0, 0.0, 28349470.424045682, 0.0, 0.0, 0.0, 0.0, 0.0, 0.0, 4.999974866653853e-07, 1.315065598081075e-35, 1.0641193578673327e-36, 0.0, 0.0, 0.0, 1.3150655980810756e-35, 4.999748692852709e-07, 1.9859125756839008e-39, 0.0, 0.0, 0.0, 1.0641193578673333e-36, -1.986180323216977e-39, 4.999748692852709e-07, 0.0, 0.0, 0.0, 0.0, 0.0, 0.0, 9.999998994822733e-10]
---
header: 
  seq: 9475
  stamp: 
    secs: 1518208846
    nsecs: 635088444
  frame_id: "swarmone/map"
child_frame_id: "swarmone/base_link"
pose: 
  pose: 
    position: 
      x: 0.496018426131
      y: 6.07919496378
      z: 0.0
    orientation: 
      x: 0.0
      y: 0.0
      z: 0.674287921934
      w: 0.738468549319
  covariance: [3781501518828.757, -205812360576.99457, 0.0, 0.0, 0.0, 6.162205767776235e-23, -205812360576.99533, 11215950134.780489, 0.0, 0.0, 0.0, -4.9896510720967816e-24, 0.0, 0.0, 4.999751066833974e-07, 1.8465468352822763e-28, 5.718945784345269e-25, 0.0, 0.0, 0.0, 1.8465468352822774e-28, 4.999751066912041e-07, 3.2034653082853434e-34, 0.0, 0.0, 0.0, 5.7189457843452705e-25, -3.203465389658962e-34, 4.999751066912041e-07, 0.0, 6.162205767776232e-23, -4.989651072096781e-24, 0.0, 0.0, 0.0, 9.999980087506788e-10]
twist: 
  twist: 
    linear: 
      x: -3.29696489488e-09
      y: 0.0
      z: 0.0
    angular: 
      x: 0.0
      y: 0.0
      z: 0.0499999990038
  covariance: [0.011101617495146234, 0.0, 0.0, 0.0, 0.0, 0.0, 0.0, 28358487.0188309, 0.0, 0.0, 0.0, 0.0, 0.0, 0.0, 4.999975104035211e-07, 2.514278331784434e-35, 2.0346269104166783e-36, 0.0, 0.0, 0.0, 2.514278331784435e-35, 4.999751066595871e-07, 3.4167356234631356e-39, 0.0, 0.0, 0.0, 2.0346269104166777e-36, -3.417731171116175e-39, 4.999751066595871e-07, 0.0, 0.0, 0.0, 0.0, 0.0, 0.0, 9.9999990043339e-10]
---
header: 
  seq: 9476
  stamp: 
    secs: 1518208846
    nsecs: 734554291
  frame_id: "swarmone/map"
child_frame_id: "swarmone/base_link"
pose: 
  pose: 
    position: 
      x: 0.496018426091
      y: 6.07919496334
      z: 0.0
    orientation: 
      x: 0.0
      y: 0.0
      z: 0.67428791532
      w: 0.738468555358
  covariance: [3783488253176.4053, -205956674697.27112, 0.0, 0.0, 0.0, 6.572580033115362e-23, -205956674697.27194, 11225759810.064487, 0.0, 0.0, 0.0, -5.9840585551399696e-24, 0.0, 0.0, 4.999748647062255e-07, 3.1315133891579925e-28, 6.980040890839463e-25, 0.0, 0.0, 0.0, 3.131513389157992e-28, 4.999748647165346e-07, 1.306345593032144e-34, 0.0, 0.0, 0.0, 6.9800408908394615e-25, -1.3063457657968495e-34, 4.999748647165346e-07, 0.0, 6.572580033115362e-23, -5.984058555139968e-24, 0.0, 0.0, 0.0, 9.99997989331559e-10]
twist: 
  twist: 
    linear: 
      x: -4.16237468052e-09
      y: 0.0
      z: 0.0
    angular: 
      x: 0.0
      y: 0.0
      z: 0.0400000010052
  covariance: [0.010984701935271258, 0.0, 0.0, 0.0, 0.0, 0.0, 0.0, 28367418.468688555, 0.0, 0.0, 0.0, 0.0, 0.0, 0.0, 4.99997486207384e-07, 2.3564297021468015e-35, 2.143389340847518e-36, 0.0, 0.0, 0.0, 2.3564297021468004e-35, 4.999748646826189e-07, 6.233296949064127e-39, 0.0, 0.0, 0.0, 2.1433893408475194e-36, -6.234383595714897e-39, 4.999748646826189e-07, 0.0, 0.0, 0.0, 0.0, 0.0, 0.0, 9.999998994629983e-10]
---
header: 
  seq: 9477
  stamp: 
    secs: 1518208846
    nsecs: 835079193
  frame_id: "swarmone/map"
child_frame_id: "swarmone/base_link"
pose: 
  pose: 
    position: 
      x: 0.496018426049
      y: 6.07919496288
      z: 0.0
    orientation: 
      x: 0.0
      y: 0.0
      z: 0.677971806084
      w: 0.735087906414
  covariance: [3785496989254.66, -206102597495.50235, 0.0, 0.0, 0.0, 7.342434789057193e-23, -206102597495.50314, 11235680019.76622, 0.0, 0.0, 0.0, -6.684992873682665e-24, 0.0, 0.0, 4.999751294713698e-07, 2.7680570431187922e-28, 7.623924194225452e-25, 0.0, 0.0, 0.0, 2.7680570431187945e-28, 4.999751294782216e-07, -1.2791042817900334e-34, 0.0, 0.0, 0.0, 7.623924194225456e-25, 1.2791041125468547e-34, 4.999751294782216e-07, 0.0, 7.342434789057193e-23, -6.684992873682667e-24, 0.0, 0.0, 0.0, 9.999980105160028e-10]
twist: 
  twist: 
    linear: 
      x: -4.58640708532e-09
      y: 0.0
      z: 0.0
    angular: 
      x: 0.0
      y: 0.0
      z: 0.0400000000002
  covariance: [0.011112786659053981, 0.0, 0.0, 0.0, 0.0, 0.0, 0.0, 28376446.92066022, 0.0, 0.0, 0.0, 0.0, 0.0, 0.0, 4.999975126887767e-07, 2.5943453413805014e-35, 2.3602716128943116e-36, 0.0, 0.0, 0.0, 2.5943453413805004e-35, 4.99975129447743e-07, -1.0895365249172102e-38, 0.0, 0.0, 0.0, 2.36027161289431e-36, 1.0894422480728058e-38, 4.99975129447743e-07, 0.0, 0.0, 0.0, 0.0, 0.0, 0.0, 9.999999005221807e-10]
---
header: 
  seq: 9478
  stamp: 
    secs: 1518208846
    nsecs: 934556723
  frame_id: "swarmone/map"
child_frame_id: "swarmone/base_link"
pose: 
  pose: 
    position: 
      x: 0.496018426024
      y: 6.07919496256
      z: 0.0
    orientation: 
      x: 0.0
      y: 0.0
      z: 0.674287922005
      w: 0.738468549254
  covariance: [3787487347222.5376, -206237168592.73566, 0.0, 0.0, 0.0, 5.962182683229321e-23, -206237168592.73645, 11244423291.79373, 0.0, 0.0, 0.0, -4.827697687227417e-24, 0.0, 0.0, 4.999748676042214e-07, 1.9990092211007345e-28, 6.2503429269453755e-25, 0.0, 0.0, 0.0, 1.9990092211007356e-28, 4.999748676112277e-07, -2.6123140806102105e-34, 0.0, 0.0, 0.0, 6.250342926945376e-25, 2.6123139781713345e-34, 4.999748676112277e-07, 0.0, 5.962182683229322e-23, -4.8276976872274165e-24, 0.0, 0.0, 0.0, 9.999979895686485e-10]
twist: 
  twist: 
    linear: 
      x: -3.69101911499e-09
      y: 0.0
      z: 0.0
    angular: 
      x: 0.0
      y: 0.0
      z: 0.0399999999995
  covariance: [0.010986089217444886, 0.0, 0.0, 0.0, 0.0, 0.0, 0.0, 28385383.19045737, 0.0, 0.0, 0.0, 0.0, 0.0, 0.0, 4.999974864966387e-07, 2.1826128181730345e-35, 1.7660379762979126e-36, 0.0, 0.0, 0.0, 2.1826128181730335e-35, 4.999748675805956e-07, 1.6665290153728588e-39, 0.0, 0.0, 0.0, 1.7660379762979123e-36, -1.667451657422632e-39, 4.999748675805956e-07, 0.0, 0.0, 0.0, 0.0, 0.0, 0.0, 9.99999899474805e-10]
---
header: 
  seq: 9479
  stamp: 
    secs: 1518208847
    nsecs:  35036087
  frame_id: "swarmone/map"
child_frame_id: "swarmone/base_link"
pose: 
  pose: 
    position: 
      x: 0.496018426007
      y: 6.07919496239
      z: 0.0
    orientation: 
      x: 0.0
      y: 0.0
      z: 0.67797180608
      w: 0.735087906417
  covariance: [3789496870075.5293, -206383166348.666, 0.0, 0.0, 0.0, 3.896591908102556e-23, -206383166348.6668, 11254350630.172035, 0.0, 0.0, 0.0, -3.547689000378276e-24, 0.0, 0.0, 4.999751181993667e-07, 1.4690005431861187e-28, 4.047823939037691e-25, 0.0, 0.0, 0.0, 1.4690005431861187e-28, 4.999751182062246e-07, -2.2948175834443586e-38, 0.0, 0.0, 0.0, 4.0478239390376933e-25, 2.2943604522402964e-38, 4.999751182062246e-07, 0.0, 3.896591908102556e-23, -3.547689000378275e-24, 0.0, 0.0, 0.0, 9.999980096143286e-10]
twist: 
  twist: 
    linear: 
      x: -2.36888805049e-09
      y: 0.0
      z: 0.0
    angular: 
      x: 0.0
      y: 0.0
      z: 0.0400000000002
  covariance: [0.011107274901288135, 0.0, 0.0, 0.0, 0.0, 0.0, 0.0, 28394411.361500006, 0.0, 0.0, 0.0, 0.0, 0.0, 0.0, 4.99997511561344e-07, 1.4105670551526108e-35, 1.2833135473522698e-36, 0.0, 0.0, 0.0, 1.4105670551526108e-35, 4.999751181757399e-07, -3.876285672934614e-39, 0.0, 0.0, 0.0, 1.2833135473522703e-36, 3.875842089301525e-39, 4.999751181757399e-07, 0.0, 0.0, 0.0, 0.0, 0.0, 0.0, 9.999999004770967e-10]
---
header: 
  seq: 9480
  stamp: 
    secs: 1518208847
    nsecs: 134541750
  frame_id: "swarmone/map"
child_frame_id: "swarmone/base_link"
pose: 
  pose: 
    position: 
      x: 0.496018425988
      y: 6.07919496215
      z: 0.0
    orientation: 
      x: 0.0
      y: 0.0
      z: 0.677971813396
      w: 0.73508789967
  covariance: [3791489473133.267, -206517906913.08194, 0.0, 0.0, 0.0, 3.845684544255733e-23, -206517906913.08276, 11263106626.030281, 0.0, 0.0, 0.0, -3.1139273240293285e-24, 0.0, 0.0, 4.999748747642221e-07, 1.303639583110474e-28, 4.074958204554452e-25, 0.0, 0.0, 0.0, 1.3036395831104742e-28, 4.999748747711326e-07, 2.610718542137789e-34, 0.0, 0.0, 0.0, 4.0749582045544536e-25, -2.6107185823406578e-34, 4.999748747711326e-07, 0.0, 3.845684544255733e-23, -3.1139273240293285e-24, 0.0, 0.0, 0.0, 9.999979901361242e-10]
twist: 
  twist: 
    linear: 
      x: -2.37199025449e-09
      y: 0.0
      z: 0.0
    angular: 
      x: 0.0
      y: 0.0
      z: 0.0399999999999
  covariance: [0.010989518750059405, 0.0, 0.0, 0.0, 0.0, 0.0, 0.0, 28403353.93087483, 0.0, 0.0, 0.0, 0.0, 0.0, 0.0, 4.999974872133926e-07, 1.4084777038273537e-35, 1.1396528737006184e-36, 0.0, 0.0, 0.0, 1.4084777038273543e-35, 4.999748747406155e-07, 1.2472155466014895e-38, 0.0, 0.0, 0.0, 1.1396528737006179e-36, -1.2472346383336266e-38, 4.999748747406155e-07, 0.0, 0.0, 0.0, 0.0, 0.0, 0.0, 9.999998995032268e-10]
---
header: 
  seq: 9481
  stamp: 
    secs: 1518208847
    nsecs: 234993219
  frame_id: "swarmone/map"
child_frame_id: "swarmone/base_link"
pose: 
  pose: 
    position: 
      x: 0.496018425974
      y: 6.07919496197
      z: 0.0
    orientation: 
      x: 0.0
      y: 0.0
      z: 0.677971813396
      w: 0.73508789967
  covariance: [3793501865673.4146, -206653993103.8181, 0.0, 0.0, 0.0, 3.218834295668952e-23, -206653993103.81894, 11271950790.560804, 0.0, 0.0, 0.0, -2.6063525860666525e-24, 0.0, 0.0, 4.999751112894793e-07, 1.0792155467073589e-28, 3.341813093189682e-25, 0.0, 0.0, 0.0, 1.0792155467073596e-28, 4.999751112963525e-07, -1.9213481476508876e-34, 0.0, 0.0, 0.0, 3.3418130931896805e-25, 1.9213481200585408e-34, 4.999751112963525e-07, 0.0, 3.218834295668952e-23, -2.606352586066653e-24, 0.0, 0.0, 0.0, 9.99998009061591e-10]
twist: 
  twist: 
    linear: 
      x: -1.93615609792e-09
      y: 0.0
      z: 0.0
    angular: 
      x: 0.0
      y: 0.0
      z: 0.0399999999999
  covariance: [0.011103898135668566, 0.0, 0.0, 0.0, 0.0, 0.0, 0.0, 28412383.40408359, 0.0, 0.0, 0.0, 0.0, 0.0, 0.0, 4.999975108702129e-07, 1.1756106487273419e-35, 9.512238040038718e-37, 0.0, 0.0, 0.0, 1.1756106487273421e-35, 4.999751112658523e-07, 1.6545974467097342e-38, 0.0, 0.0, 0.0, 9.512238040038728e-37, -1.654625016226979e-38, 4.999751112658523e-07, 0.0, 0.0, 0.0, 0.0, 0.0, 0.0, 9.999999004494596e-10]
---
header: 
  seq: 9482
  stamp: 
    secs: 1518208847
    nsecs: 334672213
  frame_id: "swarmone/map"
child_frame_id: "swarmone/base_link"
pose: 
  pose: 
    position: 
      x: 0.496018425963
      y: 6.07919496184
      z: 0.0
    orientation: 
      x: 0.0
      y: 0.0
      z: 0.67428792199
      w: 0.738468549268
  covariance: [3795499626970.869, -206789097313.07523, 0.0, 0.0, 0.0, 2.5027214960216323e-23, -206789097313.07608, 11280731857.773705, 0.0, 0.0, 0.0, -2.0265023972898933e-24, 0.0, 0.0, 4.999749184560012e-07, 8.483933851970541e-29, 2.647341836098192e-25, 0.0, 0.0, 0.0, 8.48393385197054e-29, 4.99974918462888e-07, 2.6018601715983294e-34, 0.0, 0.0, 0.0, 2.6473418360981926e-25, -2.6018601888137806e-34, 4.99974918462888e-07, 0.0, 2.5027214960216323e-23, -2.026502397289893e-24, 0.0, 0.0, 0.0, 9.999979936311436e-10]
twist: 
  twist: 
    linear: 
      x: -1.50520394097e-09
      y: 0.0
      z: 0.0
    angular: 
      x: 0.0
      y: 0.0
      z: 0.0300000010028
  covariance: [0.01101047942853141, 0.0, 0.0, 0.0, 0.0, 0.0, 0.0, 28421345.33168778, 0.0, 0.0, 0.0, 0.0, 0.0, 0.0, 4.999974915834769e-07, 9.325013903596727e-36, 7.545238510018138e-37, 0.0, 0.0, 0.0, 9.325013903596732e-36, 4.999749184323946e-07, 8.41621728801556e-39, 0.0, 0.0, 0.0, 7.545238510018138e-37, -8.41634940747639e-39, 4.999749184323946e-07, 0.0, 0.0, 0.0, 0.0, 0.0, 0.0, 9.999998996779792e-10]
---
header: 
  seq: 9483
  stamp: 
    secs: 1518208847
    nsecs: 435186625
  frame_id: "swarmone/map"
child_frame_id: "swarmone/base_link"
pose: 
  pose: 
    position: 
      x: 0.496018425937
      y: 6.07919496155
      z: 0.0
    orientation: 
      x: 0.0
      y: 0.0
      z: 0.677971805348
      w: 0.735087907092
  covariance: [3797513250560.4136, -206935426006.61203, 0.0, 0.0, 0.0, 3.8003382782483166e-23, -206935426006.61282, 11290685451.538982, 0.0, 0.0, 0.0, -3.460061397945026e-24, 0.0, 0.0, 4.999751269812456e-07, 1.0985826595141061e-28, 4.0307346106570554e-25, 0.0, 0.0, 0.0, 1.0985826595141068e-28, 4.999751269845615e-07, 3.443750377146076e-38, 0.0, 0.0, 0.0, 4.030734610657058e-25, -3.444092551873972e-38, 4.999751269845615e-07, 0.0, 3.800338278248317e-23, -3.460061397945026e-24, 0.0, 0.0, 0.0, 9.999980103064542e-10]
twist: 
  twist: 
    linear: 
      x: -2.38999730623e-09
      y: 0.0
      z: 0.0
    angular: 
      x: 0.0
      y: 0.0
      z: 0.0300000000002
  covariance: [0.011111595207933051, 0.0, 0.0, 0.0, 0.0, 0.0, 0.0, 28430384.27811561, 0.0, 0.0, 0.0, 0.0, 0.0, 0.0, 4.999975124409072e-07, 1.3328892897339423e-35, 1.2128325643234823e-36, 0.0, 0.0, 0.0, 1.3328892897339428e-35, 4.999751269576581e-07, -3.711467944429419e-39, 0.0, 0.0, 0.0, 1.2128325643234818e-36, 3.7110667611081535e-39, 4.999751269576581e-07, 0.0, 0.0, 0.0, 0.0, 0.0, 0.0, 9.999999005117986e-10]
---
header: 
  seq: 9484
  stamp: 
    secs: 1518208847
    nsecs: 534599781
  frame_id: "swarmone/map"
child_frame_id: "swarmone/base_link"
pose: 
  pose: 
    position: 
      x: 0.496018425908
      y: 6.07919496119
      z: 0.0
    orientation: 
      x: 0.0
      y: 0.0
      z: 0.677971812661
      w: 0.735087900347
  covariance: [3799507367458.4326, -207070301588.7187, 0.0, 0.0, 0.0, 5.2883439717328515e-23, -207070301588.71945, 11299453378.986895, 0.0, 0.0, 0.0, -4.282085292268176e-24, 0.0, 0.0, 4.999748513294992e-07, 1.3298097279505246e-28, 5.542014958163762e-25, 0.0, 0.0, 0.0, 1.3298097279505248e-28, 4.999748513330955e-07, 6.541117525170751e-35, 0.0, 0.0, 0.0, 5.542014958163763e-25, -6.541118083494057e-35, 4.999748513330955e-07, 0.0, 5.2883439717328515e-23, -4.282085292268176e-24, 0.0, 0.0, 0.0, 9.999979882667969e-10]
twist: 
  twist: 
    linear: 
      x: -3.266541219e-09
      y: 0.0
      z: 0.0
    angular: 
      x: 0.0
      y: 0.0
      z: 0.039999998994
  covariance: [0.010978322443780516, 0.0, 0.0, 0.0, 0.0, 0.0, 0.0, 28439326.076971494, 0.0, 0.0, 0.0, 0.0, 0.0, 0.0, 4.999974848688276e-07, 1.9414198699933433e-35, 1.5711665179755172e-36, 0.0, 0.0, 0.0, 1.9414198699933412e-35, 4.999748513058731e-07, -2.720540487835271e-39, 0.0, 0.0, 0.0, 1.5711665179755165e-36, 2.720011295273344e-39, 4.999748513058731e-07, 0.0, 0.0, 0.0, 0.0, 0.0, 0.0, 9.999998994097122e-10]
---
header: 
  seq: 9485
  stamp: 
    secs: 1518208847
    nsecs: 635082960
  frame_id: "swarmone/map"
child_frame_id: "swarmone/base_link"
pose: 
  pose: 
    position: 
      x: 0.496018425877
      y: 6.07919496081
      z: 0.0
    orientation: 
      x: 0.0
      y: 0.0
      z: 0.677971813396
      w: 0.73508789967
  covariance: [3801523798824.318, -207206692433.613, 0.0, 0.0, 0.0, 1.7753314346683299e-22, -207206692433.61377, 11308320470.050339, 0.0, 0.0, 0.0, -1.4374971692295785e-23, 0.0, 0.0, 4.999751115176649e-07, 2.4816950863496263e-28, 7.68479698929281e-25, 0.0, 0.0, 0.0, 2.4816950863496263e-28, 4.999751115309403e-07, -1.4467806136458464e-38, 0.0, 0.0, 0.0, 7.684796989292809e-25, 1.4453175091396453e-38, 4.999751115309403e-07, 0.0, 1.7753314346683294e-22, -1.4374971692295782e-23, 0.0, 0.0, 0.0, 9.999980098193238e-10]
twist: 
  twist: 
    linear: 
      x: -3.69869430919e-09
      y: 0.0
      z: 0.0
    angular: 
      x: 0.0
      y: 0.0
      z: 0.0399999999996
  covariance: [0.0111038140518088, 0.0, 0.0, 0.0, 0.0, 0.0, 0.0, 28448366.024968974, 0.0, 0.0, 0.0, 0.0, 0.0, 0.0, 4.999975108534322e-07, 1.1554986258819054e-34, 9.354277762568984e-36, 0.0, 0.0, 0.0, 1.1554986258819054e-34, 4.999751114931155e-07, 2.258149455694528e-38, 0.0, 0.0, 0.0, 9.354277762568982e-36, -2.2594911353136554e-38, 4.999751114931155e-07, 0.0, 0.0, 0.0, 0.0, 0.0, 0.0, 9.99999900480871e-10]
---
header: 
  seq: 9486
  stamp: 
    secs: 1518208847
    nsecs: 734533072
  frame_id: "swarmone/map"
child_frame_id: "swarmone/base_link"
pose: 
  pose: 
    position: 
      x: 0.496018425853
      y: 6.07919496051
      z: 0.0
    orientation: 
      x: 0.0
      y: 0.0
      z: 0.674287922007
      w: 0.738468549253
  covariance: [3803520341489.267, -207341746732.0317, 0.0, 0.0, 0.0, 5.199227130050527e-23, -207341746732.03244, 11317101444.418434, 0.0, 0.0, 0.0, -4.209915589382604e-24, 0.0, 0.0, 4.999748607289883e-07, 1.7624675815161598e-28, 5.512244442366843e-25, 0.0, 0.0, 0.0, 1.7624675815161602e-28, 4.999748607359064e-07, -3.267334727433962e-34, 0.0, 0.0, 0.0, 5.512244442366844e-25, 3.267334653614979e-34, 4.999748607359064e-07, 0.0, 5.199227130050526e-23, -4.2099155893826035e-24, 0.0, 0.0, 0.0, 9.999979890134093e-10]
twist: 
  twist: 
    linear: 
      x: -3.25109861313e-09
      y: 0.0
      z: 0.0
    angular: 
      x: 0.0
      y: 0.0
      z: 0.0399999999996
  covariance: [0.010982802702783841, 0.0, 0.0, 0.0, 0.0, 0.0, 0.0, 28457314.91928125, 0.0, 0.0, 0.0, 0.0, 0.0, 0.0, 4.999974858095775e-07, 1.88665408635803e-35, 1.526536946092494e-36, 0.0, 0.0, 0.0, 1.8866540863580308e-35, 4.999748607053818e-07, 3.457915815308209e-39, 0.0, 0.0, 0.0, 1.526536946092494e-36, -3.4584710117187176e-39, 4.999748607053818e-07, 0.0, 0.0, 0.0, 0.0, 0.0, 0.0, 9.999998994470908e-10]
---
header: 
  seq: 9487
  stamp: 
    secs: 1518208847
    nsecs: 835004091
  frame_id: "swarmone/map"
child_frame_id: "swarmone/base_link"
pose: 
  pose: 
    position: 
      x: 0.496018425818
      y: 6.07919496013
      z: 0.0
    orientation: 
      x: 0.0
      y: 0.0
      z: 0.674287914582
      w: 0.738468556033
  covariance: [3805536496004.9756, -207488291975.39606, 0.0, 0.0, 0.0, 5.865560480173541e-23, -207488291975.39676, 11327073502.836554, 0.0, 0.0, 0.0, -5.340356402008899e-24, 0.0, 0.0, 4.99975116185633e-07, 2.235730964310298e-28, 6.161040442218608e-25, 0.0, 0.0, 0.0, 2.2357309643102967e-28, 4.999751161924008e-07, -2.5607887933642056e-34, 0.0, 0.0, 0.0, 6.161040442218604e-25, 2.5607886810360985e-34, 4.999751161924008e-07, 0.0, 5.86556048017354e-23, -5.340356402008899e-24, 0.0, 0.0, 0.0, 9.999980094480595e-10]
twist: 
  twist: 
    linear: 
      x: -3.68458152896e-09
      y: 0.0
      z: 0.0
    angular: 
      x: 0.0
      y: 0.0
      z: 0.0399999999999
  covariance: [0.01110629030610328, 0.0, 0.0, 0.0, 0.0, 0.0, 0.0, 28466357.584239095, 0.0, 0.0, 0.0, 0.0, 0.0, 0.0, 4.999975113605223e-07, 2.061208593177998e-35, 1.875203813750309e-36, 0.0, 0.0, 0.0, 2.0612085931779956e-35, 4.999751161620256e-07, -1.996659638888934e-38, 0.0, 0.0, 0.0, 1.8752038137503082e-36, 1.9965824645906579e-38, 4.999751161620256e-07, 0.0, 0.0, 0.0, 0.0, 0.0, 0.0, 9.999999004688311e-10]
---
header: 
  seq: 9488
  stamp: 
    secs: 1518208847
    nsecs: 934540033
  frame_id: "swarmone/map"
child_frame_id: "swarmone/base_link"
pose: 
  pose: 
    position: 
      x: 0.496018425791
      y: 6.07919495984
      z: 0.0
    orientation: 
      x: 0.0
      y: 0.0
      z: 0.677971806011
      w: 0.735087906481
  covariance: [3807534729093.5835, -207633544858.20233, 0.0, 0.0, 0.0, 5.10742616364415e-23, -207633544858.20303, 11336958787.947859, 0.0, 0.0, 0.0, -4.650108098475612e-24, 0.0, 0.0, 4.999748824615578e-07, 1.9685756077855716e-28, 5.475589146804525e-25, 0.0, 0.0, 0.0, 1.9685756077855719e-28, 4.999748824683595e-07, -1.304613936665704e-34, 0.0, 0.0, 0.0, 5.475589146804524e-25, 1.3046138478285712e-34, 4.999748824683595e-07, 0.0, 5.107426163644151e-23, -4.650108098475613e-24, 0.0, 0.0, 0.0, 9.999979907465959e-10]
twist: 
  twist: 
    linear: 
      x: -3.23793087265e-09
      y: 0.0
      z: 0.0
    angular: 
      x: 0.0
      y: 0.0
      z: 0.0400000000002
  covariance: [0.010993205996126638, 0.0, 0.0, 0.0, 0.0, 0.0, 0.0, 28475317.978418402, 0.0, 0.0, 0.0, 0.0, 0.0, 0.0, 4.999974879838995e-07, 1.82406416036368e-35, 1.6594858626820007e-36, 0.0, 0.0, 0.0, 1.824064160363679e-35, 4.999748824379711e-07, 1.428335245306523e-38, 0.0, 0.0, 0.0, 1.6594858626820004e-36, -1.4284003971205356e-38, 4.999748824379711e-07, 0.0, 0.0, 0.0, 0.0, 0.0, 0.0, 9.999998995337983e-10]
---
header: 
  seq: 9489
  stamp: 
    secs: 1518208848
    nsecs:  35005569
  frame_id: "swarmone/map"
child_frame_id: "swarmone/base_link"
pose: 
  pose: 
    position: 
      x: 0.49601842577
      y: 6.07919495958
      z: 0.0
    orientation: 
      x: 0.0
      y: 0.0
      z: 0.677971813396
      w: 0.73508789967
  covariance: [3809554211574.108, -207770179062.63437, 0.0, 0.0, 0.0, 4.7764382484089837e-23, -207770179062.63504, 11345845215.527584, 0.0, 0.0, 0.0, -3.867575344397731e-24, 0.0, 0.0, 4.999751146150893e-07, 1.5507915908989237e-28, 4.80142275735899e-25, 0.0, 0.0, 0.0, 1.5507915908989242e-28, 4.999751146222277e-07, 2.561378182320634e-34, 0.0, 0.0, 0.0, 4.80142275735899e-25, -2.5613782393853512e-34, 4.999751146222277e-07, 0.0, 4.776438248408984e-23, -3.867575344397732e-24, 0.0, 0.0, 0.0, 9.999980093432183e-10]
twist: 
  twist: 
    linear: 
      x: -2.79669233556e-09
      y: 0.0
      z: 0.0
    angular: 
      x: 0.0
      y: 0.0
      z: 0.0399999999999
  covariance: [0.011105515577405536, 0.0, 0.0, 0.0, 0.0, 0.0, 0.0, 28484363.96277169, 0.0, 0.0, 0.0, 0.0, 0.0, 0.0, 4.999975112011146e-07, 1.7934534775773874e-35, 1.4511868884380922e-36, 0.0, 0.0, 0.0, 1.793453477577387e-35, 4.999751145914073e-07, -2.8144931212716316e-38, 0.0, 0.0, 0.0, 1.4511868884380927e-36, 2.814433057113384e-38, 4.999751145914073e-07, 0.0, 0.0, 0.0, 0.0, 0.0, 0.0, 9.999999004633982e-10]
---
header: 
  seq: 9490
  stamp: 
    secs: 1518208848
    nsecs: 134919643
  frame_id: "swarmone/map"
child_frame_id: "swarmone/base_link"
pose: 
  pose: 
    position: 
      x: 0.496018425743
      y: 6.07919495924
      z: 0.0
    orientation: 
      x: 0.0
      y: 0.0
      z: 0.681638755627
      w: 0.731688872969
  covariance: [3811563458316.6987, -207906128187.75116, 0.0, 0.0, 0.0, 5.414980013615847e-23, -207906128187.75186, 11354687809.426403, 0.0, 0.0, 0.0, -4.384613347325718e-24, 0.0, 0.0, 4.999749773102902e-07, 1.7768015596966798e-28, 5.531409259089556e-25, 0.0, 0.0, 0.0, 1.7768015596966796e-28, 4.99974977317416e-07, 1.8259820909888597e-38, 0.0, 0.0, 0.0, 5.531409259089558e-25, -1.8267329197190415e-38, 4.99974977317416e-07, 0.0, 5.414980013615849e-23, -4.38461334732572e-24, 0.0, 0.0, 0.0, 9.999979983547759e-10]
twist: 
  twist: 
    linear: 
      x: -3.23473776207e-09
      y: 0.0
      z: 0.0
    angular: 
      x: 0.0
      y: 0.0
      z: 0.0400000000002
  covariance: [0.01103883417484812, 0.0, 0.0, 0.0, 0.0, 0.0, 0.0, 28493362.192962818, 0.0, 0.0, 0.0, 0.0, 0.0, 0.0, 4.999974974683513e-07, 2.0326385617276562e-35, 1.644719856700542e-36, 0.0, 0.0, 0.0, 2.0326385617276554e-35, 4.999749772866265e-07, 5.0424519938902974e-39, 0.0, 0.0, 0.0, 1.6447198567005414e-36, -5.0431698550022236e-39, 4.999749772866265e-07, 0.0, 0.0, 0.0, 0.0, 0.0, 0.0, 9.999998999140196e-10]
---
header: 
  seq: 9491
  stamp: 
    secs: 1518208848
    nsecs: 234285116
  frame_id: "swarmone/map"
child_frame_id: "swarmone/base_link"
pose: 
  pose: 
    position: 
      x: 0.496018425725
      y: 6.07919495898
      z: 0.0
    orientation: 
      x: 0.0
      y: 0.0
      z: 0.677971820793
      w: 0.735087892847
  covariance: [3813564032035.0454, -208031435840.5737, 0.0, 0.0, 0.0, 4.709868021739522e-23, -208031435840.57443, 11362399461.239948, 0.0, 0.0, 0.0, -3.339965639652516e-24, 0.0, 0.0, 4.999748391520509e-07, 1.353475191486126e-28, 4.833949223566242e-25, 0.0, 0.0, 0.0, 1.3534751914861258e-28, 4.999748391592631e-07, -2.618399634993275e-34, 0.0, 0.0, 0.0, 4.833949223566242e-25, 2.6183995857653923e-34, 4.999748391592631e-07, 0.0, 4.709868021739521e-23, -3.3399656396525156e-24, 0.0, 0.0, 0.0, 9.999979873032802e-10]
twist: 
  twist: 
    linear: 
      x: -2.79300544982e-09
      y: 0.0
      z: 0.0
    angular: 
      x: 0.0
      y: 0.0
      z: 0.0399999999995
  covariance: [0.010972471693097806, 0.0, 0.0, 0.0, 0.0, 0.0, 0.0, 28502312.895562563, 0.0, 0.0, 0.0, 0.0, 0.0, 0.0, 4.999974836496429e-07, 1.78779760082324e-35, 1.2669369555553478e-36, 0.0, 0.0, 0.0, 1.787797600823239e-35, 4.999748391283877e-07, 7.762310881111652e-39, 0.0, 0.0, 0.0, 1.2669369555553474e-36, -7.762750132786799e-39, 4.999748391283877e-07, 0.0, 0.0, 0.0, 0.0, 0.0, 0.0, 9.999998993614406e-10]
---
header: 
  seq: 9492
  stamp: 
    secs: 1518208848
    nsecs: 334815741
  frame_id: "swarmone/map"
child_frame_id: "swarmone/base_link"
pose: 
  pose: 
    position: 
      x: 0.496018425722
      y: 6.07919495895
      z: 0.0
    orientation: 
      x: 0.0
      y: 0.0
      z: 0.681638755673
      w: 0.731688872927
  covariance: [3815587381096.568, -208168351241.09033, 0.0, 0.0, 0.0, 1.9137929546708085e-23, -208168351241.09106, 11371306077.920193, 0.0, 0.0, 0.0, -1.549633408623426e-24, 0.0, 0.0, 4.999751307278887e-07, 6.213676704832607e-29, 1.9225833559065277e-25, 0.0, 0.0, 0.0, 6.213676704832605e-29, 4.999751307350181e-07, -6.396270778482257e-35, 0.0, 0.0, 0.0, 1.9225833559065277e-25, 6.396270689360276e-35, 4.999751307350181e-07, 0.0, 1.9137929546708088e-23, -1.5496334086234257e-24, 0.0, 0.0, 0.0, 9.999980106321024e-10]
twist: 
  twist: 
    linear: 
      x: -1.0418070012e-09
      y: 0.0
      z: 0.0
    angular: 
      x: 0.0
      y: 0.0
      z: 0.0799999960213
  covariance: [0.011113376194275684, 0.0, 0.0, 0.0, 0.0, 0.0, 0.0, 28511370.460761793, 0.0, 0.0, 0.0, 0.0, 0.0, 0.0, 4.999975128127288e-07, 7.596786882244573e-36, 6.147226841902248e-37, 0.0, 0.0, 0.0, 7.596786882244573e-36, 4.999751307042066e-07, 1.0547752518626226e-39, 0.0, 0.0, 0.0, 6.147226841902248e-37, -1.0549434375791193e-39, 4.999751307042066e-07, 0.0, 0.0, 0.0, 0.0, 0.0, 0.0, 9.999999005278428e-10]
---
header: 
  seq: 9493
  stamp: 
    secs: 1518208848
    nsecs: 435289145
  frame_id: "swarmone/map"
child_frame_id: "swarmone/base_link"
pose: 
  pose: 
    position: 
      x: 0.496018425691
      y: 6.07919495852
      z: 0.0
    orientation: 
      x: 0.0
      y: 0.0
      z: 0.681638765876
      w: 0.731688863421
  covariance: [3817611973290.848, -208295174860.7282, 0.0, 0.0, 0.0, 5.1983478417528557e-23, -208295174860.72894, 11379111972.753757, 0.0, 0.0, 0.0, -3.686334517839667e-24, 0.0, 0.0, 4.999751167761393e-07, 3.0865379397100002e-28, 5.473021416898017e-25, 0.0, 0.0, 0.0, 3.0865379397100002e-28, 4.999751167964543e-07, 1.2803942501654187e-34, 0.0, 0.0, 0.0, 5.473021416898016e-25, -1.280394386866135e-34, 4.999751167964543e-07, 0.0, 5.198347841752856e-23, -3.686334517839667e-24, 0.0, 0.0, 0.0, 9.999980094952954e-10]
twist: 
  twist: 
    linear: 
      x: -3.24632834232e-09
      y: 0.0
      z: 0.0
    angular: 
      x: 0.0
      y: 0.0
      z: 0.0400000039809
  covariance: [0.01110662196189679, 0.0, 0.0, 0.0, 0.0, 0.0, 0.0, 28520424.78759369, 0.0, 0.0, 0.0, 0.0, 0.0, 0.0, 4.99997511419585e-07, 1.8517359170942276e-35, 1.3111875840554765e-36, 0.0, 0.0, 0.0, 1.8517359170942262e-35, 4.999751167525319e-07, 1.9386073137164324e-38, 0.0, 0.0, 0.0, 1.3111875840554768e-36, -1.938655245138075e-38, 4.999751167525319e-07, 0.0, 0.0, 0.0, 0.0, 0.0, 0.0, 9.999999004711927e-10]
---
header: 
  seq: 9494
  stamp: 
    secs: 1518208848
    nsecs: 534807205
  frame_id: "swarmone/map"
child_frame_id: "swarmone/base_link"
pose: 
  pose: 
    position: 
      x: 0.4960184257
      y: 6.07919495863
      z: 0.0
    orientation: 
      x: 0.0
      y: 0.0
      z: 0.674287929422
      w: 0.738468542482
  covariance: [3819618161199.452, -208420850813.9038, 0.0, 0.0, 0.0, 4.6709647836150496e-24, -208420850813.90454, 11386847627.225183, 0.0, 0.0, 0.0, -3.3123766569680186e-25, 0.0, 0.0, 4.999748778944102e-07, 1.386839300777133e-29, 4.9455076610319286e-26, 0.0, 0.0, 0.0, 1.3868393007771345e-29, 4.999748779013294e-07, 1.3050082326153633e-34, 0.0, 0.0, 0.0, 4.945507661031929e-26, -1.3050082331614544e-34, 4.999748779013294e-07, 0.0, 4.6709647836150496e-24, -3.3123766569680186e-25, 0.0, 0.0, 0.0, 9.99997990386516e-10]
twist: 
  twist: 
    linear: 
      x: -1.78356844988e-10
      y: 0.0
      z: 0.0
    angular: 
      x: 0.0
      y: 0.0
      z: 0.0399999999992
  covariance: [0.010991049530902595, 0.0, 0.0, 0.0, 0.0, 0.0, 0.0, 28529394.91155327, 0.0, 0.0, 0.0, 0.0, 0.0, 0.0, 4.999974875264763e-07, 2.2549689534727648e-36, 1.5982139997087276e-37, 0.0, 0.0, 0.0, 2.254968953472765e-36, 4.999748778708038e-07, 8.516745552241718e-40, 0.0, 0.0, 0.0, 1.598213999708728e-37, -8.516745552455559e-40, 4.999748778708038e-07, 0.0, 0.0, 0.0, 0.0, 0.0, 0.0, 9.999998995157466e-10]
---
header: 
  seq: 9495
  stamp: 
    secs: 1518208848
    nsecs: 635301113
  frame_id: "swarmone/map"
child_frame_id: "swarmone/base_link"
pose: 
  pose: 
    position: 
      x: 0.496018425664
      y: 6.07919495822
      z: 0.0
    orientation: 
      x: 0.0
      y: 0.0
      z: 0.674287914582
      w: 0.738468556032
  covariance: [3821641596322.4614, -208567982392.46494, 0.0, 0.0, 0.0, 4.46451067930958e-23, -208567982392.46567, 11396866101.705284, 0.0, 0.0, 0.0, -4.064757160194404e-24, 0.0, 0.0, 4.999751219061416e-07, 1.7207592167266347e-28, 4.740837844517776e-25, 0.0, 0.0, 0.0, 1.720759216726634e-28, 4.999751219128138e-07, 2.559619941940451e-34, 0.0, 0.0, 0.0, 4.7408378445177775e-25, -2.5596200047459966e-34, 4.999751219128138e-07, 0.0, 4.46451067930958e-23, -4.064757160194404e-24, 0.0, 0.0, 0.0, 9.999980099004814e-10]
twist: 
  twist: 
    linear: 
      x: -2.8268044406e-09
      y: 0.0
      z: 0.0
    angular: 
      x: 0.0
      y: 0.0
      z: 0.0399999999999
  covariance: [0.01110912372327002, 0.0, 0.0, 0.0, 0.0, 0.0, 0.0, 28538454.902515694, 0.0, 0.0, 0.0, 0.0, 0.0, 0.0, 4.999975119332927e-07, 1.5556189682288233e-35, 1.4152033224160444e-36, 0.0, 0.0, 0.0, 1.555618968228824e-35, 4.999751218825541e-07, -5.132632959286463e-39, 0.0, 0.0, 0.0, 1.4152033224160439e-36, 5.1321753013193824e-39, 4.999751218825541e-07, 0.0, 0.0, 0.0, 0.0, 0.0, 0.0, 9.999999004915e-10]
---
header: 
  seq: 9496
  stamp: 
    secs: 1518208848
    nsecs: 734544992
  frame_id: "swarmone/map"
child_frame_id: "swarmone/base_link"
pose: 
  pose: 
    position: 
      x: 0.496018425612
      y: 6.07919495764
      z: 0.0
    orientation: 
      x: 0.0
      y: 0.0
      z: 0.677971805989
      w: 0.735087906501
  covariance: [3823640703568.106, -208713355206.97375, 0.0, 0.0, 0.0, 8.250532384626142e-23, -208713355206.97452, 11406765982.024088, 0.0, 0.0, 0.0, -7.511777952528934e-24, 0.0, 0.0, 4.999748083234776e-07, 3.0440311783006937e-28, 8.49187432865787e-25, 0.0, 0.0, 0.0, 3.0440311783006946e-28, 4.999748083306846e-07, 1.3122486493183928e-34, 0.0, 0.0, 0.0, 8.491874328657867e-25, -1.3122488526901212e-34, 4.999748083306846e-07, 0.0, 8.25053238462614e-23, -7.511777952528934e-24, 0.0, 0.0, 0.0, 9.999979848372548e-10]
twist: 
  twist: 
    linear: 
      x: -5.0122815091e-09
      y: 0.0
      z: 0.0
    angular: 
      x: 0.0
      y: 0.0
      z: 0.0400000000002
  covariance: [0.010957810126813298, 0.0, 0.0, 0.0, 0.0, 0.0, 0.0, 28547404.07987651, 0.0, 0.0, 0.0, 0.0, 0.0, 0.0, 4.999974805661399e-07, 3.092815193373213e-35, 2.8139157748479502e-36, 0.0, 0.0, 0.0, 3.0928151933732123e-35, 4.999748082998147e-07, 1.8979028929195267e-38, 0.0, 0.0, 0.0, 2.8139157748479506e-36, -1.8980579982517597e-38, 4.999748082998147e-07, 0.0, 0.0, 0.0, 0.0, 0.0, 0.0, 9.999998992381381e-10]
---
header: 
  seq: 9497
  stamp: 
    secs: 1518208848
    nsecs: 834480762
  frame_id: "swarmone/map"
child_frame_id: "swarmone/base_link"
pose: 
  pose: 
    position: 
      x: 0.496018425563
      y: 6.07919495704
      z: 0.0
    orientation: 
      x: 0.0
      y: 0.0
      z: 0.677971813396
      w: 0.73508789967
  covariance: [3825656326004.7217, -208849785104.0998, 0.0, 0.0, 0.0, 9.513646676091629e-23, -208849785104.10056, 11415644630.457136, 0.0, 0.0, 0.0, -7.703386992059366e-24, 0.0, 0.0, 4.999749827966732e-07, 3.1553103481772188e-28, 9.820731078173763e-25, 0.0, 0.0, 0.0, 3.1553103481772183e-28, 4.999749828037068e-07, -6.47090212184851e-35, 0.0, 0.0, 0.0, 9.820731078173763e-25, 6.47089961912141e-35, 4.999749828037068e-07, 0.0, 9.51364667609163e-23, -7.703386992059364e-24, 0.0, 0.0, 0.0, 9.999979987883939e-10]
twist: 
  twist: 
    linear: 
      x: -5.86808193519e-09
      y: 0.0
      z: 0.0
    angular: 
      x: 0.0
      y: 0.0
      z: 0.0300000010005
