header: 
  seq: 7413
  stamp: 
    secs: 1518210203
    nsecs: 815209389
  frame_id: "swarmone/map"
child_frame_id: "swarmone/base_link"
pose: 
  pose: 
    position: 
      x: 1.45843221638
      y: 5.99168042095
      z: 0.0
    orientation: 
      x: 0.0
      y: 0.0
      z: 0.717398373814
      w: 0.696663170584
  covariance: [1.8347298537327348, 0.017848582146478355, 0.0, 0.0, 0.0, 1.9397516909335532e-13, 0.01784858214647837, 1.0580921969605859, 0.0, 0.0, 0.0, -6.843441386313757e-12, 0.0, 0.0, 9.96706711636355e-07, 7.742586273299565e-16, 4.662315758222277e-21, 0.0, 0.0, 0.0, 7.742586273299569e-16, 9.967067133566875e-07, -1.1012430196091738e-27, 0.0, 0.0, 0.0, 4.662315758222277e-21, -1.1012380919877966e-27, 9.967067133566875e-07, 0.0, 1.939751690933554e-13, -6.843441386313756e-12, 0.0, 0.0, 0.0, 1.5175164171578407e-05]
twist: 
  twist: 
    linear: 
      x: -2.22997151343e-07
      y: 0.0353068884204
      z: 0.0
    angular: 
      x: 0.0
      y: 0.0
      z: 0.0400000010018
  covariance: [0.00030293579527597176, -3.6246216509560074e-08, 0.0, 0.0, 0.0, 1.7399185993684163e-24, -3.624621650956015e-08, 1.2524862552487197, 0.0, 0.0, 0.0, 4.537910826536459e-21, 0.0, 0.0, 9.996690658507354e-07, -1.1433378217739614e-28, -3.914754653519097e-27, 0.0, 0.0, 0.0, -1.1433378217739611e-28, 9.967067115432279e-07, -1.539927421913724e-34, 0.0, 0.0, 0.0, -3.9147546535190974e-27, -1.548275182147934e-34, 9.967067115432279e-07, 0.0, 1.7399185993684163e-24, 4.53791082653645e-21, 0.0, 0.0, 0.0, 0.00030348400933827876]
---
header: 
  seq: 7414
  stamp: 
    secs: 1518210203
    nsecs: 912790298
  frame_id: "swarmone/map"
child_frame_id: "swarmone/base_link"
pose: 
  pose: 
    position: 
      x: 1.45498614517
      y: 5.99158063217
      z: 0.0
    orientation: 
      x: 0.0
      y: 0.0
      z: 0.713863774905
      w: 0.700284592775
  covariance: [2.0809990654628567, 0.023186602220897676, 0.0, 0.0, 0.0, 3.0543699103556528e-15, 0.02318660222089769, 1.1362789635807307, 0.0, 0.0, 0.0, -1.0392682835515818e-13, 0.0, 0.0, 6.695147102980007e-07, 2.945847576917827e-14, 6.1900230783456774e-18, 0.0, 0.0, 0.0, 2.945847576917827e-14, 6.69514760283894e-07, -5.518380019436496e-25, 0.0, 0.0, 0.0, 6.1900230783456774e-18, -5.5183792301307455e-25, 6.695147602838967e-07, 0.0, 3.0543699103556536e-15, -1.039268283551582e-13, 0.0, 0.0, 0.0, 7.729394333569437e-08]
twist: 
  twist: 
    linear: 
      x: -6.67969058192e-13
      y: 0.0353527746588
      z: 0.0
    angular: 
      x: 0.0
      y: 0.0
      z: 0.0300000009126
  covariance: [9.999999100840056e-10, -1.1029034055323299e-13, 0.0, 0.0, 0.0, -1.5450130402329823e-31, -1.1029034055323319e-13, 1.3604570002259289, 0.0, 0.0, 0.0, -1.3752545238009279e-22, 0.0, 0.0, 9.40329808486691e-07, -6.422055025132885e-28, -3.3807373680916654e-26, 0.0, 0.0, 0.0, -6.422055025132883e-28, 6.69514710280812e-07, -3.163092610421568e-34, 0.0, 0.0, 0.0, -3.3807373680916654e-26, -3.006982502875124e-34, 6.69514710280812e-07, 0.0, -1.545013040232982e-31, -1.3752545238009258e-22, 0.0, 0.0, 0.0, 1.5268789061505799e-06]
---
header: 
  seq: 7415
  stamp: 
    secs: 1518210204
    nsecs:  12639046
  frame_id: "swarmone/map"
child_frame_id: "swarmone/base_link"
pose: 
  pose: 
    position: 
      x: 1.45145452477
      y: 5.99151266028
      z: 0.0
    orientation: 
      x: 0.0
      y: 0.0
      z: 0.713863854138
      w: 0.700284512006
  covariance: [2.3675994997543275, 0.02809462656544964, 0.0, 0.0, 0.0, 2.2667938850767343e-17, 0.028094626565449657, 1.2162607346677512, 0.0, 0.0, 0.0, -1.171315577873633e-15, 0.0, 0.0, 6.93653021770628e-07, 2.930593838732542e-14, 5.5213028832060015e-18, 0.0, 0.0, 0.0, 2.9305938387325425e-14, 6.936530879841859e-07, -5.282020598567099e-25, 0.0, 0.0, 0.0, 5.521302883206002e-18, -5.282020822723097e-25, 6.936530879841886e-07, 0.0, 2.2667938850767346e-17, -1.1713155778736334e-15, 0.0, 0.0, 0.0, 8.9214872264881e-08]
twist: 
  twist: 
    linear: 
      x: -6.04772899003e-13
      y: 0.0353997274697
      z: 0.0
    angular: 
      x: 0.0
      y: 0.0
      z: 0.0399999989984
  covariance: [9.999999093228715e-10, -1.0144734387625514e-13, 0.0, 0.0, 0.0, -1.5462583214601241e-38, -1.014473438762553e-13, 1.4775851877134805, 0.0, 0.0, 0.0, -1.55911862379484e-29, 0.0, 0.0, 9.477615084143524e-07, -6.938683008582601e-28, -3.648564337511894e-26, 0.0, 0.0, 0.0, -6.938683008582602e-28, 6.936530217519391e-07, -3.900566640076917e-34, 0.0, 0.0, 0.0, -3.648564337511893e-26, -3.864213499809584e-34, 6.936530217519391e-07, 0.0, -1.5462583214601244e-38, -1.5591186237948383e-29, 0.0, 0.0, 0.0, 1.7652974852514086e-06]
---
header: 
  seq: 7416
  stamp: 
    secs: 1518210204
    nsecs: 112124920
  frame_id: "swarmone/map"
child_frame_id: "swarmone/base_link"
pose: 
  pose: 
    position: 
      x: 1.44766309902
      y: 5.98358657325
      z: 0.0
    orientation: 
      x: 0.0
      y: 0.0
      z: 0.710353983654
      w: 0.703844597839
  covariance: [1.9461439653247765, 0.02083712890556008, 0.0, 0.0, 0.0, 1.8769892629270736e-14, 0.020837128905560102, 1.094701059657868, 0.0, 0.0, 0.0, -8.726325149159419e-13, 0.0, 0.0, 8.457478878594051e-07, 2.113169878985322e-14, 4.667879754130593e-18, 0.0, 0.0, 0.0, 2.1131698789853217e-14, 8.457479352763745e-07, -6.395089650224406e-25, 0.0, 0.0, 0.0, 4.667879754130591e-18, -6.3950892529126065e-25, 8.457479352763775e-07, 0.0, 1.8769892629270733e-14, -8.72632514915942e-13, 0.0, 0.0, 0.0, 2.5014741317315327e-07]
twist: 
  twist: 
    linear: 
      x: -7.16249864188e-13
      y: 0.0356494895375
      z: 0.0
    angular: 
      x: 0.0
      y: 0.0
      z: 0.0399999993129
  covariance: [9.999999090604244e-10, -1.1855690598193111e-13, 0.0, 0.0, 0.0, -2.876070401591736e-29, -1.1855690598193144e-13, 1.302567903893908, 0.0, 0.0, 0.0, -7.705013579575602e-21, 0.0, 0.0, 9.805180171726088e-07, -3.538939717338121e-28, -3.94059564728151e-26, 0.0, 0.0, 0.0, -3.538939717338119e-28, 8.457478878272454e-07, -4.036298333456827e-34, 0.0, 0.0, 0.0, -3.940595647281508e-26, -3.6535710135534312e-34, 8.457478878272454e-07, 0.0, -2.876070401591736e-29, -7.705013579575575e-21, 0.0, 0.0, 0.0, 4.983948303120894e-06]
---
header: 
  seq: 7417
  stamp: 
    secs: 1518210204
    nsecs: 212319136
  frame_id: "swarmone/map"
child_frame_id: "swarmone/base_link"
pose: 
  pose: 
    position: 
      x: 1.44408869834
      y: 5.98355347999
      z: 0.0
    orientation: 
      x: 0.0
      y: 0.0
      z: 0.713863821138
      w: 0.700284545646
  covariance: [2.2153123345995156, 0.023987779286419136, 0.0, 0.0, 0.0, 2.7538136791665978e-17, 0.023987779286419163, 1.1749104940092048, 0.0, 0.0, 0.0, -2.3471523323431767e-15, 0.0, 0.0, 6.746420225378432e-07, 2.973524764746842e-14, 5.968746280092115e-18, 0.0, 0.0, 0.0, 2.9735247647468416e-14, 6.746420891514569e-07, -5.455313661265399e-25, 0.0, 0.0, 0.0, 5.968746280092117e-18, -5.455312456009654e-25, 6.746420891514595e-07, 0.0, 2.7538136791665984e-17, -2.347152332343177e-15, 0.0, 0.0, 0.0, 7.967812910852604e-08]
twist: 
  twist: 
    linear: 
      x: -6.47597985267e-13
      y: 0.0357029786735
      z: 0.0
    angular: 
      x: 0.0
      y: 0.0
      z: 0.0400000000006
  covariance: [9.999999096396577e-10, -1.0892704220872271e-13, 0.0, 0.0, 0.0, -2.6988789432918217e-36, -1.0892704220872301e-13, 1.4166278837496455, 0.0, 0.0, 0.0, -8.14458895773558e-28, 0.0, 0.0, 9.419806317462478e-07, -6.602152802051449e-28, -3.473815695283558e-26, 0.0, 0.0, 0.0, -6.602152802051452e-28, 6.746420225203688e-07, -3.2324076093976956e-34, 0.0, 0.0, 0.0, -3.47381569528356e-26, -3.4222788892556154e-34, 6.746420225203688e-07, 0.0, -2.6988789432918227e-36, -8.144588957735555e-28, 0.0, 0.0, 0.0, 1.5745626219705405e-06]
---
header: 
  seq: 7418
  stamp: 
    secs: 1518210204
    nsecs: 314940691
  frame_id: "swarmone/map"
child_frame_id: "swarmone/base_link"
pose: 
  pose: 
    position: 
      x: 1.43734368467
      y: 5.97548228116
      z: 0.0
    orientation: 
      x: 0.0
      y: 0.0
      z: 0.713892365315
      w: 0.70025544678
  covariance: [1.8291821585152837, 0.017767337861778185, 0.0, 0.0, 0.0, 3.8743764002769594e-13, 0.017767337861778185, 1.0561700645812822, 0.0, 0.0, 0.0, -1.9633098768354684e-11, 0.0, 0.0, 9.96306943684479e-07, 1.1050534671395993e-15, 4.201301824534258e-21, 0.0, 0.0, 0.0, 1.105053467139599e-15, 9.963069455244584e-07, -1.2644481348577808e-27, 0.0, 0.0, 0.0, 4.201301824534258e-21, -1.2644515783946755e-27, 9.963069455244586e-07, 0.0, 3.874376400276962e-13, -1.963309876835468e-11, 0.0, 0.0, 0.0, 1.368983772996759e-05]
twist: 
  twist: 
    linear: 
      x: -2.06021279188e-07
      y: 0.0377693123741
      z: 0.0
    angular: 
      x: 0.0
      y: 0.0
      z: 0.0300000010009
  covariance: [0.00026969363796486664, -3.273582182486052e-08, 0.0, 0.0, 0.0, 4.51745205635357e-24, -3.273582182486065e-08, 1.2508932847741154, 0.0, 0.0, 0.0, 4.974306023599515e-21, 0.0, 0.0, 9.996284380908375e-07, -1.5903450912145277e-28, -8.281472802448872e-27, 0.0, 0.0, 0.0, -1.5903450912145277e-28, 9.963069435874764e-07, -3.7272056262331298e-34, 0.0, 0.0, 0.0, -8.281472802448874e-27, -3.724572755608758e-34, 9.963069435874764e-07, 0.0, 4.517452056353568e-24, 4.974306023599482e-21, 0.0, 0.0, 0.0, 0.0002737770543822241]
---
header: 
  seq: 7419
  stamp: 
    secs: 1518210204
    nsecs: 412492275
  frame_id: "swarmone/map"
child_frame_id: "swarmone/base_link"
pose: 
  pose: 
    position: 
      x: 1.4336545404
      y: 5.97541126247
      z: 0.0
    orientation: 
      x: 0.0
      y: 0.0
      z: 0.713864085368
      w: 0.700284276292
  covariance: [2.0748476140672367, 0.02178901639093496, 0.0, 0.0, 0.0, 1.9776781715494697e-15, 0.021789016390934966, 1.1342952803884092, 0.0, 0.0, 0.0, -1.0198007484447935e-13, 0.0, 0.0, 8.34813656979083e-07, 2.3533046519999475e-14, 4.7702135098037174e-18, 0.0, 0.0, 0.0, 2.353304651999947e-14, 8.348136942458275e-07, -6.795979337709707e-25, 0.0, 0.0, 0.0, 4.770213509803717e-18, -6.795979877467124e-25, 8.348136942458309e-07, 0.0, 1.9776781715494705e-15, -1.0198007484447933e-13, 0.0, 0.0, 0.0, 2.2868974105897587e-07]
twist: 
  twist: 
    linear: 
      x: -6.93202402625e-13
      y: 0.0378794432975
      z: 0.0
    angular: 
      x: 0.0
      y: 0.0
      z: 0.0299999999841
  covariance: [9.999999097278833e-10, -1.1188166307321e-13, 0.0, 0.0, 0.0, -4.044294864176992e-31, -1.1188166307321052e-13, 1.3587448705480007, 0.0, 0.0, 0.0, -1.351655377923678e-22, 0.0, 0.0, 9.787405683267786e-07, -8.13916883246248e-28, -4.283038641661964e-26, 0.0, 0.0, 0.0, -8.13916883246248e-28, 8.348136569480336e-07, -8.977046005873584e-34, 0.0, 0.0, 0.0, -4.2830386416619626e-26, -9.016550906916204e-34, 8.348136569480336e-07, 0.0, -4.044294864176988e-31, -1.3516553779236695e-22, 0.0, 0.0, 0.0, 4.5547948607400734e-06]
---
header: 
  seq: 7420
  stamp: 
    secs: 1518210204
    nsecs: 512058020
  frame_id: "swarmone/map"
child_frame_id: "swarmone/base_link"
pose: 
  pose: 
    position: 
      x: 1.42987814909
      y: 5.97533858525
      z: 0.0
    orientation: 
      x: 0.0
      y: 0.0
      z: 0.713863772327
      w: 0.700284595403
  covariance: [2.3599309359114597, 0.026528785337893622, 0.0, 0.0, 0.0, 4.5052167323918355e-17, 0.026528785337893622, 1.214044595809468, 0.0, 0.0, 0.0, -2.3317345973626373e-15, 0.0, 0.0, 6.746420058618478e-07, 3.1641513047066077e-14, 5.748006270338845e-18, 0.0, 0.0, 0.0, 3.164151304706608e-14, 6.746420558214761e-07, -5.590413645151137e-25, 0.0, 0.0, 0.0, 5.748006270338846e-18, -5.59041354331645e-25, 6.746420558214792e-07, 0.0, 4.505216732391837e-17, -2.3317345973626373e-15, 0.0, 0.0, 0.0, 7.967812909583132e-08]
twist: 
  twist: 
    linear: 
      x: -6.27786731664e-13
      y: 0.0379918482613
      z: 0.0
    angular: 
      x: 0.0
      y: 0.0
      z: 0.0299999999997
  covariance: [9.999999090407173e-10, -1.0292743057442851e-13, 0.0, 0.0, 0.0, -4.933889122970328e-38, -1.0292743057442891e-13, 1.4754395322894902, 0.0, 0.0, 0.0, -1.859404850638191e-29, 0.0, 0.0, 9.419806316932149e-07, -7.032345578219474e-28, -3.696503587221301e-26, 0.0, 0.0, 0.0, -7.032345578219479e-28, 6.746420058443761e-07, -3.882284319584009e-34, 0.0, 0.0, 0.0, -3.696503587221303e-26, -3.7607337526982866e-34, 6.746420058443761e-07, 0.0, -4.933889122970326e-38, -1.8594048506381792e-29, 0.0, 0.0, 0.0, 1.5745626219699065e-06]
---
header: 
  seq: 7421
  stamp: 
    secs: 1518210204
    nsecs: 612798452
  frame_id: "swarmone/map"
child_frame_id: "swarmone/base_link"
pose: 
  pose: 
    position: 
      x: 1.42351027482
      y: 5.96699970181
      z: 0.0
    orientation: 
      x: 0.0
      y: 0.0
      z: 0.713863830914
      w: 0.70028453568
  covariance: [1.942419237850466, 0.01978398688736049, 0.0, 0.0, 0.0, 2.0614526404088956e-14, 0.01978398688736049, 1.093346535488172, 0.0, 0.0, 0.0, -9.79927538325696e-13, 0.0, 0.0, 6.771432668123084e-07, 3.308675993750384e-14, 6.906744768340366e-18, 0.0, 0.0, 0.0, 3.3086759937503855e-14, 6.771433333974472e-07, -7.0798540878536465e-25, 0.0, 0.0, 0.0, 6.9067447683403656e-18, -7.079855264313373e-25, 6.771433333974505e-07, 0.0, 2.0614526404088952e-14, -9.799275383256957e-13, 0.0, 0.0, 0.0, 8.087022203378374e-08]
twist: 
  twist: 
    linear: 
      x: -7.44208559998e-13
      y: 0.0397436352178
      z: 0.0
    angular: 
      x: 0.0
      y: 0.0
      z: 0.0399999988471
  covariance: [9.999999102991673e-10, -1.161198243415813e-13, 0.0, 0.0, 0.0, -2.842844741469305e-29, -1.1611982434158187e-13, 1.3016514179760934, 0.0, 0.0, 0.0, -8.89674806800327e-21, 0.0, 0.0, 9.42772247142155e-07, -7.40662445410079e-28, -3.8987882800966887e-26, 0.0, 0.0, 0.0, -7.406624454100795e-28, 6.771432667946156e-07, -4.0752962339528524e-34, 0.0, 0.0, 0.0, -3.89878828009669e-26, -4.547220776249051e-34, 6.771432667946156e-07, 0.0, -2.8428447414693057e-29, -8.89674806800323e-21, 0.0, 0.0, 0.0, 1.5984044798799832e-06]
---
header: 
  seq: 7422
  stamp: 
    secs: 1518210204
    nsecs: 712648869
  frame_id: "swarmone/map"
child_frame_id: "swarmone/base_link"
pose: 
  pose: 
    position: 
      x: 1.41953457596
      y: 5.96692316818
      z: 0.0
    orientation: 
      x: 0.0
      y: 0.0
      z: 0.713863844821
      w: 0.700284521504
  covariance: [2.2102103428778475, 0.024213805454217203, 0.0, 0.0, 0.0, 2.556434516265131e-17, 0.0242138054542172, 1.1733170915753215, 0.0, 0.0, 0.0, -1.321184394606103e-15, 0.0, 0.0, 6.867900777088372e-07, 3.3131820520925416e-14, 6.161145860306989e-18, 0.0, 0.0, 0.0, 3.313182052092541e-14, 6.86790144116783e-07, -6.517657997738029e-25, 0.0, 0.0, 0.0, 6.161145860306988e-18, -6.517658849499663e-25, 6.867901441167865e-07, 0.0, 2.5564345162651307e-17, -1.3211843946061031e-15, 0.0, 0.0, 0.0, 8.563859357839787e-08]
twist: 
  twist: 
    linear: 
      x: -6.73059356899e-13
      y: 0.0399042174306
      z: 0.0
    angular: 
      x: 0.0
      y: 0.0
      z: 0.0399999999999
  covariance: [9.99999909299162e-10, -1.0669830823959891e-13, 0.0, 0.0, 0.0, -2.6078794949075713e-36, -1.0669830823959938e-13, 1.4152578225919799, 0.0, 0.0, 0.0, -9.216765950997013e-28, 0.0, 0.0, 9.457339169553291e-07, -7.670732163446882e-28, -4.032978865236085e-26, 0.0, 0.0, 0.0, -7.670732163446884e-28, 6.86790077690625e-07, -4.743755464771351e-34, 0.0, 0.0, 0.0, -4.032978865236086e-26, -4.593049825710074e-34, 6.86790077690625e-07, 0.0, -2.6078794949075696e-36, -9.21676595099697e-28, 0.0, 0.0, 0.0, 1.693771911520943e-06]
---
header: 
  seq: 7423
  stamp: 
    secs: 1518210204
    nsecs: 814852476
  frame_id: "swarmone/map"
child_frame_id: "swarmone/base_link"
pose: 
  pose: 
    position: 
      x: 1.41395045456
      y: 5.96013357663
      z: 0.0
    orientation: 
      x: 0.0
      y: 0.0
      z: 0.710389518202
      w: 0.703808732845
  covariance: [1.824343775031809, 0.017877072083221614, 0.0, 0.0, 0.0, 7.654970458407758e-14, 0.0178770720832216, 1.0544138873392648, 0.0, 0.0, 0.0, -6.8628061147831074e-12, 0.0, 0.0, 9.961168309714e-07, 1.0434261257306244e-15, 3.0968436282405053e-21, 0.0, 0.0, 0.0, 1.0434261257306244e-15, 9.961168330280102e-07, -8.408263251451859e-28, 0.0, 0.0, 0.0, 3.0968436282405046e-21, -8.408228997624688e-28, 9.961168330280106e-07, 0.0, 7.654970458407764e-14, -6.862806114783108e-12, 0.0, 0.0, 0.0, 1.2872037297592552e-05]
twist: 
  twist: 
    linear: 
      x: -1.94647910292e-07
      y: 0.041059193355
      z: 0.0
    angular: 
      x: 0.0
      y: 0.0
      z: 0.0399999999995
  covariance: [0.0002565325828414279, -3.10622108552574e-08, 0.0, 0.0, 0.0, 1.4822413339999743e-24, -3.1062210855257536e-08, 1.249471809318297, 0.0, 0.0, 0.0, -1.1964331095730294e-21, 0.0, 0.0, 9.996094378190819e-07, -4.9465342356146673e-29, -5.375825627204421e-27, 0.0, 0.0, 0.0, -4.9465342356146684e-29, 9.96116830878164e-07, -7.724396283946362e-35, 0.0, 0.0, 0.0, -5.375825627204421e-27, -7.719807671046874e-35, 9.96116830878164e-07, 0.0, 1.4822413339999738e-24, -1.196433109573035e-21, 0.0, 0.0, 0.0, 0.0002574215398558567]
---
header: 
  seq: 7424
  stamp: 
    secs: 1518210204
    nsecs: 912322521
  frame_id: "swarmone/map"
child_frame_id: "swarmone/base_link"
pose: 
  pose: 
    position: 
      x: 1.40993955346
      y: 5.96009546196
      z: 0.0
    orientation: 
      x: 0.0
      y: 0.0
      z: 0.713863821144
      w: 0.70028454564
  covariance: [2.0693372746485603, 0.02062227018987378, 0.0, 0.0, 0.0, 9.785235599153295e-16, 0.02062227018987377, 1.1324397083414643, 0.0, 0.0, 0.0, -1.0338667927569328e-13, 0.0, 0.0, 6.746419487547727e-07, 3.4350802016030027e-14, 6.337981444272407e-18, 0.0, 0.0, 0.0, 3.4350802016030027e-14, 6.746420153690403e-07, -6.692145284380207e-25, 0.0, 0.0, 0.0, 6.337981444272407e-18, -6.692145302386954e-25, 6.74642015369044e-07, 0.0, 9.78523559915329e-16, -1.0338667927569327e-13, 0.0, 0.0, 0.0, 7.967812911382157e-08]
twist: 
  twist: 
    linear: 
      x: -6.88589809325e-13
      y: 0.0412446714717
      z: 0.0
    angular: 
      x: 0.0
      y: 0.0
      z: 0.0400000000299
  covariance: [9.999999095165817e-10, -1.1162049261359278e-13, 0.0, 0.0, 0.0, -1.3351058292191532e-31, -1.1162049261359325e-13, 1.3571514912115874, 0.0, 0.0, 0.0, 3.1120661464595547e-23, 0.0, 0.0, 9.419806315114313e-07, -7.633592971415607e-28, -4.0131662621227076e-26, 0.0, 0.0, 0.0, -7.633592971415609e-28, 6.74641948737241e-07, -4.558642907978413e-34, 0.0, 0.0, 0.0, -4.013166262122707e-26, -4.4515406163569095e-34, 6.74641948737241e-07, 0.0, -1.3351058292191534e-31, 3.1120661464595676e-23, 0.0, 0.0, 0.0, 1.5745626219703287e-06]
---
header: 
  seq: 7425
  stamp: 
    secs: 1518210205
    nsecs:  12162924
  frame_id: "swarmone/map"
child_frame_id: "swarmone/base_link"
pose: 
  pose: 
    position: 
      x: 1.4058129489
      y: 5.96001605813
      z: 0.0
    orientation: 
      x: 0.0
      y: 0.0
      z: 0.713863831464
      w: 0.70028453512
  covariance: [2.3546882106110782, 0.02525267538343296, 0.0, 0.0, 0.0, 2.5524255157553187e-17, 0.025252675383432944, 1.2124045680864892, 0.0, 0.0, 0.0, -1.320484014906174e-15, 0.0, 0.0, 6.771464330863388e-07, 3.4494301049232054e-14, 5.723270875189803e-18, 0.0, 0.0, 0.0, 3.4494301049232054e-14, 6.771464996714647e-07, -6.11518078496607e-25, 0.0, 0.0, 0.0, 5.723270875189803e-18, -6.115179228746622e-25, 6.771464996714684e-07, 0.0, 2.5524255157553184e-17, -1.320484014906174e-15, 0.0, 0.0, 0.0, 8.087022199614775e-08]
twist: 
  twist: 
    linear: 
      x: -6.23451174042e-13
      y: 0.0414346603501
      z: 0.0
    angular: 
      x: 0.0
      y: 0.0
      z: 0.0399999999999
  covariance: [9.999999093142847e-10, -1.0266990617748644e-13, 0.0, 0.0, 0.0, -1.3626791511947472e-38, -1.026699061774869e-13, 1.4740884294232537, 0.0, 0.0, 0.0, 3.646024451322252e-30, 0.0, 0.0, 9.427722570949835e-07, -7.738894451130817e-28, -4.064532257276165e-26, 0.0, 0.0, 0.0, -7.738894451130814e-28, 6.771464330687933e-07, -4.4969794433439515e-34, 0.0, 0.0, 0.0, -4.064532257276164e-26, -4.737022951961109e-34, 6.771464330687933e-07, 0.0, -1.362679151194747e-38, 3.646024451322268e-30, 0.0, 0.0, 0.0, 1.5984044798803087e-06]
---
header: 
  seq: 7426
  stamp: 
    secs: 1518210205
    nsecs: 112565041
  frame_id: "swarmone/map"
child_frame_id: "swarmone/base_link"
pose: 
  pose: 
    position: 
      x: 1.39796949551
      y: 5.95293007574
      z: 0.0
    orientation: 
      x: 0.0
      y: 0.0
      z: 0.710353496935
      w: 0.703845089059
  covariance: [1.9385985432227035, 0.0189652835967885, 0.0, 0.0, 0.0, 2.3331000807857436e-14, 0.018965283596788472, 1.0919496996049431, 0.0, 0.0, 0.0, -1.0855918805426025e-12, 0.0, 0.0, 6.695116448220682e-07, 3.6646212040568605e-14, 6.5983728850055175e-18, 0.0, 0.0, 0.0, 3.6646212040568605e-14, 6.695117114791871e-07, -7.318628040477263e-25, 0.0, 0.0, 0.0, 6.598372885005517e-18, -7.318628777963763e-25, 6.695117114791911e-07, 0.0, 2.3331000807857436e-14, -1.0855918805426028e-12, 0.0, 0.0, 0.0, 7.72939433420395e-08]
twist: 
  twist: 
    linear: 
      x: -7.12937170847e-13
      y: 0.0439787391066
      z: 0.0
    angular: 
      x: 0.0
      y: 0.0
      z: 0.0399999993101
  covariance: [9.999999099712677e-10, -1.1398513556060384e-13, 0.0, 0.0, 0.0, -3.057699500745651e-29, -1.1398513556060427e-13, 1.3009281866017612, 0.0, 0.0, 0.0, -1.0679455243004454e-20, 0.0, 0.0, 9.403297984892082e-07, -3.7957529108008477e-28, -4.206142969379515e-26, 0.0, 0.0, 0.0, -3.7957529108008486e-28, 6.695116448048748e-07, -2.3170699870202812e-34, 0.0, 0.0, 0.0, -4.206142969379515e-26, -2.3669252576836987e-34, 6.695116448048748e-07, 0.0, -3.0576995007456517e-29, -1.0679455243004424e-20, 0.0, 0.0, 0.0, 1.526878906149172e-06]
---
header: 
  seq: 7427
  stamp: 
    secs: 1518210205
    nsecs: 212757826
  frame_id: "swarmone/map"
child_frame_id: "swarmone/base_link"
pose: 
  pose: 
    position: 
      x: 1.39355033829
      y: 5.95288923148
      z: 0.0
    orientation: 
      x: 0.0
      y: 0.0
      z: 0.710353526948
      w: 0.703845058769
  covariance: [2.2071028344520065, 0.021919432238307338, 0.0, 0.0, 0.0, 1.3784268441225418e-17, 0.021919432238307307, 1.1721544073840817, 0.0, 0.0, 0.0, -1.4748690472258296e-15, 0.0, 0.0, 6.95874327535566e-07, 3.6581398922540625e-14, 5.898536347007436e-18, 0.0, 0.0, 0.0, 3.658139892254061e-14, 6.958743936839188e-07, -7.095223753941928e-25, 0.0, 0.0, 0.0, 5.898536347007434e-18, -7.095223608601766e-25, 6.958743936839231e-07, 0.0, 1.3784268441225417e-17, -1.4748690472258296e-15, 0.0, 0.0, 0.0, 9.040696516727073e-08]
twist: 
  twist: 
    linear: 
      x: -6.44597465919e-13
      y: 0.0442380868652
      z: 0.0
    angular: 
      x: 0.0
      y: 0.0
      z: 0.0399999999999
  covariance: [9.999999096381108e-10, -1.0471804427871951e-13, 0.0, 0.0, 0.0, -2.7929971431957314e-36, -1.0471804427871991e-13, 1.4149032270886812, 0.0, 0.0, 0.0, -1.1037181003966327e-27, 0.0, 0.0, 9.484041159252263e-07, -4.148658409052108e-28, -4.5878609662381085e-26, 0.0, 0.0, 0.0, -4.1486584090521075e-28, 6.958743275167067e-07, -2.899192759854986e-34, 0.0, 0.0, 0.0, -4.587860966238106e-26, -3.0067744149025294e-34, 6.958743275167067e-07, 0.0, -2.7929971431957307e-36, -1.1037181003966295e-27, 0.0, 0.0, 0.0, 1.7891393431619085e-06]
---
header: 
  seq: 7428
  stamp: 
    secs: 1518210205
    nsecs: 314736128
  frame_id: "swarmone/map"
child_frame_id: "swarmone/base_link"
pose: 
  pose: 
    position: 
      x: 1.38951455246
      y: 5.94702669478
      z: 0.0
    orientation: 
      x: 0.0
      y: 0.0
      z: 0.713897997125
      w: 0.700249705249
  covariance: [1.8234449848195093, 0.015420215368290482, 0.0, 0.0, 0.0, 1.4260963832566358e-13, 0.015420215368290455, 1.053841573988513, 0.0, 0.0, 0.0, -7.380995633412978e-12, 0.0, 0.0, 9.959295772230995e-07, 1.218869880821783e-15, 4.322853132424637e-21, 0.0, 0.0, 0.0, 1.2188698808217829e-15, 9.95929579387443e-07, -1.3047429967619726e-27, 0.0, 0.0, 0.0, 4.322853132424637e-21, -1.304745923408311e-27, 9.959295793874434e-07, 0.0, 1.4260963832566365e-13, -7.380995633412978e-12, 0.0, 0.0, 0.0, 1.2280758430766694e-05]
twist: 
  twist: 
    linear: 
      x: -1.7467746599e-07
      y: 0.0442049124871
      z: 0.0
    angular: 
      x: 0.0
      y: 0.0
      z: 0.0400000000002
  covariance: [0.00024462123455460094, -2.7103828781503223e-08, 0.0, 0.0, 0.0, 1.5155049566439754e-24, -2.7103828781503303e-08, 1.249703392138597, 0.0, 0.0, 0.0, 2.4776559016610503e-21, 0.0, 0.0, 9.995904859257395e-07, -1.2128614814291715e-28, -6.316055327792068e-27, 0.0, 0.0, 0.0, -1.2128614814291708e-28, 9.959295771298124e-07, -2.121992120471078e-34, 0.0, 0.0, 0.0, -6.316055327792065e-27, -2.130512595729995e-34, 9.959295771298124e-07, 0.0, 1.5155049566439754e-24, 2.477655901661043e-21, 0.0, 0.0, 0.0, 0.0002455959783324191]
---
header: 
  seq: 7429
  stamp: 
    secs: 1518210205
    nsecs: 411916018
  frame_id: "swarmone/map"
child_frame_id: "swarmone/base_link"
pose: 
  pose: 
    position: 
      x: 1.38520770248
      y: 5.94694382363
      z: 0.0
    orientation: 
      x: 0.0
      y: 0.0
      z: 0.713863824773
      w: 0.700284541941
  covariance: [2.0676809362427426, 0.01918690218153529, 0.0, 0.0, 0.0, 2.06263079719971e-15, 0.01918690218153526, 1.1316597115458986, 0.0, 0.0, 0.0, -1.0639484086714951e-13, 0.0, 0.0, 6.720983615347664e-07, 3.703023223206727e-14, 5.9415060546338536e-18, 0.0, 0.0, 0.0, 3.7030232232067275e-14, 6.720984281695501e-07, -6.710651139347248e-25, 0.0, 0.0, 0.0, 5.941506054633852e-18, -6.710649762818566e-25, 6.720984281695543e-07, 0.0, 2.062630797199712e-15, -1.063948408671495e-13, 0.0, 0.0, 0.0, 7.848603620971086e-08]
twist: 
  twist: 
    linear: 
      x: -6.48208941662e-13
      y: 0.0444481590563
      z: 0.0
    angular: 
      x: 0.0
      y: 0.0
      z: 0.0399999999809
  covariance: [9.999999091092984e-10, -1.021467656114587e-13, 0.0, 0.0, 0.0, -1.374833576562845e-31, -1.0214676561145907e-13, 1.357071222193903, 0.0, 0.0, 0.0, -6.144061470530363e-23, 0.0, 0.0, 9.41166797955638e-07, -8.1671696013627e-28, -4.288233191222886e-26, 0.0, 0.0, 0.0, -8.167169601362696e-28, 6.72098361517399e-07, -5.27965434342157e-34, 0.0, 0.0, 0.0, -4.2882331912228865e-26, -4.980288749476254e-34, 6.72098361517399e-07, 0.0, -1.374833576562845e-31, -6.144061470530344e-23, 0.0, 0.0, 0.0, 1.5507207640597637e-06]
---
header: 
  seq: 7430
  stamp: 
    secs: 1518210205
    nsecs: 512541771
  frame_id: "swarmone/map"
child_frame_id: "swarmone/base_link"
pose: 
  pose: 
    position: 
      x: 1.38072323099
      y: 5.94685755185
      z: 0.0
    orientation: 
      x: 0.0
      y: 0.0
      z: 0.713863824785
      w: 0.700284541928
  covariance: [2.355380643711658, 0.02371988339557305, 0.0, 0.0, 0.0, 2.689201480806119e-17, 0.023719883395573016, 1.2122486254473663, 0.0, 0.0, 0.0, -1.3922319145486023e-15, 0.0, 0.0, 6.720984561692133e-07, 3.7239684265162234e-14, 5.434025564394957e-18, 0.0, 0.0, 0.0, 3.7239684265162234e-14, 6.720985228025972e-07, -6.171771385952342e-25, 0.0, 0.0, 0.0, 5.434025564394956e-18, -6.171769143690029e-25, 6.720985228026014e-07, 0.0, 2.6892014808061186e-17, -1.3922319145486023e-15, 0.0, 0.0, 0.0, 7.848603622075512e-08]
twist: 
  twist: 
    linear: 
      x: -5.86455253324e-13
      y: 0.0447000309409
      z: 0.0
    angular: 
      x: 0.0
      y: 0.0
      z: 0.0399999999999
  covariance: [9.99999910088797e-10, -9.388381859937445e-14, 0.0, 0.0, 0.0, -1.3960717693012798e-38, -9.388381859937483e-14, 1.4749544875051104, 0.0, 0.0, 0.0, -7.06980107354231e-30, 0.0, 0.0, 9.411667982606471e-07, -8.219123202961337e-28, -4.3122215540439024e-26, 0.0, 0.0, 0.0, -8.219123202961336e-28, 6.720984561520061e-07, -5.042623688522949e-34, 0.0, 0.0, 0.0, -4.312221554043901e-26, -5.3500545075952984e-34, 6.720984561520061e-07, 0.0, -1.3960717693012793e-38, -7.06980107354229e-30, 0.0, 0.0, 0.0, 1.5507207640607782e-06]
---
header: 
  seq: 7431
  stamp: 
    secs: 1518210205
    nsecs: 612533569
  frame_id: "swarmone/map"
child_frame_id: "swarmone/base_link"
pose: 
  pose: 
    position: 
      x: 1.37426411192
      y: 5.94051235155
      z: 0.0
    orientation: 
      x: 0.0
      y: 0.0
      z: 0.713863824754
      w: 0.700284541959
  covariance: [1.9402676581682676, 0.01796515084519517, 0.0, 0.0, 0.0, 2.4402592972069763e-14, 0.01796515084519513, 1.0922141631819782, 0.0, 0.0, 0.0, -1.1387987292216564e-12, 0.0, 0.0, 6.720954637473548e-07, 3.850998376172395e-14, 6.119104257938127e-18, 0.0, 0.0, 0.0, 3.850998376172394e-14, 6.720955303820604e-07, -7.188396699550241e-25, 0.0, 0.0, 0.0, 6.119104257938127e-18, -7.1883955283817525e-25, 6.72095530382065e-07, 0.0, 2.440259297206976e-14, -1.1387987292216564e-12, 0.0, 0.0, 0.0, 7.848603623032801e-08]
twist: 
  twist: 
    linear: 
      x: -6.64207657618e-13
      y: 0.0462244001169
      z: 0.0
    angular: 
      x: 0.0
      y: 0.0
      z: 0.0399999998027
  covariance: [9.999999095689273e-10, -1.048356046185145e-13, 0.0, 0.0, 0.0, -3.1244675762762827e-29, -1.0483560461851483e-13, 1.3020245333640215, 0.0, 0.0, 0.0, -1.2209459844746569e-20, 0.0, 0.0, 9.411667886229964e-07, -8.494091218492935e-28, -4.4595096868745735e-26, 0.0, 0.0, 0.0, -8.494091218492931e-28, 6.720954637299896e-07, -5.589878241438214e-34, 0.0, 0.0, 0.0, -4.459509686874569e-26, -5.663305609834223e-34, 6.720954637299896e-07, 0.0, -3.1244675762762827e-29, -1.2209459844746563e-20, 0.0, 0.0, 0.0, 1.5507207640589177e-06]
---
header: 
  seq: 7432
  stamp: 
    secs: 1518210205
    nsecs: 712148666
  frame_id: "swarmone/map"
child_frame_id: "swarmone/base_link"
pose: 
  pose: 
    position: 
      x: 1.36964605326
      y: 5.94042351524
      z: 0.0
    orientation: 
      x: 0.0
      y: 0.0
      z: 0.710353443396
      w: 0.703845143093
  covariance: [2.207457376456416, 0.02221048024374253, 0.0, 0.0, 0.0, 2.0707434437001328e-17, 0.02221048024374249, 1.1719895068672876, 0.0, 0.0, 0.0, -1.4395143313397797e-15, 0.0, 0.0, 6.695147673495046e-07, 3.875572294245659e-14, 5.505815922233871e-18, 0.0, 0.0, 0.0, 3.8755722942456595e-14, 6.695148173410394e-07, -6.457019185374073e-25, 0.0, 0.0, 0.0, 5.505815922233872e-18, -6.457019033491246e-25, 6.695148173410439e-07, 0.0, 2.0707434437001325e-17, -1.4395143313397799e-15, 0.0, 0.0, 0.0, 7.729394330507989e-08]
twist: 
  twist: 
    linear: 
      x: -6.00885509054e-13
      y: 0.0465108105571
      z: 0.0
    angular: 
      x: 0.0
      y: 0.0
      z: 0.0300000010034
  covariance: [9.999999090647723e-10, -9.635523806195605e-14, 0.0, 0.0, 0.0, -2.872701220567468e-36, -9.635523806195637e-14, 1.4153886166328715, 0.0, 0.0, 0.0, -1.2705827008565892e-27, 0.0, 0.0, 9.40329808673013e-07, -4.0305610577231317e-28, -4.448041792925718e-26, 0.0, 0.0, 0.0, -4.030561057723132e-28, 6.695147673324672e-07, -2.59591843720065e-34, 0.0, 0.0, 0.0, -4.4480417929257186e-26, -2.6109036471829834e-34, 6.695147673324672e-07, 0.0, -2.8727012205674694e-36, -1.2705827008565886e-27, 0.0, 0.0, 0.0, 1.526878906149614e-06]
---
header: 
  seq: 7433
  stamp: 
    secs: 1518210205
    nsecs: 815074682
  frame_id: "swarmone/map"
child_frame_id: "swarmone/base_link"
pose: 
  pose: 
    position: 
      x: 1.36378511795
      y: 5.93358745162
      z: 0.0
    orientation: 
      x: 0.0
      y: 0.0
      z: 0.713906110295
      w: 0.700241433853
  covariance: [1.8253462309093047, 0.015643345661061594, 0.0, 0.0, 0.0, 1.804717265960804e-13, 0.01564334566106155, 1.0542603841835905, 0.0, 0.0, 0.0, -9.323544260524166e-12, 0.0, 0.0, 9.967067681242194e-07, 1.0307555430598461e-15, 4.2534594693810276e-21, 0.0, 0.0, 0.0, 1.0307555430598457e-15, 9.967067698588423e-07, -1.3378648728073738e-27, 0.0, 0.0, 0.0, 4.2534594693810276e-21, -1.337863778216426e-27, 9.967067698588427e-07, 0.0, 1.8047172659608043e-13, -9.323544260524163e-12, 0.0, 0.0, 0.0, 1.5177548792213495e-05]
twist: 
  twist: 
    linear: 
      x: -2.10649428051e-07
      y: 0.0475107267454
      z: 0.0
    angular: 
      x: 0.0
      y: 0.0
      z: 0.0399999989993
  covariance: [0.0003029357443417272, -3.216371542587638e-08, 0.0, 0.0, 0.0, 2.378403806779765e-24, -3.216371542587647e-08, 1.2504782083726715, 0.0, 0.0, 0.0, 3.027848847669116e-21, 0.0, 0.0, 9.996690660367159e-07, -1.0142796049195273e-28, -5.282118692296597e-27, 0.0, 0.0, 0.0, -1.0142796049195273e-28, 9.967067680308626e-07, -1.8385890675057352e-34, 0.0, 0.0, 0.0, -5.282118692296599e-27, -1.8366329547412827e-34, 9.967067680308626e-07, 0.0, 2.378403806779764e-24, 3.0278488476691114e-21, 0.0, 0.0, 0.0, 0.00030353169305409914]
---
header: 
  seq: 7434
  stamp: 
    secs: 1518210205
    nsecs: 912055731
  frame_id: "swarmone/map"
child_frame_id: "swarmone/base_link"
pose: 
  pose: 
    position: 
      x: 1.3591637994
      y: 5.93349993214
      z: 0.0
    orientation: 
      x: 0.0
      y: 0.0
      z: 0.710353282135
      w: 0.703845305845
  covariance: [2.0693779376603048, 0.019440558443532287, 0.0, 0.0, 0.0, 2.7137315168494818e-15, 0.019440558443532242, 1.1319210527560521, 0.0, 0.0, 0.0, -1.402463346724833e-13, 0.0, 0.0, 6.72098355863794e-07, 3.9830918111392396e-14, 5.811020746893178e-18, 0.0, 0.0, 0.0, 3.9830918111392396e-14, 6.720983558642272e-07, -7.059717326946396e-25, 0.0, 0.0, 0.0, 5.811020746893178e-18, -7.059717326867307e-25, 6.720983558642321e-07, 0.0, 2.713731516849481e-15, -1.4024633467248327e-13, 0.0, 0.0, 0.0, 7.848603621928478e-08]
twist: 
  twist: 
    linear: 
      x: -6.31345037454e-13
      y: 0.0478099032567
      z: 0.0
    angular: 
      x: 0.0
      y: 0.0
      z: 3.91868654193e-09
  covariance: [9.999999094926675e-10, -9.790966793741943e-14, 0.0, 0.0, 0.0, -2.1246415713797114e-31, -9.790966793741973e-14, 1.3576580177133162, 0.0, 0.0, 0.0, -9.181708793565775e-23, 0.0, 0.0, 9.411667979373757e-07, -4.178728240700553e-28, -4.613210510881284e-26, 0.0, 0.0, 0.0, -4.178728240700552e-28, 6.720983558464224e-07, -2.803475703021546e-34, 0.0, 0.0, 0.0, -4.6132105108812837e-26, -2.8946895340152474e-34, 6.720983558464224e-07, 0.0, -2.12464157137971e-31, -9.18170879356576e-23, 0.0, 0.0, 0.0, 1.55072076406014e-06]
---
header: 
  seq: 7435
  stamp: 
    secs: 1518210206
    nsecs:  12021780
  frame_id: "swarmone/map"
child_frame_id: "swarmone/base_link"
pose: 
  pose: 
    position: 
      x: 1.35436922177
      y: 5.93345565147
      z: 0.0
    orientation: 
      x: 0.0
      y: 0.0
      z: 0.713863818319
      w: 0.70028454852
  covariance: [2.355404088301645, 0.022482280554093362, 0.0, 0.0, 0.0, 2.162182492342741e-17, 0.02248228055409332, 1.2119454952273376, 0.0, 0.0, 0.0, -1.5100350851250146e-15, 0.0, 0.0, 6.746420164628406e-07, 4.007510193892388e-14, 5.2563079569647405e-18, 0.0, 0.0, 0.0, 4.007510193892388e-14, 6.746420830742828e-07, -6.474497512046095e-25, 0.0, 0.0, 0.0, 5.256307956964739e-18, -6.474499204160764e-25, 6.746420830742877e-07, 0.0, 2.1621824923427412e-17, -1.5100350851250146e-15, 0.0, 0.0, 0.0, 7.967812910314922e-08]
twist: 
  twist: 
    linear: 
      x: -5.71555775222e-13
      y: 0.0481182883116
      z: 0.0
    angular: 
      x: 0.0
      y: 0.0
      z: 0.0399999959989
  covariance: [9.999999094384755e-10, -9.004715358938198e-14, 0.0, 0.0, 0.0, -2.126717871647283e-38, -9.004715358938225e-14, 1.4747724877601975, 0.0, 0.0, 0.0, -1.0398080661407877e-29, 0.0, 0.0, 9.419806317270679e-07, -8.930368537172456e-28, -4.681643592171839e-26, 0.0, 0.0, 0.0, -8.930368537172456e-28, 6.746420164454589e-07, -6.245345947177806e-34, 0.0, 0.0, 0.0, -4.6816435921718385e-26, -6.01680493959486e-34, 6.746420164454589e-07, 0.0, -2.1267178716472813e-38, -1.0398080661407859e-29, 0.0, 0.0, 0.0, 1.5745626219702785e-06]
---
header: 
  seq: 7436
  stamp: 
    secs: 1518210206
    nsecs: 111773252
  frame_id: "swarmone/map"
child_frame_id: "swarmone/base_link"
pose: 
  pose: 
    position: 
      x: 1.34622425413
      y: 5.92452610663
      z: 0.0
    orientation: 
      x: 0.0
      y: 0.0
      z: 0.71035345066
      w: 0.703845135762
  covariance: [1.9379172728168628, 0.017105030927941106, 0.0, 0.0, 0.0, 2.6606030683055597e-14, 0.01710503092794107, 1.0912343966891491, 0.0, 0.0, 0.0, -1.2403952964036951e-12, 0.0, 0.0, 6.771434325708679e-07, 4.209544469775317e-14, 6.482487153762013e-18, 0.0, 0.0, 0.0, 4.209544469775318e-14, 6.771434825183504e-07, -8.454412447152368e-25, 0.0, 0.0, 0.0, 6.482487153762012e-18, -8.454412086637816e-25, 6.771434825183558e-07, 0.0, 2.66060306830556e-14, -1.240395296403696e-12, 0.0, 0.0, 0.0, 8.087022201561211e-08]
twist: 
  twist: 
    linear: 
      x: -7.06080725436e-13
      y: 0.0505648300602
      z: 0.0
    angular: 
      x: 0.0
      y: 0.0
      z: 0.0300000003257
  covariance: [9.999999093270194e-10, -9.943945679949469e-14, 0.0, 0.0, 0.0, -3.466127652791345e-29, -9.94394567994949e-14, 1.3006077354411691, 0.0, 0.0, 0.0, -1.470291388960707e-20, 0.0, 0.0, 9.42772247663261e-07, -4.489782183918784e-28, -4.9610287065332785e-26, 0.0, 0.0, 0.0, -4.489782183918783e-28, 6.771434325531616e-07, -3.325691190072624e-34, 0.0, 0.0, 0.0, -4.9610287065332774e-26, -3.328993912889011e-34, 6.771434325531616e-07, 0.0, -3.4661276527913425e-29, -1.470291388960706e-20, 0.0, 0.0, 0.0, 1.5984044798789966e-06]
---
header: 
  seq: 7437
  stamp: 
    secs: 1518210206
    nsecs: 212318659
  frame_id: "swarmone/map"
child_frame_id: "swarmone/base_link"
pose: 
  pose: 
    position: 
      x: 1.34112166307
      y: 5.92447897192
      z: 0.0
    orientation: 
      x: 0.0
      y: 0.0
      z: 0.710353496038
      w: 0.703845089964
  covariance: [2.2074948772360505, 0.019896534895201722, 0.0, 0.0, 0.0, 1.5152318792403272e-17, 0.019896534895201677, 1.1717182717680252, 0.0, 0.0, 0.0, -1.6246187155445998e-15, 0.0, 0.0, 6.7464203171977e-07, 4.242326683529451e-14, 5.904559132260678e-18, 0.0, 0.0, 0.0, 4.2423266835294517e-14, 6.74642098341769e-07, -7.699230952000584e-25, 0.0, 0.0, 0.0, 5.904559132260678e-18, -7.699230371802124e-25, 6.746420983417745e-07, 0.0, 1.5152318792403272e-17, -1.6246187155445998e-15, 0.0, 0.0, 0.0, 7.967812911468872e-08]
twist: 
  twist: 
    linear: 
      x: -6.38201905535e-13
      y: 0.0509377254558
      z: 0.0
    angular: 
      x: 0.0
      y: 0.0
      z: 0.0399999990053
  covariance: [9.99999909984617e-10, -9.13314210666589e-14, 0.0, 0.0, 0.0, -3.1559230808697775e-36, -9.13314210666591e-14, 1.414965541809481, 0.0, 0.0, 0.0, -1.5181144800318268e-27, 0.0, 0.0, 9.419806317755903e-07, -4.493090931990949e-28, -4.9566639499041074e-26, 0.0, 0.0, 0.0, -4.493090931990949e-28, 6.746420317023803e-07, -3.300313470517684e-34, 0.0, 0.0, 0.0, -4.956663949904107e-26, -3.2687453364458514e-34, 6.746420317023803e-07, 0.0, -3.1559230808697755e-36, -1.5181144800318256e-27, 0.0, 0.0, 0.0, 1.5745626219708554e-06]
---
header: 
  seq: 7438
  stamp: 
    secs: 1518210206
    nsecs: 315014839
  frame_id: "swarmone/map"
child_frame_id: "swarmone/base_link"
pose: 
  pose: 
    position: 
      x: 1.33460772709
      y: 5.9172411166
      z: 0.0
    orientation: 
      x: 0.0
      y: 0.0
      z: 0.710391256269
      w: 0.703806978523
  covariance: [1.8249874062010194, 0.01406439866755067, 0.0, 0.0, 0.0, 2.9753221458892237e-13, 0.014064398667550628, 1.053944809187915, 0.0, 0.0, 0.0, -2.8442653869064568e-11, 0.0, 0.0, 9.962505303480389e-07, 1.615465882538971e-15, 4.037030499293513e-21, 0.0, 0.0, 0.0, 1.6154658825389709e-15, 9.96250532852624e-07, -1.7499515486754713e-27, 0.0, 0.0, 0.0, 4.0370304992935126e-21, -1.7499535016957904e-27, 9.962505328526249e-07, 0.0, 2.975322145889224e-13, -2.844265386906456e-11, 0.0, 0.0, 0.0, 1.3491950092070334e-05]
twist: 
  twist: 
    linear: 
      x: -1.96111755833e-07
      y: 0.0521521955758
      z: 0.0
    angular: 
      x: 0.0
      y: 0.0
      z: 0.0399999999999
  covariance: [0.0002655939187936864, -2.5859122454487068e-08, 0.0, 0.0, 0.0, 6.443239677933985e-24, -2.5859122454487114e-08, 1.2498768659317556, 0.0, 0.0, 0.0, -1.1122529587285043e-21, 0.0, 0.0, 9.996227230052837e-07, -1.1206716005811016e-28, -1.2176586516447283e-26, 0.0, 0.0, 0.0, -1.1206716005811016e-28, 9.962505302508943e-07, -3.79437497452034e-34, 0.0, 0.0, 0.0, -1.2176586516447283e-26, -3.7937407160275542e-34, 9.962505302508943e-07, 0.0, 6.443239677933981e-24, -1.1122529587285163e-21, 0.0, 0.0, 0.0, 0.0002698193059691383]
---
header: 
  seq: 7439
  stamp: 
    secs: 1518210206
    nsecs: 412189007
  frame_id: "swarmone/map"
child_frame_id: "swarmone/base_link"
pose: 
  pose: 
    position: 
      x: 1.32952141912
      y: 5.91719414368
      z: 0.0
    orientation: 
      x: 0.0
      y: 0.0
      z: 0.710353490016
      w: 0.703845096042
  covariance: [2.0695231520699116, 0.01643384026197689, 0.0, 0.0, 0.0, 1.2914469011578595e-15, 0.016433840261976845, 1.1317269231605842, 0.0, 0.0, 0.0, -1.3761388150846537e-13, 0.0, 0.0, 6.695146985853693e-07, 4.377726873632359e-14, 6.1586300018987286e-18, 0.0, 0.0, 0.0, 4.377726873632359e-14, 6.695147652425102e-07, -8.158777134614623e-25, 0.0, 0.0, 0.0, 6.158630001898729e-18, -8.158778021632588e-25, 6.69514765242516e-07, 0.0, 1.2914469011578595e-15, -1.3761388150846537e-13, 0.0, 0.0, 0.0, 7.729394331978091e-08]
twist: 
  twist: 
    linear: 
      x: -6.70284984336e-13
      y: 0.0525366181751
      z: 0.0
    angular: 
      x: 0.0
      y: 0.0
      z: 0.0399999999791
  covariance: [9.999999093134288e-10, -8.97657902553357e-14, 0.0, 0.0, 0.0, -5.798783362966717e-31, -8.976579025533587e-14, 1.3572325775103522, 0.0, 0.0, 0.0, 3.093915820149338e-23, 0.0, 0.0, 9.403298084484983e-07, -4.554012095743325e-28, -5.0246974159954867e-26, 0.0, 0.0, 0.0, -4.554012095743324e-28, 6.695146985681605e-07, -3.337919500891655e-34, 0.0, 0.0, 0.0, -5.024697415995486e-26, -3.3925011724358628e-34, 6.695146985681605e-07, 0.0, -5.798783362966714e-31, 3.0939158201493636e-23, 0.0, 0.0, 0.0, 1.5268789061498432e-06]
---
header: 
  seq: 7440
  stamp: 
    secs: 1518210206
    nsecs: 512261629
  frame_id: "swarmone/map"
child_frame_id: "swarmone/base_link"
pose: 
  pose: 
    position: 
      x: 1.3242443581
      y: 5.91714538341
      z: 0.0
    orientation: 
      x: 0.0
      y: 0.0
      z: 0.713864595821
      w: 0.70028375594
  covariance: [2.3558819264846025, 0.019186406509270205, 0.0, 0.0, 0.0, 8.024873565343639e-17, 0.019186406509270153, 1.2118313097969382, 0.0, 0.0, 0.0, -4.575365614126805e-15, 0.0, 0.0, 8.837864512027281e-07, 2.5394673423675935e-14, 3.2182886466781654e-18, 0.0, 0.0, 0.0, 2.539467342367593e-14, 8.837864895742217e-07, -7.032560886566985e-25, 0.0, 0.0, 0.0, 3.218288646678165e-18, -7.032560653494934e-25, 8.837864895742273e-07, 0.0, 8.024873565343639e-17, -4.575365614126805e-15, 0.0, 0.0, 0.0, 3.562436808667817e-07]
twist: 
  twist: 
    linear: 
      x: -6.06743995493e-13
      y: 0.0529325072276
      z: 0.0
    angular: 
      x: 0.0
      y: 0.0
      z: 0.0400000000002
  covariance: [9.99999909544654e-10, -8.254512656761799e-14, 0.0, 0.0, 0.0, -5.858088616562022e-38, -8.254512656761813e-14, 1.474441940460137, 0.0, 0.0, 0.0, 3.643182613220231e-30, 0.0, 0.0, 9.862161619667666e-07, -9.791903301379715e-28, -5.132042957719527e-26, 0.0, 0.0, 0.0, -9.791903301379717e-28, 8.837864511664864e-07, -1.8577468021756627e-33, 0.0, 0.0, 0.0, -5.1320429577195276e-26, -1.7534772829897102e-33, 8.837864511664864e-07, 0.0, -5.858088616562018e-38, 3.643182613220263e-30, 0.0, 0.0, 0.0, 7.105873657126579e-06]
---
header: 
  seq: 7441
  stamp: 
    secs: 1518210206
    nsecs: 612284660
  frame_id: "swarmone/map"
child_frame_id: "swarmone/base_link"
pose: 
  pose: 
    position: 
      x: 1.318348669
      y: 5.90770573145
      z: 0.0
    orientation: 
      x: 0.0
      y: 0.0
      z: 0.713863831434
      w: 0.700284535151
  covariance: [1.9400746357116208, 0.014933911634071678, 0.0, 0.0, 0.0, 2.8398998459685328e-14, 0.014933911634071635, 1.0917498474432608, 0.0, 0.0, 0.0, -1.3234041021642982e-12, 0.0, 0.0, 6.77143455689456e-07, 4.472231153073803e-14, 6.902243163132555e-18, 0.0, 0.0, 0.0, 4.472231153073805e-14, 6.771435222757443e-07, -9.563584922568175e-25, 0.0, 0.0, 0.0, 6.902243163132556e-18, -9.56358466808774e-25, 6.771435222757506e-07, 0.0, 2.839899845968532e-14, -1.323404102164298e-12, 0.0, 0.0, 0.0, 8.087022202237919e-08]
twist: 
  twist: 
    linear: 
      x: -7.49519158422e-13
      y: 0.0537202032054
      z: 0.0
    angular: 
      x: 0.0
      y: 0.0
      z: 0.0399999998026
  covariance: [9.999999095976067e-10, -8.78266956571822e-14, 0.0, 0.0, 0.0, -1.708099521845459e-28, -8.782669565718237e-14, 1.3009663025230411, 0.0, 0.0, 0.0, -8.799224948439202e-20, 0.0, 0.0, 9.427722477359397e-07, -1.0039986261097784e-27, -5.269870548171349e-26, 0.0, 0.0, 0.0, -1.0039986261097788e-27, 6.771434556717452e-07, -7.866623946754824e-34, 0.0, 0.0, 0.0, -5.26987054817135e-26, -7.804211392287805e-34, 6.771434556717452e-07, 0.0, -1.7080995218454589e-28, -8.799224948439195e-20, 0.0, 0.0, 0.0, 1.598404479879317e-06]
---
header: 
  seq: 7442
  stamp: 
    secs: 1518210206
    nsecs: 712745667
  frame_id: "swarmone/map"
child_frame_id: "swarmone/base_link"
pose: 
  pose: 
    position: 
      x: 1.31293233779
      y: 5.9076015247
      z: 0.0
    orientation: 
      x: 0.0
      y: 0.0
      z: 0.71386384816
      w: 0.7002845181
  covariance: [2.2096344543881288, 0.018927750370823258, 0.0, 0.0, 0.0, 3.483430729132921e-17, 0.018927750370823216, 1.172191757861486, 0.0, 0.0, 0.0, -1.8034913664095045e-15, 0.0, 0.0, 6.891116532614102e-07, 4.490251883507589e-14, 6.238004555484332e-18, 0.0, 0.0, 0.0, 4.490251883507589e-14, 6.891117196100225e-07, -9.010206533497474e-25, 0.0, 0.0, 0.0, 6.23800455548433e-18, -9.010207540773718e-25, 6.891117196100289e-07, 0.0, 3.4834307291329205e-17, -1.8034913664095045e-15, 0.0, 0.0, 0.0, 8.683068648608319e-08]
twist: 
  twist: 
    linear: 
      x: -6.77511222309e-13
      y: 0.0541292960947
      z: 0.0
    angular: 
      x: 0.0
      y: 0.0
      z: 0.0399999999999
  covariance: [9.99999909902241e-10, -8.066159523078833e-14, 0.0, 0.0, 0.0, -1.5565777201343963e-35, -8.066159523078852e-14, 1.415239979522761, 0.0, 0.0, 0.0, -9.108575840437293e-27, 0.0, 0.0, 9.464270461486885e-07, -1.0501927412463943e-27, -5.507888349790363e-26, 0.0, 0.0, 0.0, -1.0501927412463946e-27, 6.89111653243016e-07, -8.979735446309766e-34, 0.0, 0.0, 0.0, -5.507888349790363e-26, -8.612695773843854e-34, 6.89111653243016e-07, 0.0, -1.5565777201343955e-35, -9.108575840437285e-27, 0.0, 0.0, 0.0, 1.7176137694317079e-06]
---
header: 
  seq: 7443
  stamp: 
    secs: 1518210206
    nsecs: 815098763
  frame_id: "swarmone/map"
child_frame_id: "swarmone/base_link"
pose: 
  pose: 
    position: 
      x: 1.30780260197
      y: 5.8981504315
      z: 0.0
    orientation: 
      x: 0.0
      y: 0.0
      z: 0.713903009378
      w: 0.700244595267
  covariance: [1.8268023705224914, 0.014430665955513844, 0.0, 0.0, 0.0, 1.8978796438879027e-13, 0.014430665955513823, 1.0544999405357454, 0.0, 0.0, 0.0, -9.918477920365319e-12, 0.0, 0.0, 9.964473190095866e-07, 1.2903056419518393e-15, 4.874132083616439e-21, 0.0, 0.0, 0.0, 1.2903056419518395e-15, 9.96447320874719e-07, -1.7801705209396524e-27, 0.0, 0.0, 0.0, 4.874132083616438e-21, -1.7801702017283482e-27, 9.964473208747195e-07, 0.0, 1.8978796438879024e-13, -9.91847792036532e-12, 0.0, 0.0, 0.0, 1.4067708119392034e-05]
twist: 
  twist: 
    linear: 
      x: -2.3104899244e-07
      y: 0.0542967972621
      z: 0.0
    angular: 
      x: 0.0
      y: 0.0
      z: 0.0399999999999
  covariance: [0.00028062791015093583, -2.6019485499091237e-08, 0.0, 0.0, 0.0, 2.335046537053159e-24, -2.6019485499091257e-08, 1.2500707002923066, 0.0, 0.0, 0.0, 3.530840902603503e-21, 0.0, 0.0, 9.996428597932648e-07, -1.260782483819756e-28, -6.565727598326594e-27, 0.0, 0.0, 0.0, -1.2607824838197561e-28, 9.96447318916332e-07, -2.6338978735147547e-34, 0.0, 0.0, 0.0, -6.565727598326598e-27, -2.637809123524709e-34, 9.96447318916332e-07, 0.0, 2.335046537053157e-24, 3.530840902603513e-21, 0.0, 0.0, 0.0, 0.0002813349233397433]
---
header: 
  seq: 7444
  stamp: 
    secs: 1518210206
    nsecs: 912529707
  frame_id: "swarmone/map"
child_frame_id: "swarmone/base_link"
pose: 
  pose: 
    position: 
      x: 1.30249442751
      y: 5.89804681274
      z: 0.0
    orientation: 
      x: 0.0
      y: 0.0
      z: 0.717356299375
      w: 0.696706494693
  covariance: [2.0721850624759726, 0.018150945973949784, 0.0, 0.0, 0.0, 2.899831280777818e-15, 0.018150945973949773, 1.13251710947787, 0.0, 0.0, 0.0, -1.4907316114286442e-13, 0.0, 0.0, 6.695147059909395e-07, 4.556894050454746e-14, 6.896692867850883e-18, 0.0, 0.0, 0.0, 4.556894050454746e-14, 6.695147726224775e-07, -9.510773277837888e-25, 0.0, 0.0, 0.0, 6.8966928678508824e-18, -9.510773401493906e-25, 6.695147726224838e-07, 0.0, 2.899831280777818e-15, -1.490731611428644e-13, 0.0, 0.0, 0.0, 7.729394332759305e-08]
twist: 
  twist: 
    linear: 
      x: -7.47210348201e-13
      y: 0.0546867821743
      z: 0.0
    angular: 
      x: 0.0
      y: 0.0
      z: 0.0400000000325
  covariance: [9.999999097167807e-10, -8.54809899689996e-14, 0.0, 0.0, 0.0, -2.0915605354683503e-31, -8.54809899689997e-14, 1.3577248447709052, 0.0, 0.0, 0.0, -1.001944365207546e-22, 0.0, 0.0, 9.403298084726466e-07, -1.5193767784895323e-27, -5.228352075290634e-26, 0.0, 0.0, 0.0, -1.519376778489532e-27, 6.695147059737277e-07, -1.1383861606721748e-33, 0.0, 0.0, 0.0, -5.228352075290632e-26, -1.1761285660790485e-33, 6.695147059737277e-07, 0.0, -2.0915605354683486e-31, -1.0019443652075487e-22, 0.0, 0.0, 0.0, 1.5268789061502137e-06]
---
header: 
  seq: 7445
  stamp: 
    secs: 1518210207
    nsecs:  12263298
  frame_id: "swarmone/map"
child_frame_id: "swarmone/base_link"
pose: 
  pose: 
    position: 
      x: 1.29702275183
      y: 5.89788684886
      z: 0.0
    orientation: 
      x: 0.0
      y: 0.0
      z: 0.710353514212
      w: 0.703845071622
  covariance: [2.357694879710962, 0.024075682428516224, 0.0, 0.0, 0.0, 3.305201022556802e-17, 0.024075682428516203, 1.2124266529701242, 0.0, 0.0, 0.0, -1.7281582656167058e-15, 0.0, 0.0, 6.771464302895158e-07, 4.585899088145018e-14, 6.203709862158997e-18, 0.0, 0.0, 0.0, 4.585899088145018e-14, 6.771464968840597e-07, -8.812569853569764e-25, 0.0, 0.0, 0.0, 6.203709862158995e-18, -8.812569162242896e-25, 6.771464968840662e-07, 0.0, 3.305201022556802e-17, -1.728158265616706e-15, 0.0, 0.0, 0.0, 8.08702219939909e-08]
twist: 
  twist: 
    linear: 
      x: -6.76593802618e-13
      y: 0.0550859839711
      z: 0.0
    angular: 
      x: 0.0
      y: 0.0
      z: 0.0399999999993
  covariance: [9.999999092080077e-10, -7.863912044374989e-14, 0.0, 0.0, 0.0, -2.1109125888453485e-38, -7.863912044374994e-14, 1.4745494757273694, 0.0, 0.0, 0.0, -1.1440805826584996e-29, 0.0, 0.0, 9.427722570861981e-07, -4.900567149357879e-28, -5.404410264704853e-26, 0.0, 0.0, 0.0, -4.900567149357876e-28, 6.771464302719575e-07, -3.845700078180108e-34, 0.0, 0.0, 0.0, -5.404410264704855e-26, -3.9503884882028856e-34, 6.771464302719575e-07, 0.0, -2.1109125888453461e-38, -1.1440805826585026e-29, 0.0, 0.0, 0.0, 1.598404479880201e-06]
---
header: 
  seq: 7446
  stamp: 
    secs: 1518210207
    nsecs: 112415791
  frame_id: "swarmone/map"
child_frame_id: "swarmone/base_link"
pose: 
  pose: 
    position: 
      x: 1.29275267907
      y: 5.88844644387
      z: 0.0
    orientation: 
      x: 0.0
      y: 0.0
      z: 0.713863763402
      w: 0.700284604501
  covariance: [1.9421835162601677, 0.01710312106056426, 0.0, 0.0, 0.0, 1.54795410652343e-14, 0.01710312106056425, 1.092461736991306, 0.0, 0.0, 0.0, -1.3458886966879328e-12, 0.0, 0.0, 6.720952887807303e-07, 4.558513414426852e-14, 7.51361563830387e-18, 0.0, 0.0, 0.0, 4.55851341442685e-14, 6.720953387574684e-07, -1.0447974299551317e-24, 0.0, 0.0, 0.0, 7.513615638303867e-18, -1.0447972968384537e-24, 6.720953387574749e-07, 0.0, 1.54795410652343e-14, -1.3458886966879326e-12, 0.0, 0.0, 0.0, 7.84860362321353e-08]
twist: 
  twist: 
    linear: 
      x: -8.14201785894e-13
      y: 0.0547168764917
      z: 0.0
    angular: 
      x: 0.0
      y: 0.0
      z: 0.0300000013054
  covariance: [9.99999909724051e-10, -9.659320725767821e-14, 0.0, 0.0, 0.0, -4.0758079604583897e-29, -9.659320725767819e-14, 1.301119367341126, 0.0, 0.0, 0.0, 5.552581759759318e-21, 0.0, 0.0, 9.411667880594157e-07, -1.0051357005364773e-27, -5.278815858763278e-26, 0.0, 0.0, 0.0, -1.005135700536477e-27, 6.720952887633536e-07, -7.710364709041869e-34, 0.0, 0.0, 0.0, -5.278815858763276e-26, -7.782531978627005e-34, 6.720952887633536e-07, 0.0, -4.075807960458387e-29, 5.5525817597592845e-21, 0.0, 0.0, 0.0, 1.5507207640590854e-06]
---
header: 
  seq: 7447
  stamp: 
    secs: 1518210207
    nsecs: 212373972
  frame_id: "swarmone/map"
child_frame_id: "swarmone/base_link"
pose: 
  pose: 
    position: 
      x: 1.2872653899
      y: 5.8883409179
      z: 0.0
    orientation: 
      x: 0.0
      y: 0.0
      z: 0.703279703692
      w: 0.710913256576
  covariance: [2.2104991526873183, 0.02130789028653484, 0.0, 0.0, 0.0, 5.8715139128710965e-18, 0.021307890286534834, 1.1725097322368208, 0.0, 0.0, 0.0, -1.8756220345565126e-15, 0.0, 0.0, 7.002216603447512e-07, 4.5446535588826136e-14, 6.703302588350187e-18, 0.0, 0.0, 0.0, 4.5446535588826136e-14, 7.002217263279756e-07, -1.0162642284672424e-24, 0.0, 0.0, 0.0, 6.703302588350189e-18, -1.016264305239461e-24, 7.002217263279825e-07, 0.0, 5.8715139128710965e-18, -1.8756220345565126e-15, 0.0, 0.0, 0.0, 9.27911509536146e-08]
twist: 
  twist: 
    linear: 
      x: -7.36317257166e-13
      y: 0.0550951384401
      z: 0.0
    angular: 
      x: 0.0
      y: 0.0
      z: 0.0399999989985
  covariance: [9.999999094059167e-10, -8.880301487567448e-14, 0.0, 0.0, 0.0, -3.7334122927242326e-36, -8.880301487567447e-14, 1.4148064466740151, 0.0, 0.0, 0.0, 5.886945378572612e-28, 0.0, 0.0, 9.496430398777472e-07, 6.326179068681433e-28, -5.779527173720521e-26, 0.0, 0.0, 0.0, 6.326179068681433e-28, 7.002216603255574e-07, 5.740346651194752e-34, 0.0, 0.0, 0.0, -5.779527173720521e-26, 5.719009216826685e-34, 7.002216603255574e-07, 0.0, -3.7334122927242306e-36, 5.886945378572578e-28, 0.0, 0.0, 0.0, 1.8368230589819866e-06]
---
header: 
  seq: 7448
  stamp: 
    secs: 1518210207
    nsecs: 314733744
  frame_id: "swarmone/map"
child_frame_id: "swarmone/base_link"
pose: 
  pose: 
    position: 
      x: 1.28629846682
      y: 5.88057335162
      z: 0.0
    orientation: 
      x: 0.0
      y: 0.0
      z: 0.717389057355
      w: 0.696672764207
  covariance: [1.8284723454148275, 0.013141833116365414, 0.0, 0.0, 0.0, 2.4773800897538485e-13, 0.013141833116365405, 1.055053950604775, 0.0, 0.0, 0.0, -9.003245196234552e-12, 0.0, 0.0, 9.957775951685752e-07, 1.5816779990109667e-15, 6.686628906783582e-21, 0.0, 0.0, 0.0, 1.5816779990109673e-15, 9.957775974219702e-07, -2.5208228886627655e-27, 0.0, 0.0, 0.0, 6.686628906783587e-21, -2.5208197378823518e-27, 9.957775974219709e-07, 0.0, 2.4773800897538485e-13, -9.003245196234552e-12, 0.0, 0.0, 0.0, 1.1839683513832022e-05]
twist: 
  twist: 
    linear: 
      x: -1.98842255967e-07
      y: 0.052480417781
      z: 0.0
    angular: 
      x: 0.0
      y: 0.0
      z: 0.0400000000013
  covariance: [0.00023573159272848826, -2.2334859855722757e-08, 0.0, 0.0, 0.0, 1.775197428033891e-24, -2.2334859855722734e-08, 1.2501181879845942, 0.0, 0.0, 0.0, 7.481327573017691e-21, 0.0, 0.0, 9.995750947736619e-07, -2.4074074422516333e-28, -8.24228794214935e-27, 0.0, 0.0, 0.0, -2.407407442251634e-28, 9.95777595075181e-07, -5.288990758879244e-34, 0.0, 0.0, 0.0, -8.242287942149346e-27, -5.277918572487951e-34, 9.95777595075181e-07, 0.0, 1.7751974280338903e-24, 7.481327573017701e-21, 0.0, 0.0, 0.0, 0.00023677449090566175]
---
header: 
  seq: 7449
  stamp: 
    secs: 1518210207
    nsecs: 412284613
  frame_id: "swarmone/map"
child_frame_id: "swarmone/base_link"
pose: 
  pose: 
    position: 
      x: 1.28116726626
      y: 5.88042571713
      z: 0.0
    orientation: 
      x: 0.0
      y: 0.0
      z: 0.710353517471
      w: 0.703845068333
  covariance: [2.0742479143472883, 0.01801660034349496, 0.0, 0.0, 0.0, 3.566610749934954e-15, 0.018016600343494945, 1.1331894850094406, 0.0, 0.0, 0.0, -1.219433015316146e-13, 0.0, 0.0, 6.796125321169597e-07, 4.3903232841877905e-14, 7.028769365593493e-18, 0.0, 0.0, 0.0, 4.390323284187789e-14, 6.796125986781556e-07, -9.633067054536483e-25, 0.0, 0.0, 0.0, 7.028769365593493e-18, -9.633067128681408e-25, 6.796125986781617e-07, 0.0, 3.5666107499349526e-15, -1.219433015316146e-13, 0.0, 0.0, 0.0, 8.206231490162582e-08]
twist: 
  twist: 
    linear: 
      x: -7.65435896835e-13
      y: 0.0527636727579
      z: 0.0
    angular: 
      x: 0.0
      y: 0.0
      z: 0.0399999998894
  covariance: [9.999999093901895e-10, -8.737277314008717e-14, 0.0, 0.0, 0.0, -1.6085446548340018e-31, -8.737277314008707e-14, 1.3579080042892049, 0.0, 0.0, 0.0, -1.776849881314776e-22, 0.0, 0.0, 9.435425709393523e-07, -4.719026971644622e-28, -5.217908480526787e-26, 0.0, 0.0, 0.0, -4.719026971644621e-28, 6.796125320990802e-07, -3.7706722985305116e-34, 0.0, 0.0, 0.0, -5.217908480526787e-26, -3.6971893036517305e-34, 6.796125320990802e-07, 0.0, -1.6085446548340016e-31, -1.7768498813147788e-22, 0.0, 0.0, 0.0, 1.6222463377905167e-06]
---
header: 
  seq: 7450
  stamp: 
    secs: 1518210207
    nsecs: 512021780
  frame_id: "swarmone/map"
child_frame_id: "swarmone/base_link"
pose: 
  pose: 
    position: 
      x: 1.27589054903
      y: 5.88037696982
      z: 0.0
    orientation: 
      x: 0.0
      y: 0.0
      z: 0.713863867853
      w: 0.700284498025
  covariance: [2.360061174187399, 0.02093897250943803, 0.0, 0.0, 0.0, 2.3722139661490963e-17, 0.020938972509438016, 1.2130285668779937, 0.0, 0.0, 0.0, -1.677767728757128e-15, 0.0, 0.0, 6.695147707066624e-07, 4.420733861505196e-14, 6.361417060904578e-18, 0.0, 0.0, 0.0, 4.4207338615051934e-14, 6.695148540147521e-07, -8.50973256499381e-25, 0.0, 0.0, 0.0, 6.361417060904577e-18, -8.509734974749691e-25, 6.695148540147581e-07, 0.0, 2.3722139661490966e-17, -1.6777677287571276e-15, 0.0, 0.0, 0.0, 7.72939433075544e-08]
twist: 
  twist: 
    linear: 
      x: -6.93093482658e-13
      y: 0.053053276142
      z: 0.0
    angular: 
      x: 0.0
      y: 0.0
      z: 0.0499999989976
  covariance: [9.999999092119048e-10, -8.040705552637842e-14, 0.0, 0.0, 0.0, -1.6651888237837573e-38, -8.040705552637833e-14, 1.4747442207113926, 0.0, 0.0, 0.0, -2.0869818014408687e-29, 0.0, 0.0, 9.403298086839528e-07, -9.6704575558369e-28, -5.073021572220772e-26, 0.0, 0.0, 0.0, -9.6704575558369e-28, 6.695147706896103e-07, -7.192801238306772e-34, 0.0, 0.0, 0.0, -5.0730215722207725e-26, -7.151920436575364e-34, 6.695147706896103e-07, 0.0, -1.6651888237837562e-38, -2.0869818014408715e-29, 0.0, 0.0, 0.0, 1.5268789061497375e-06]
---
header: 
  seq: 7451
  stamp: 
    secs: 1518210207
    nsecs: 612011194
  frame_id: "swarmone/map"
child_frame_id: "swarmone/base_link"
pose: 
  pose: 
    position: 
      x: 1.27442838786
      y: 5.87043064739
      z: 0.0
    orientation: 
      x: 0.0
      y: 0.0
      z: 0.710353500839
      w: 0.703845085119
  covariance: [1.9452606523129072, 0.016180574006517977, 0.0, 0.0, 0.0, 2.75768046848068e-14, 0.016180574006517966, 1.093490127054114, 0.0, 0.0, 0.0, -1.2547142571934702e-12, 0.0, 0.0, 6.720954316130977e-07, 4.2430224441196424e-14, 7.739412538339778e-18, 0.0, 0.0, 0.0, 4.2430224441196424e-14, 6.720954982584021e-07, -1.0017478218830346e-24, 0.0, 0.0, 0.0, 7.739412538339777e-18, -1.0017477107865593e-24, 6.720954982584076e-07, 0.0, 2.75768046848068e-14, -1.25471425719347e-12, 0.0, 0.0, 0.0, 7.848603623001612e-08]
twist: 
  twist: 
    linear: 
      x: -8.40151985322e-13
      y: 0.0509299434188
      z: 0.0
    angular: 
      x: 0.0
      y: 0.0
      z: 0.0400000002728
  covariance: [9.999999095656444e-10, -9.128103213983974e-14, 0.0, 0.0, 0.0, -3.6562949937272634e-29, -9.128103213983964e-14, 1.301974466892021, 0.0, 0.0, 0.0, -1.6774372784076667e-20, 0.0, 0.0, 9.411667885194904e-07, -4.4335052180710845e-28, -4.9141709631969917e-26, 0.0, 0.0, 0.0, -4.433505218071086e-28, 6.720954315957263e-07, -3.340294709614204e-34, 0.0, 0.0, 0.0, -4.914170963196991e-26, -3.2850822598767797e-34, 6.720954315957263e-07, 0.0, -3.656294993727262e-29, -1.6774372784076685e-20, 0.0, 0.0, 0.0, 1.5507207640589164e-06]
---
header: 
  seq: 7452
  stamp: 
    secs: 1518210207
    nsecs: 711780548
  frame_id: "swarmone/map"
child_frame_id: "swarmone/base_link"
pose: 
  pose: 
    position: 
      x: 1.26933636999
      y: 5.87038355034
      z: 0.0
    orientation: 
