header: 
  seq: 2502
  stamp: 
    secs: 1518209712
    nsecs: 711974621
  frame_id: "swarmone/map"
child_frame_id: "swarmone/base_link"
pose: 
  pose: 
    position: 
      x: 1.03674181743
      y: -0.393811205812
      z: 0.0
    orientation: 
      x: 0.0
      y: 0.0
      z: 0.670587413694
      w: 0.741830520129
  covariance: [2.726631095105023, -0.14578749526377482, 0.0, 0.0, 0.0, 2.631407506409673e-16, -0.14578749526377477, 1.3401429725414489, 0.0, 0.0, 0.0, 2.7393502824561774e-15, 0.0, 0.0, 6.844335675706626e-07, -6.808351206771931e-14, 2.667541749474528e-19, 0.0, 0.0, 0.0, -6.808351206771934e-14, 6.844336337069967e-07, 5.783736008088922e-26, 0.0, 0.0, 0.0, 2.6675417494745275e-19, 5.783779220205613e-26, 6.844336337070114e-07, 0.0, 2.6314075064096737e-16, 2.7393502824561774e-15, 0.0, 0.0, 0.0, 8.444650067013967e-08]
twist: 
  twist: 
    linear: 
      x: -2.8765148415e-14
      y: -0.0819341713217
      z: 0.0
    angular: 
      x: 0.0
      y: 0.0
      z: 0.0399999999995
  covariance: [9.999999086645248e-10, 4.331966806599719e-13, 0.0, 0.0, 0.0, 3.9106532614762484e-36, 4.33196680659973e-13, 1.597117438108019, 0.0, 0.0, 0.0, -6.96504774566355e-27, 0.0, 0.0, 9.450226171972685e-07, -8.275340933947414e-27, 8.182423773163437e-26, 0.0, 0.0, 0.0, -8.275340933947414e-27, 6.84433567552541e-07, 1.0205085584694408e-32, 0.0, 0.0, 0.0, 8.182423773163441e-26, 1.0236119110066697e-32, 6.84433567552541e-07, 0.0, 3.9106532614762504e-36, -6.965047745663541e-27, 0.0, 0.0, 0.0, 1.6699300536101495e-06]
---
header: 
  seq: 2503
  stamp: 
    secs: 1518209712
    nsecs: 812720537
  frame_id: "swarmone/map"
child_frame_id: "swarmone/base_link"
pose: 
  pose: 
    position: 
      x: 1.04131386057
      y: -0.394316937137
      z: 0.0
    orientation: 
      x: 0.0
      y: 0.0
      z: 0.674288281434
      w: 0.738468221063
  covariance: [2.2707168895654974, -0.11162931745211736, 0.0, 0.0, 0.0, 4.755043528655363e-14, -0.11162931745211735, 1.2193804444335248, 0.0, 0.0, 0.0, 4.885699636765754e-13, 0.0, 0.0, 7.164066298927241e-07, -6.51957961936597e-14, 2.4832225621929625e-19, 0.0, 0.0, 0.0, -6.519579619365969e-14, 7.164067110105011e-07, 5.765471859215552e-26, 0.0, 0.0, 0.0, 2.4832225621929625e-19, 5.765468368630415e-26, 7.16406711010516e-07, 0.0, 4.755043528655363e-14, 4.885699636765754e-13, 0.0, 0.0, 0.0, 1.0232789413348173e-07]
twist: 
  twist: 
    linear: 
      x: -2.66501769201e-14
      y: -0.0800325988125
      z: 0.0
    angular: 
      x: 0.0
      y: 0.0
      z: 0.0499999990791
  covariance: [9.999999101938527e-10, 4.937893073281314e-13, 0.0, 0.0, 0.0, 2.3155894447781138e-29, 4.937893073281321e-13, 1.4170830049805514, 0.0, 0.0, 0.0, -4.595485080010976e-20, 0.0, 0.0, 9.540558167434918e-07, -7.898141749449986e-27, 8.675508002089453e-26, 0.0, 0.0, 0.0, -7.898141749449989e-27, 7.164066298721406e-07, 1.1571061846412411e-32, 0.0, 0.0, 0.0, 8.675508002089458e-26, 1.1365577739860374e-32, 7.164066298721406e-07, 0.0, 2.3155894447781135e-29, -4.595485080010986e-20, 0.0, 0.0, 0.0, 2.027557922263944e-06]
---
header: 
  seq: 2504
  stamp: 
    secs: 1518209712
    nsecs: 912202358
  frame_id: "swarmone/map"
child_frame_id: "swarmone/base_link"
pose: 
  pose: 
    position: 
      x: 1.04925718674
      y: -0.395040156603
      z: 0.0
    orientation: 
      x: 0.0
      y: 0.0
      z: 0.674288193502
      w: 0.738468301353
  covariance: [2.567718549521444, -0.13506104559380896, 0.0, 0.0, 0.0, 2.860193722955353e-16, -0.13506104559380888, 1.3007940171689456, 0.0, 0.0, 0.0, 3.1413249401424654e-15, 0.0, 0.0, 7.044464532529449e-07, -6.607397462299839e-14, 2.230259539782209e-19, 0.0, 0.0, 0.0, -6.607397462299839e-14, 7.044465187887621e-07, 5.0189214550935394e-26, 0.0, 0.0, 0.0, 2.2302595397822087e-19, 5.01883994897064e-26, 7.044465187887769e-07, 0.0, 2.860193722955353e-16, 3.1413249401424657e-15, 0.0, 0.0, 0.0, 9.517533673517243e-08]
twist: 
  twist: 
    linear: 
      x: -2.41275139622e-14
      y: -0.0803219622514
      z: 0.0
    angular: 
      x: 0.0
      y: 0.0
      z: 0.040000001005
  covariance: [9.99999908941792e-10, 4.538528491342856e-13, 0.0, 0.0, 0.0, 2.246889753651822e-36, 4.538528491342864e-13, 1.5361636116282564, 0.0, 0.0, 0.0, -5.034864688040394e-27, 0.0, 0.0, 9.508238607346571e-07, -7.721592012560869e-27, 8.481238434227797e-26, 0.0, 0.0, 0.0, -7.721592012560869e-27, 7.044464532333597e-07, 1.0422978827663828e-32, 0.0, 0.0, 0.0, 8.481238434227796e-26, 1.0276043811640131e-32, 7.044464532333597e-07, 0.0, 2.2468897536518217e-36, -5.0348646880404044e-27, 0.0, 0.0, 0.0, 1.8845067748018244e-06]
---
header: 
  seq: 2505
  stamp: 
    secs: 1518209713
    nsecs:  12616634
  frame_id: "swarmone/map"
child_frame_id: "swarmone/base_link"
pose: 
  pose: 
    position: 
      x: 1.0573040389
      y: -0.395772800645
      z: 0.0
    orientation: 
      x: 0.0
      y: 0.0
      z: 0.674288205089
      w: 0.738468290774
  covariance: [2.9070494737221644, -0.1622417035672085, 0.0, 0.0, 0.0, 2.5387438930083156e-16, -0.16224170356720846, 1.3832868329134187, 0.0, 0.0, 0.0, 2.788344257546699e-15, 0.0, 0.0, 6.746420282895119e-07, -6.713914355171324e-14, 2.0709291078925571e-19, 0.0, 0.0, 0.0, -6.713914355171323e-14, 6.746421112282426e-07, 4.3044392403636087e-26, 0.0, 0.0, 0.0, 2.0709291078925576e-19, 4.3046087011797864e-26, 6.746421112282564e-07, 0.0, 2.5387438930083156e-16, 2.7883442575466993e-15, 0.0, 0.0, 0.0, 7.967812911215932e-08]
twist: 
  twist: 
    linear: 
      x: -2.18346638542e-14
      y: -0.0806140379471
      z: 0.0
    angular: 
      x: 0.0
      y: 0.0
      z: 0.049999999004
  covariance: [9.999999098762617e-10, 4.1693891485721884e-13, 0.0, 0.0, 0.0, 4.363459608432837e-43, 4.1693891485721934e-13, 1.6633938455238306, 0.0, 0.0, 0.0, -1.1041617700923312e-33, 0.0, 0.0, 9.419806317646577e-07, -7.112736300188364e-27, 7.812458533653379e-26, 0.0, 0.0, 0.0, -7.112736300188364e-27, 6.746420282720505e-07, 8.131572841695103e-33, 0.0, 0.0, 0.0, 7.812458533653375e-26, 8.264536718490633e-33, 6.746420282720505e-07, 0.0, 4.363459608432839e-43, -1.1041617700923334e-33, 0.0, 0.0, 0.0, 1.5745626219707283e-06]
---
header: 
  seq: 2506
  stamp: 
    secs: 1518209713
    nsecs: 112105370
  frame_id: "swarmone/map"
child_frame_id: "swarmone/base_link"
pose: 
  pose: 
    position: 
      x: 1.061928512
      y: -0.396310408019
      z: 0.0
    orientation: 
      x: 0.0
      y: 0.0
      z: 0.674288401746
      w: 0.738468111208
  covariance: [2.416430401603203, -0.12304114509943155, 0.0, 0.0, 0.0, 1.694013703553096e-13, -0.1230411450994315, 1.2607082670249885, 0.0, 0.0, 0.0, 1.9080362470438228e-12, 0.0, 0.0, 6.820392550511828e-07, -6.557140861305417e-14, 2.1312700082272437e-19, 0.0, 0.0, 0.0, -6.557140861305417e-14, 6.820393875471754e-07, 4.465568754423609e-26, 0.0, 0.0, 0.0, 2.1312700082272432e-19, 4.4654687432689447e-26, 6.820393875471888e-07, 0.0, 1.6940137035530957e-13, 1.9080362470438228e-12, 0.0, 0.0, 0.0, 8.325440780919398e-08]
twist: 
  twist: 
    linear: 
      x: -2.23539110916e-14
      y: -0.0788539800561
      z: 0.0
    angular: 
      x: 0.0
      y: 0.0
      z: 0.0799999967055
  covariance: [9.999999090771217e-10, 4.745778250435035e-13, 0.0, 0.0, 0.0, 3.9147766547961364e-29, 4.745778250435043e-13, 1.475764047235605, 0.0, 0.0, 0.0, -5.884233525704956e-20, 0.0, 0.0, 9.442924164983569e-07, -7.124332423308851e-27, 7.825213809608549e-26, 0.0, 0.0, 0.0, -7.124332423308848e-27, 6.820392550330933e-07, 8.435716960517991e-33, 0.0, 0.0, 0.0, 7.825213809608547e-26, 8.408325714992525e-33, 6.820392550330933e-07, 0.0, 3.914776654796135e-29, -5.884233525704948e-20, 0.0, 0.0, 0.0, 1.6460881956990627e-06]
---
header: 
  seq: 2507
  stamp: 
    secs: 1518209713
    nsecs: 212330341
  frame_id: "swarmone/map"
child_frame_id: "swarmone/base_link"
pose: 
  pose: 
    position: 
      x: 1.06981078804
      y: -0.397028040259
      z: 0.0
    orientation: 
      x: 0.0
      y: 0.0
      z: 0.677972011425
      w: 0.735087717027
  covariance: [2.7351059411147616, -0.14838198545753897, 0.0, 0.0, 0.0, 2.3672696203892713e-16, -0.14838198545753895, 1.3428848018576043, 0.0, 0.0, 0.0, 2.760236226360933e-15, 0.0, 0.0, 7.002216663307865e-07, -6.523784984026683e-14, 1.8836025253253774e-19, 0.0, 0.0, 0.0, -6.523784984026683e-14, 7.002217156607377e-07, 4.1467468907692996e-26, 0.0, 0.0, 0.0, 1.8836025253253774e-19, 4.146735535930639e-26, 7.00221715660752e-07, 0.0, 2.3672696203892713e-16, 2.760236226360933e-15, 0.0, 0.0, 0.0, 9.279115095896372e-08]
twist: 
  twist: 
    linear: 
      x: -2.02159445579e-14
      y: -0.0790882285519
      z: 0.0
    angular: 
      x: 0.0
      y: 0.0
      z: 0.0300000049889
  covariance: [9.999999096669503e-10, 4.357323736426407e-13, 0.0, 0.0, 0.0, 3.579526094072981e-36, 4.3573237364264156e-13, 1.599243683954734, 0.0, 0.0, 0.0, -6.066825928678708e-27, 0.0, 0.0, 9.496430398946355e-07, -6.696039943627812e-27, 8.269870186619037e-26, 0.0, 0.0, 0.0, -6.69603994362781e-27, 7.002216663115394e-07, 8.671601865869951e-33, 0.0, 0.0, 0.0, 8.269870186619037e-26, 8.638192357915152e-33, 7.002216663115394e-07, 0.0, 3.579526094072982e-36, -6.066825928678698e-27, 0.0, 0.0, 0.0, 1.8368230589822539e-06]
---
header: 
  seq: 2508
  stamp: 
    secs: 1518209713
    nsecs: 312751532
  frame_id: "swarmone/map"
child_frame_id: "swarmone/base_link"
pose: 
  pose: 
    position: 
      x: 1.07510172242
      y: -0.396083026545
      z: 0.0
    orientation: 
      x: 0.0
      y: 0.0
      z: 0.67428816068
      w: 0.738468331323
  covariance: [2.2756367681354437, -0.11088327366225789, 0.0, 0.0, 0.0, 2.940341331199738e-14, -0.11088327366225786, 1.2209064065858277, 0.0, 0.0, 0.0, 3.7621484005266285e-13, 0.0, 0.0, 6.795648355244048e-07, -6.462342455430518e-14, -8.261415762378098e-20, 0.0, 0.0, 0.0, -6.462342455430516e-14, 6.795649018002379e-07, -1.6339507805770376e-26, 0.0, 0.0, 0.0, -8.261415762378094e-20, -1.6339929428001978e-26, 6.79564901800251e-07, 0.0, 2.940341331199738e-14, 3.762148400526629e-13, 0.0, 0.0, 0.0, 8.206231490334941e-08]
twist: 
  twist: 
    linear: 
      x: 9.4114805122e-15
      y: -0.0776702102914
      z: 0.0
    angular: 
      x: 0.0
      y: 0.0
      z: 0.0399999988782
  covariance: [9.999999098745393e-10, 4.936104866672649e-13, 0.0, 0.0, 0.0, 1.9780365145218883e-29, 4.936104866672656e-13, 1.4176826302133698, 0.0, 0.0, 0.0, -1.7718121659833008e-20, 0.0, 0.0, 9.435424224394358e-07, -6.960533736194792e-27, 7.644964188094238e-26, 0.0, 0.0, 0.0, -6.960533736194792e-27, 6.795648355064906e-07, 8.461463305902175e-33, 0.0, 0.0, 0.0, 7.644964188094238e-26, 8.225029313763444e-33, 6.795648355064906e-07, 0.0, 1.9780365145218886e-29, -1.7718121659833017e-20, 0.0, 0.0, 0.0, 1.622246337791e-06]
---
header: 
  seq: 2509
  stamp: 
    secs: 1518209713
    nsecs: 412224531
  frame_id: "swarmone/map"
child_frame_id: "swarmone/base_link"
pose: 
  pose: 
    position: 
      x: 1.08280518099
      y: -0.396784423974
      z: 0.0
    orientation: 
      x: 0.0
      y: 0.0
      z: 0.670587406601
      w: 0.741830526541
  covariance: [2.572961211656039, -0.13423605543019682, 0.0, 0.0, 0.0, 2.427686250566388e-16, -0.1342360554301968, 1.302295898649308, 0.0, 0.0, 0.0, 2.5273550869346914e-15, 0.0, 0.0, 6.796125828681735e-07, -6.478117545508642e-14, -7.313474619714212e-20, 0.0, 0.0, 0.0, -6.478117545508641e-14, 6.796126490929667e-07, -1.45261071922803e-26, 0.0, 0.0, 0.0, -7.313474619714212e-20, -1.4526927420767054e-26, 6.796126490929798e-07, 0.0, 2.4276862505663883e-16, 2.527355086934692e-15, 0.0, 0.0, 0.0, 8.206231488427119e-08]
twist: 
  twist: 
    linear: 
      x: 8.52148557741e-15
      y: -0.0778558874019
      z: 0.0
    angular: 
      x: 0.0
      y: 0.0
      z: 0.0399999999995
  covariance: [9.99999908934683e-10, 4.53755109293822e-13, 0.0, 0.0, 0.0, 1.9209681088481872e-36, 4.5375510929382253e-13, 1.536777830773857, 0.0, 0.0, 0.0, -1.9297890416314836e-27, 0.0, 0.0, 9.435425710972389e-07, -7.74744773788601e-27, 7.660072916748504e-26, 0.0, 0.0, 0.0, -7.747447737886005e-27, 6.796125828503988e-07, 8.871766469877577e-33, 0.0, 0.0, 0.0, 7.660072916748502e-26, 8.818891548722511e-33, 6.796125828503988e-07, 0.0, 1.9209681088481875e-36, -1.9297890416314836e-27, 0.0, 0.0, 0.0, 1.6222463377900954e-06]
---
header: 
  seq: 2510
  stamp: 
    secs: 1518209713
    nsecs: 512768030
  frame_id: "swarmone/map"
child_frame_id: "swarmone/base_link"
pose: 
  pose: 
    position: 
      x: 1.09060274224
      y: -0.397573034443
      z: 0.0
    orientation: 
      x: 0.0
      y: 0.0
      z: 0.674288150207
      w: 0.738468340886
  covariance: [2.9127842441778475, -0.16313857049879005, 0.0, 0.0, 0.0, 2.451189958174053e-16, -0.16313857049879002, 1.385126960410091, 0.0, 0.0, 0.0, 2.5512008602640116e-15, 0.0, 0.0, 6.820413787924494e-07, -6.489704824642975e-14, -6.682793223519425e-20, 0.0, 0.0, 0.0, -6.489704824642974e-14, 6.820414450397789e-07, -1.3352164848824234e-26, 0.0, 0.0, 0.0, -6.682793223519424e-20, -1.3353494758804225e-26, 6.820414450397922e-07, 0.0, 2.451189958174053e-16, 2.5512008602640116e-15, 0.0, 0.0, 0.0, 8.325440780118898e-08]
twist: 
  twist: 
    linear: 
      x: 7.71062255166e-15
      y: -0.0780435627088
      z: 0.0
    angular: 
      x: 0.0
      y: 0.0
      z: 0.0400000000002
  covariance: [9.999999100045086e-10, 4.1681763701402547e-13, 0.0, 0.0, 0.0, 3.8974569749802165e-43, 4.168176370140259e-13, 1.664202340594788, 0.0, 0.0, 0.0, -4.393694757720765e-34, 0.0, 0.0, 9.442924230201657e-07, -7.051176507594994e-27, 7.744529963345742e-26, 0.0, 0.0, 0.0, -7.051176507594994e-27, 6.820413787745064e-07, 8.289091082519434e-33, 0.0, 0.0, 0.0, 7.74452996334574e-26, 8.06782700335244e-33, 6.820413787745064e-07, 0.0, 3.89745697498022e-43, -4.393694757720766e-34, 0.0, 0.0, 0.0, 1.6460881957013217e-06]
---
header: 
  seq: 2511
  stamp: 
    secs: 1518209713
    nsecs: 612249136
  frame_id: "swarmone/map"
child_frame_id: "swarmone/base_link"
pose: 
  pose: 
    position: 
      x: 1.0959377575
      y: -0.396984383706
      z: 0.0
    orientation: 
      x: 0.0
      y: 0.0
      z: 0.674288091304
      w: 0.738468394669
  covariance: [2.4154245074592176, -0.12328602929759072, 0.0, 0.0, 0.0, 1.6596771182994992e-13, -0.12328602929759072, 1.2608887337553132, 0.0, 0.0, 0.0, 1.8602812575563734e-12, 0.0, 0.0, 6.771442289862312e-07, -6.389314889243793e-14, -2.5090881323327263e-19, 0.0, 0.0, 0.0, -6.389314889243793e-14, 6.771442787299013e-07, -4.911726051832443e-26, 0.0, 0.0, 0.0, -2.509088132332726e-19, -4.911755635488163e-26, 6.771442787299139e-07, 0.0, 1.6596771182994994e-13, 1.8602812575563738e-12, 0.0, 0.0, 0.0, 8.087022201768567e-08]
twist: 
  twist: 
    linear: 
      x: 2.77887942891e-14
      y: -0.076748020525
      z: 0.0
    angular: 
      x: 0.0
      y: 0.0
      z: 0.0300000008226
  covariance: [9.99999909070144e-10, 4.778571711298799e-13, 0.0, 0.0, 0.0, 4.0319074954229295e-29, 4.778571711298801e-13, 1.474427577807235, 0.0, 0.0, 0.0, -5.98322818325014e-20, 0.0, 0.0, 9.427722501668864e-07, -6.828134104453859e-27, 7.499280220777594e-26, 0.0, 0.0, 0.0, -6.828134104453859e-27, 6.771442289684785e-07, 7.684308646634126e-33, 0.0, 0.0, 0.0, 7.499280220777598e-26, 7.58279743343016e-33, 6.771442289684785e-07, 0.0, 4.03190749542293e-29, -5.983228183250164e-20, 0.0, 0.0, 0.0, 1.5984044798787402e-06]
---
header: 
  seq: 2512
  stamp: 
    secs: 1518209713
    nsecs: 712805510
  frame_id: "swarmone/map"
child_frame_id: "swarmone/base_link"
pose: 
  pose: 
    position: 
      x: 1.10363077628
      y: -0.397684801004
      z: 0.0
    orientation: 
      x: 0.0
      y: 0.0
      z: 0.674288607538
      w: 0.738467923301
  covariance: [2.734832409194517, -0.14872273107197587, 0.0, 0.0, 0.0, 4.404192751191504e-16, -0.1487227310719758, 1.3433419303535818, 0.0, 0.0, 0.0, 4.8375425099876966e-15, 0.0, 0.0, 8.386269383023048e-07, -4.702322268570054e-14, -1.62549161128827e-19, 0.0, 0.0, 0.0, -4.702322268570052e-14, 8.386269870210014e-07, -4.7318378259084895e-26, 0.0, 0.0, 0.0, -1.6254916112882699e-19, -4.7318165787162806e-26, 8.386269870210151e-07, 0.0, 4.4041927511915034e-16, 4.837542509987696e-15, 0.0, 0.0, 0.0, 2.3584229842776958e-07]
twist: 
  twist: 
    linear: 
      x: 2.5122629815e-14
      y: -0.0768939161673
      z: 0.0
    angular: 
      x: 0.0
      y: 0.0
      z: 0.0399999990051
  covariance: [9.999999099937973e-10, 4.3865172081391613e-13, 0.0, 0.0, 0.0, 3.6728509429641106e-36, 4.3865172081391644e-13, 1.5982465414268692, 0.0, 0.0, 0.0, -6.1470948921860394e-27, 0.0, 0.0, 9.793680251118755e-07, -7.828388809673098e-27, 8.597888263431264e-26, 0.0, 0.0, 0.0, -7.828388809673096e-27, 8.386269382707864e-07, 1.7487506661848867e-32, 0.0, 0.0, 0.0, 8.597888263431262e-26, 1.8038217979067085e-32, 8.386269382707864e-07, 0.0, 3.6728509429641127e-36, -6.1470948921860645e-27, 0.0, 0.0, 0.0, 4.697846008201304e-06]
---
header: 
  seq: 2513
  stamp: 
    secs: 1518209713
    nsecs: 812204361
  frame_id: "swarmone/map"
child_frame_id: "swarmone/base_link"
pose: 
  pose: 
    position: 
      x: 1.10972538477
      y: -0.394269356123
      z: 0.0
    orientation: 
      x: 0.0
      y: 0.0
      z: 0.67058741014
      w: 0.741830523342
  covariance: [2.2677056720363242, -0.11173813938613723, 0.0, 0.0, 0.0, 2.947306458574622e-14, -0.11173813938613723, 1.2192400027328236, 0.0, 0.0, 0.0, 3.3756004454567763e-13, 0.0, 0.0, 6.819893106261606e-07, -6.321135944656548e-14, -9.514909282390104e-19, 0.0, 0.0, 0.0, -6.321135944656547e-14, 6.819893768060255e-07, -1.8908620240175568e-25, 0.0, 0.0, 0.0, -9.514909282390106e-19, -1.8908685965013634e-25, 6.819893768060381e-07, 0.0, 2.947306458574622e-14, 3.3756004454567773e-13, 0.0, 0.0, 0.0, 8.32544077790493e-08]
twist: 
  twist: 
    linear: 
      x: 1.04834683584e-13
      y: -0.0760216297961
      z: 0.0
    angular: 
      x: 0.0
      y: 0.0
      z: 0.039999999875
  covariance: [9.999999088601996e-10, 5.020006024632732e-13, 0.0, 0.0, 0.0, 4.5391087941333424e-29, 5.020006024632737e-13, 1.414290479315095, 0.0, 0.0, 0.0, -6.338598485430633e-20, 0.0, 0.0, 9.442922627264761e-07, -7.618324371203392e-27, 7.531381968164875e-26, 0.0, 0.0, 0.0, -7.61832437120339e-27, 6.819893106080849e-07, 8.99144103524792e-33, 0.0, 0.0, 0.0, 7.531381968164872e-26, 9.090320186428706e-33, 6.819893106080849e-07, 0.0, 4.539108794133343e-29, -6.33859848543064e-20, 0.0, 0.0, 0.0, 1.6460881957001677e-06]
---
header: 
  seq: 2514
  stamp: 
    secs: 1518209713
    nsecs: 912738323
  frame_id: "swarmone/map"
child_frame_id: "swarmone/base_link"
pose: 
  pose: 
    position: 
      x: 1.11733515403
      y: -0.395038951363
      z: 0.0
    orientation: 
      x: 0.0
      y: 0.0
      z: 0.674288153727
      w: 0.738468337671
  covariance: [2.5669056984943013, -0.136963210964009, 0.0, 0.0, 0.0, 2.426925597029509e-16, -0.136963210964009, 1.3017340697709476, 0.0, 0.0, 0.0, 2.5262302428728657e-15, 0.0, 0.0, 6.84433600414373e-07, -6.326685948477903e-14, -8.709821449980088e-19, 0.0, 0.0, 0.0, -6.326685948477902e-14, 6.844336666143055e-07, -1.7435467816823976e-25, 0.0, 0.0, 0.0, -8.709821449980084e-19, -1.7435428738690326e-25, 6.844336666143182e-07, 0.0, 2.4269255970295096e-16, 2.526230242872866e-15, 0.0, 0.0, 0.0, 8.444650069651695e-08]
twist: 
  twist: 
    linear: 
      x: 9.48292002801e-14
      y: -0.0761376089279
      z: 0.0
    angular: 
      x: 0.0
      y: 0.0
      z: 0.0400000000002
  covariance: [9.999999099868055e-10, 4.611362376855452e-13, 0.0, 0.0, 0.0, 4.386270334431248e-36, 4.611362376855458e-13, 1.534502615178095, 0.0, 0.0, 0.0, -6.90592418777429e-27, 0.0, 0.0, 9.450226172969781e-07, -6.930445376072066e-27, 7.610854098484652e-26, 0.0, 0.0, 0.0, -6.930445376072066e-27, 6.844336003962654e-07, 7.873099307941349e-33, 0.0, 0.0, 0.0, 7.610854098484656e-26, 8.108848804538122e-33, 6.844336003962654e-07, 0.0, 4.3862703344312495e-36, -6.905924187774299e-27, 0.0, 0.0, 0.0, 1.6699300536114684e-06]
---
header: 
  seq: 2515
  stamp: 
    secs: 1518209714
    nsecs:  12233496
  frame_id: "swarmone/map"
child_frame_id: "swarmone/base_link"
pose: 
  pose: 
    position: 
      x: 1.12488496059
      y: -0.395726342382
      z: 0.0
    orientation: 
      x: 0.0
      y: 0.0
      z: 0.670587406599
      w: 0.741830526543
  covariance: [2.9024177411417176, -0.1640308702618945, 0.0, 0.0, 0.0, 2.410332521013031e-16, -0.16403087026189453, 1.3835022329635016, 0.0, 0.0, 0.0, 2.511285683712225e-15, 0.0, 0.0, 6.796125834444067e-07, -6.344697535386694e-14, -7.803587786487776e-19, 0.0, 0.0, 0.0, -6.344697535386694e-14, 6.796126496692224e-07, -1.5428711139970955e-25, 0.0, 0.0, 0.0, -7.803587786487778e-19, -1.5428617224828478e-25, 6.79612649669235e-07, 0.0, 2.410332521013031e-16, 2.5112856837122254e-15, 0.0, 0.0, 0.0, 8.20623148847308e-08]
twist: 
  twist: 
    linear: 
      x: 8.58895224399e-14
      y: -0.0762523896059
      z: 0.0
    angular: 
      x: 0.0
      y: 0.0
      z: 0.0399999999995
  covariance: [9.99999908967445e-10, 4.239808240192922e-13, 0.0, 0.0, 0.0, 9.573757943028292e-43, 4.239808240192926e-13, 1.6604424360935084, 0.0, 0.0, 0.0, -1.696293187274637e-33, 0.0, 0.0, 9.435425710990248e-07, -7.588726427086176e-27, 7.50230493312119e-26, 0.0, 0.0, 0.0, -7.58872642708618e-27, 6.796125834266313e-07, 8.502657819205027e-33, 0.0, 0.0, 0.0, 7.502304933121188e-26, 8.487376135709482e-33, 6.796125834266313e-07, 0.0, 9.573757943028292e-43, -1.6962931872746388e-33, 0.0, 0.0, 0.0, 1.6222463377901182e-06]
---
header: 
  seq: 2516
  stamp: 
    secs: 1518209714
    nsecs: 112755537
  frame_id: "swarmone/map"
child_frame_id: "swarmone/base_link"
pose: 
  pose: 
    position: 
      x: 1.13141119268
      y: -0.391477134977
      z: 0.0
    orientation: 
      x: 0.0
      y: 0.0
      z: 0.674288211195
      w: 0.738468285198
  covariance: [2.410711571859295, -0.12555714101096094, 0.0, 0.0, 0.0, 1.817081938012342e-13, -0.12555714101096102, 1.2604000727546971, 0.0, 0.0, 0.0, 1.8288640327758777e-12, 0.0, 0.0, 6.820394571502628e-07, -6.286630170972108e-14, -1.5996723717589433e-18, 0.0, 0.0, 0.0, -6.28663017097211e-14, 6.820395399604186e-07, -3.157570698807881e-25, 0.0, 0.0, 0.0, -1.5996723717589436e-18, -3.1575728874809723e-25, 6.82039539960431e-07, 0.0, 1.817081938012342e-13, 1.8288640327758773e-12, 0.0, 0.0, 0.0, 8.325440783194171e-08]
twist: 
  twist: 
    linear: 
      x: 1.73534619342e-13
      y: -0.0756009024372
      z: 0.0
    angular: 
      x: 0.0
      y: 0.0
      z: 0.0499999992824
  covariance: [9.99999910106442e-10, 4.851680288650501e-13, 0.0, 0.0, 0.0, 3.6832064349427135e-29, 4.851680288650505e-13, 1.4736657908773207, 0.0, 0.0, 0.0, -7.422432261934853e-20, 0.0, 0.0, 9.442924171190211e-07, -6.83259544007891e-27, 7.502389345927768e-26, 0.0, 0.0, 0.0, -6.832595440078907e-27, 6.8203945713218e-07, 7.797119665446436e-33, 0.0, 0.0, 0.0, 7.502389345927772e-26, 7.691002696931515e-33, 6.8203945713218e-07, 0.0, 3.6832064349427124e-29, -7.422432261934856e-20, 0.0, 0.0, 0.0, 1.6460881957001067e-06]
---
header: 
  seq: 2517
  stamp: 
    secs: 1518209714
    nsecs: 212243795
  frame_id: "swarmone/map"
child_frame_id: "swarmone/base_link"
pose: 
  pose: 
    position: 
      x: 1.13890617684
      y: -0.392159589207
      z: 0.0
    orientation: 
      x: 0.0
      y: 0.0
      z: 0.659384946143
      w: 0.751805488673
  covariance: [2.725980003588019, -0.15091221711729338, 0.0, 0.0, 0.0, 2.722059489665652e-16, -0.15091221711729344, 1.3420176721410424, 0.0, 0.0, 0.0, 2.4566154698383956e-15, 0.0, 0.0, 6.771464238492272e-07, -6.301448636821743e-14, -1.4297441991135807e-18, 0.0, 0.0, 0.0, -6.301448636821743e-14, 6.771464898780915e-07, -2.78749226162109e-25, 0.0, 0.0, 0.0, -1.4297441991135803e-18, -2.7874934688431557e-25, 6.771464898781038e-07, 0.0, 2.722059489665652e-16, 2.456615469838396e-15, 0.0, 0.0, 0.0, 8.087022198907466e-08]
twist: 
  twist: 
    linear: 
      x: 1.57048959603e-13
      y: -0.0756931579726
      z: 0.0
    angular: 
      x: 0.0
      y: 0.0
      z: 0.0400000010037
  covariance: [9.999999089364867e-10, 4.457600097251927e-13, 0.0, 0.0, 0.0, 3.394989150964374e-36, 4.457600097251929e-13, 1.5961191131145591, 0.0, 0.0, 0.0, -7.721118723612826e-27, 0.0, 0.0, 9.427722570659486e-07, -9.687681555004644e-27, 7.363014532375719e-26, 0.0, 0.0, 0.0, -9.687681555004642e-27, 6.771464238316236e-07, 1.0621525950356869e-32, 0.0, 0.0, 0.0, 7.363014532375721e-26, 1.0551484820378518e-32, 6.771464238316236e-07, 0.0, 3.3949891509643736e-36, -7.721118723612829e-27, 0.0, 0.0, 0.0, 1.5984044798799549e-06]
---
header: 
  seq: 2518
  stamp: 
    secs: 1518209714
    nsecs: 312718153
  frame_id: "swarmone/map"
child_frame_id: "swarmone/base_link"
pose: 
  pose: 
    position: 
      x: 1.14570173042
      y: -0.387329179611
      z: 0.0
    orientation: 
      x: 0.0
      y: 0.0
      z: 0.66686990386
      w: 0.74517416174
  covariance: [2.2611833537827346, -0.11806819740215486, 0.0, 0.0, 0.0, 5.848095063195469e-14, -0.11806819740215484, 1.2188733558859135, 0.0, 0.0, 0.0, 4.581709253264497e-13, 0.0, 0.0, 7.044153087775519e-07, -6.185481421480409e-14, -2.3728156463410414e-18, 0.0, 0.0, 0.0, -6.185481421480409e-14, 7.044153741734309e-07, -4.9661596377006815e-25, 0.0, 0.0, 0.0, -2.3728156463410407e-18, -4.966159438351429e-25, 7.044153741734439e-07, 0.0, 5.84809506319547e-14, 4.581709253264496e-13, 0.0, 0.0, 0.0, 9.51753367550258e-08]
twist: 
  twist: 
    linear: 
      x: 2.60521829143e-13
      y: -0.0752017871051
      z: 0.0
    angular: 
      x: 0.0
      y: 0.0
      z: 0.0400000001949
  covariance: [9.999999099288483e-10, 5.203891122071627e-13, 0.0, 0.0, 0.0, 2.0707158529221545e-29, 5.203891122071627e-13, 1.4138014870646982, 0.0, 0.0, 0.0, -7.003985503498401e-20, 0.0, 0.0, 9.508237743317837e-07, -8.810624131335818e-27, 7.917187389239257e-26, 0.0, 0.0, 0.0, -8.810624131335819e-27, 7.044153087578823e-07, 1.144578548630133e-32, 0.0, 0.0, 0.0, 7.917187389239255e-26, 1.137574787366449e-32, 7.044153087578823e-07, 0.0, 2.0707158529221542e-29, -7.00398550349841e-20, 0.0, 0.0, 0.0, 1.8845067748027386e-06]
---
header: 
  seq: 2519
  stamp: 
    secs: 1518209714
    nsecs: 412175655
  frame_id: "swarmone/map"
child_frame_id: "swarmone/base_link"
pose: 
  pose: 
    position: 
      x: 1.1531389259
      y: -0.388156497084
      z: 0.0
    orientation: 
      x: 0.0
      y: 0.0
      z: 0.670587391685
      w: 0.741830540025
  covariance: [2.556024622472812, -0.14515153168354167, 0.0, 0.0, 0.0, 2.8117335820485824e-16, -0.14515153168354158, 1.300841712754572, 0.0, 0.0, 0.0, 2.6382054660161924e-15, 0.0, 0.0, 6.79612582472622e-07, -6.26345343839559e-14, -2.1498251987956406e-18, 0.0, 0.0, 0.0, -6.263453438395588e-14, 6.796126486975136e-07, -4.1997456513805955e-25, 0.0, 0.0, 0.0, -2.1498251987956402e-18, -4.19975496036829e-25, 6.796126486975259e-07, 0.0, 2.8117335820485824e-16, 2.638205466016192e-15, 0.0, 0.0, 0.0, 8.206231488402142e-08]
twist: 
  twist: 
    linear: 
      x: 2.35865700818e-13
      y: -0.0752759256324
      z: 0.0
    angular: 
      x: 0.0
      y: 0.0
      z: 0.0400000000002
  covariance: [9.999999089178783e-10, 4.783538312160404e-13, 0.0, 0.0, 0.0, 2.0007965724836443e-36, 4.783538312160406e-13, 1.532700418257606, 0.0, 0.0, 0.0, -7.654403276015149e-27, 0.0, 0.0, 9.435425710959909e-07, -7.493129305444097e-27, 7.406235312509779e-26, 0.0, 0.0, 0.0, -7.493129305444094e-27, 6.796125824548332e-07, 8.346339769361509e-33, 0.0, 0.0, 0.0, 7.406235312509772e-26, 8.237443214527454e-33, 6.796125824548332e-07, 0.0, 2.000796572483643e-36, -7.65440327601516e-27, 0.0, 0.0, 0.0, 1.6222463377900824e-06]
---
header: 
  seq: 2520
  stamp: 
    secs: 1518209714
    nsecs: 512743235
  frame_id: "swarmone/map"
child_frame_id: "swarmone/base_link"
pose: 
  pose: 
    position: 
      x: 1.16067457736
      y: -0.38891857138
      z: 0.0
    orientation: 
      x: 0.0
      y: 0.0
      z: 0.67428815373
      w: 0.738468337669
  covariance: [2.8939073609074493, -0.1750418505879909, 0.0, 0.0, 0.0, 2.3832190525066464e-16, -0.17504185058799082, 1.3839116587007472, 0.0, 0.0, 0.0, 2.4819431677341253e-15, 0.0, 0.0, 6.844336012416351e-07, -6.261313181830282e-14, -1.966571007509961e-18, 0.0, 0.0, 0.0, -6.26131318183028e-14, 6.844336674415609e-07, -3.899447138128049e-25, 0.0, 0.0, 0.0, -1.9665710075099615e-18, -3.899446932777026e-25, 6.844336674415734e-07, 0.0, 2.3832190525066464e-16, 2.4819431677341253e-15, 0.0, 0.0, 0.0, 8.444650069717628e-08]
twist: 
  twist: 
    linear: 
      x: 2.13419524651e-13
      y: -0.0753508914521
      z: 0.0
    angular: 
      x: 0.0
      y: 0.0
      z: 0.0400000000002
  covariance: [9.99999910027047e-10, 4.394325443163731e-13, 0.0, 0.0, 0.0, 3.59514239817795e-43, 4.394325443163732e-13, 1.6599724801216091, 0.0, 0.0, 0.0, -1.5560786179430366e-33, 0.0, 0.0, 9.450226172994913e-07, -6.860161829618154e-27, 7.532199123361414e-26, 0.0, 0.0, 0.0, -6.860161829618148e-27, 6.84433601223531e-07, 7.752308862887406e-33, 0.0, 0.0, 0.0, 7.53219912336141e-26, 7.810957214567245e-33, 6.84433601223531e-07, 0.0, 3.5951423981779495e-43, -1.556078617943039e-33, 0.0, 0.0, 0.0, 1.6699300536115014e-06]
---
header: 
  seq: 2521
  stamp: 
    secs: 1518209714
    nsecs: 612191677
  frame_id: "swarmone/map"
child_frame_id: "swarmone/base_link"
pose: 
  pose: 
    position: 
      x: 1.16784887143
      y: -0.381549552822
      z: 0.0
    orientation: 
      x: 0.0
      y: 0.0
      z: 0.670587402916
      w: 0.741830529872
  covariance: [2.3971080734071326, -0.13113541360079475, 0.0, 0.0, 0.0, 1.623407502235562e-13, -0.13113541360079461, 1.2579901916245522, 0.0, 0.0, 0.0, 1.82024462696782e-12, 0.0, 0.0, 6.77144220744436e-07, -6.250096449832244e-14, -3.2043520315249456e-18, 0.0, 0.0, 0.0, -6.250096449832244e-14, 6.771442870049741e-07, -6.199036673873453e-25, 0.0, 0.0, 0.0, -3.204352031524945e-18, -6.199030443219732e-25, 6.771442870049861e-07, 0.0, 1.6234075022355626e-13, 1.82024462696782e-12, 0.0, 0.0, 0.0, 8.087022201695055e-08]
twist: 
  twist: 
    linear: 
      x: 3.50671591035e-13
      y: -0.0750757247846
      z: 0.0
    angular: 
      x: 0.0
      y: 0.0
      z: 0.039999999316
  covariance: [9.99999909036422e-10, 5.104496044748286e-13, 0.0, 0.0, 0.0, 3.9778274688156644e-29, 5.104496044748284e-13, 1.4703748402005323, 0.0, 0.0, 0.0, -4.483470337288702e-20, 0.0, 0.0, 9.427722501409783e-07, -7.416055124797974e-27, 7.328795527020061e-26, 0.0, 0.0, 0.0, -7.416055124797977e-27, 6.771442207266868e-07, 8.087498735802264e-33, 0.0, 0.0, 0.0, 7.328795527020062e-26, 8.040131547197638e-33, 6.771442207266868e-07, 0.0, 3.9778274688156616e-29, -4.4834703372887335e-20, 0.0, 0.0, 0.0, 1.598404479878707e-06]
---
header: 
  seq: 2522
  stamp: 
    secs: 1518209714
    nsecs: 712733030
  frame_id: "swarmone/map"
child_frame_id: "swarmone/base_link"
pose: 
  pose: 
    position: 
      x: 1.17536192334
      y: -0.382309335032
      z: 0.0
    orientation: 
      x: 0.0
      y: 0.0
      z: 0.670587402681
      w: 0.741830530085
  covariance: [2.7140765649903433, -0.15890535031577163, 0.0, 0.0, 0.0, 2.4683291644576843e-16, -0.15890535031577144, 1.3408231691756898, 0.0, 0.0, 0.0, 2.4418232190950504e-15, 0.0, 0.0, 6.820413787381699e-07, -6.248136177490217e-14, -2.923581012969692e-18, 0.0, 0.0, 0.0, -6.248136177490221e-14, 6.820414449218687e-07, -5.742576656219192e-25, 0.0, 0.0, 0.0, -2.923581012969692e-18, -5.742578600262465e-25, 6.82041444921881e-07, 0.0, 2.4683291644576853e-16, 2.4418232190950504e-15, 0.0, 0.0, 0.0, 8.325440780114085e-08]
twist: 
  twist: 
    linear: 
      x: 3.1703336186e-13
      y: -0.0751385151741
      z: 0.0
    angular: 
      x: 0.0
      y: 0.0
      z: 0.0399999999999
  covariance: [9.999999099783658e-10, 4.685481677480308e-13, 0.0, 0.0, 0.0, 3.623105806247167e-36, 4.685481677480308e-13, 1.5939948123650594, 0.0, 0.0, 0.0, -4.583834549570409e-27, 0.0, 0.0, 9.442924230200009e-07, -7.537423948127428e-27, 7.449055214589509e-26, 0.0, 0.0, 0.0, -7.537423948127428e-27, 6.820413787202347e-07, 8.390667126144037e-33, 0.0, 0.0, 0.0, 7.449055214589511e-26, 8.403165613365333e-33, 6.820413787202347e-07, 0.0, 3.623105806247164e-36, -4.583834549570441e-27, 0.0, 0.0, 0.0, 1.6460881957013194e-06]
---
header: 
  seq: 2523
  stamp: 
    secs: 1518209714
    nsecs: 812170506
  frame_id: "swarmone/map"
child_frame_id: "swarmone/base_link"
pose: 
  pose: 
    position: 
      x: 1.18278351666
      y: -0.374620310822
      z: 0.0
    orientation: 
      x: 0.0
      y: 0.0
      z: 0.670587399143
      w: 0.741830533283
  covariance: [2.246283007236159, -0.119436165322366, 0.0, 0.0, 0.0, 4.330304986869102e-14, -0.11943616532236585, 1.214911477154741, 0.0, 0.0, 0.0, 4.448856169193889e-13, 0.0, 0.0, 6.795747351704707e-07, -6.240989744851733e-14, -4.2063562983540284e-18, 0.0, 0.0, 0.0, -6.240989744851734e-14, 6.79574801393468e-07, -8.202033625253622e-25, 0.0, 0.0, 0.0, -4.206356298354029e-18, -8.2020165169936115e-25, 6.795748013934801e-07, 0.0, 4.330304986869102e-14, 4.448856169193888e-13, 0.0, 0.0, 0.0, 8.206231488364767e-08]
twist: 
  twist: 
    linear: 
      x: 4.61129826306e-13
      y: -0.0750088259471
      z: 0.0
    angular: 
      x: 0.0
      y: 0.0
      z: 0.0399999999524
  covariance: [9.999999088998093e-10, 5.406608162548916e-13, 0.0, 0.0, 0.0, 2.0691410125770457e-29, 5.406608162548912e-13, 1.409892276665017, 0.0, 0.0, 0.0, -3.3530456595765277e-20, 0.0, 0.0, 9.435424533190984e-07, -7.465857658761049e-27, 7.376823563797623e-26, 0.0, 0.0, 0.0, -7.465857658761049e-27, 6.795747351525611e-07, 8.659868712730943e-33, 0.0, 0.0, 0.0, 7.376823563797626e-26, 8.40265420242668e-33, 6.795747351525611e-07, 0.0, 2.0691410125770463e-29, -3.3530456595765295e-20, 0.0, 0.0, 0.0, 1.6222463377899886e-06]
---
header: 
  seq: 2524
  stamp: 
    secs: 1518209714
    nsecs: 912121296
  frame_id: "swarmone/map"
child_frame_id: "swarmone/base_link"
pose: 
  pose: 
    position: 
      x: 1.19024539731
      y: -0.375374699783
      z: 0.0
    orientation: 
      x: 0.0
      y: 0.0
      z: 0.674291467196
      w: 0.738465312162
  covariance: [2.541361673216935, -0.14516239272190987, 0.0, 0.0, 0.0, 1.7633930741588537e-15, -0.14516239272190967, 1.2970821778029467, 0.0, 0.0, 0.0, 1.924481341562801e-14, 0.0, 0.0, 9.609437448915721e-07, -1.379917301709955e-14, -8.337333743549743e-19, 0.0, 0.0, 0.0, -1.379917301709955e-14, 9.609437595365892e-07, -2.9456717360167386e-25, 0.0, 0.0, 0.0, -8.337333743549742e-19, -2.945669702498848e-25, 9.609437595365941e-07, 0.0, 1.7633930741588537e-15, 1.9244813415628006e-14, 0.0, 0.0, 0.0, 1.2062059154110763e-06]
twist: 
  twist: 
    linear: 
      x: 4.17305995024e-13
      y: -0.0750633864357
      z: 0.0
    angular: 
      x: 0.0
      y: 0.0
      z: 0.0400000000002
  covariance: [9.999999094088945e-10, 4.967572285560772e-13, 0.0, 0.0, 0.0, 1.9800285016308404e-36, 4.967572285560771e-13, 1.5291964443392547, 0.0, 0.0, 0.0, -3.615219391825373e-27, 0.0, 0.0, 9.95876988823471e-07, -2.9280822367545526e-27, 3.2138974923518925e-26, 0.0, 0.0, 0.0, -2.9280822367545547e-27, 9.609437448462042e-07, 9.932918085387012e-33, 0.0, 0.0, 0.0, 3.2138974923518936e-26, 9.576034577622893e-33, 9.609437448462042e-07, 0.0, 1.9800285016308404e-36, -3.6152193918253734e-27, 0.0, 0.0, 0.0, 2.4105118347067694e-05]
---
header: 
  seq: 2525
  stamp: 
    secs: 1518209715
    nsecs:  12555122
  frame_id: "swarmone/map"
child_frame_id: "swarmone/base_link"
pose: 
  pose: 
    position: 
      x: 1.19775599572
      y: -0.37605842715
      z: 0.0
    orientation: 
      x: 0.0
      y: 0.0
      z: 0.674288643488
      w: 0.738467890476
  covariance: [2.87755813369414, -0.1731715214086024, 0.0, 0.0, 0.0, 1.973052829957124e-15, -0.1731715214086022, 1.3797674606445645, 0.0, 0.0, 0.0, 2.168054327307962e-14, 0.0, 0.0, 8.446056326600267e-07, -4.475890486275582e-14, -2.4884351635984693e-18, 0.0, 0.0, 0.0, -4.475890486275582e-14, 8.446056801291518e-07, -7.166494001774032e-25, 0.0, 0.0, 0.0, -2.4884351635984685e-18, -7.166489560979366e-25, 8.446056801291647e-07, 0.0, 1.973052829957124e-15, 2.168054327307962e-14, 0.0, 0.0, 0.0, 2.4776322738595013e-07]
twist: 
  twist: 
    linear: 
      x: 3.7763480121e-13
      y: -0.0751182102488
      z: 0.0
    angular: 
      x: 0.0
      y: 0.0
      z: 0.0399999999981
  covariance: [9.999999098952463e-10, 4.563332787529213e-13, 0.0, 0.0, 0.0, 2.906876774708438e-42, 4.563332787529211e-13, 1.6561218071194121, 0.0, 0.0, 0.0, -5.978551493791968e-33, 0.0, 0.0, 9.803353388645757e-07, -7.555084872061056e-27, 8.292932172069708e-26, 0.0, 0.0, 0.0, -7.555084872061056e-27, 8.446056326278647e-07, 1.6998615815331697e-32, 0.0, 0.0, 0.0, 8.292932172069712e-26, 1.723087233811083e-32, 8.446056326278647e-07, 0.0, 2.906876774708437e-42, -5.97855149379197e-33, 0.0, 0.0, 0.0, 4.936264587302966e-06]
---
header: 
  seq: 2526
  stamp: 
    secs: 1518209715
    nsecs: 112003326
  frame_id: "swarmone/map"
child_frame_id: "swarmone/base_link"
pose: 
  pose: 
    position: 
      x: 1.20553334554
      y: -0.366387927393
      z: 0.0
    orientation: 
      x: 0.0
      y: 0.0
      z: 0.674288157509
      w: 0.738468334219
  covariance: [2.3782943558496883, -0.1292770667979143, 0.0, 0.0, 0.0, 1.6258609519926303e-13, -0.12927706679791412, 1.2524194394703818, 0.0, 0.0, 0.0, 1.8234675684055452e-12, 0.0, 0.0, 6.820392219281923e-07, -6.249827446799128e-14, -4.978490348181155e-18, 0.0, 0.0, 0.0, -6.249827446799127e-14, 6.820392881766263e-07, -9.78215365008225e-25, 0.0, 0.0, 0.0, -4.978490348181155e-18, -9.782162689041032e-25, 6.820392881766386e-07, 0.0, 1.6258609519926303e-13, 1.8234675684055452e-12, 0.0, 0.0, 0.0, 8.325440780875287e-08]
twist: 
  twist: 
    linear: 
      x: 5.45135581776e-13
      y: -0.0751583579056
      z: 0.0
    angular: 
      x: 0.0
      y: 0.0
      z: 0.0399999998052
  covariance: [9.999999090356725e-10, 5.200093811855949e-13, 0.0, 0.0, 0.0, 1.1728395530086837e-28, 5.200093811855943e-13, 1.465356987562163, 0.0, 0.0, 0.0, -1.371049400101072e-19, 0.0, 0.0, 9.442924163966321e-07, -6.796618174755778e-27, 7.458410254843879e-26, 0.0, 0.0, 0.0, -6.796618174755775e-27, 6.820392219101107e-07, 7.686524773155134e-33, 0.0, 0.0, 0.0, 7.458410254843879e-26, 7.668399625992178e-33, 6.820392219101107e-07, 0.0, 1.1728395530086835e-28, -1.371049400101078e-19, 0.0, 0.0, 0.0, 1.6460881956990506e-06]
---
header: 
  seq: 2527
  stamp: 
    secs: 1518209715
    nsecs: 212492943
  frame_id: "swarmone/map"
child_frame_id: "swarmone/base_link"
pose: 
  pose: 
    position: 
      x: 1.21305746371
      y: -0.367072847335
      z: 0.0
    orientation: 
      x: 0.0
      y: 0.0
      z: 0.674288218293
      w: 0.738468278717
  covariance: [2.6933734279492776, -0.15511109184219263, 0.0, 0.0, 0.0, 2.258594787256039e-16, -0.15511109184219246, 1.3349273437784481, 0.0, 0.0, 0.0, 2.4822794827682844e-15, 0.0, 0.0, 6.820413774450377e-07, -6.254080377181153e-14, -4.544614494317765e-18, 0.0, 0.0, 0.0, -6.254080377181148e-14, 6.820414602545161e-07, -8.93684447133416e-25, 0.0, 0.0, 0.0, -4.544614494317765e-18, -8.936843926636143e-25, 6.820414602545284e-07, 0.0, 2.2585947872560387e-16, 2.482279482768284e-15, 0.0, 0.0, 0.0, 8.325440780012805e-08]
twist: 
  twist: 
    linear: 
      x: 4.92871300955e-13
      y: -0.0752099794574
      z: 0.0
    angular: 
      x: 0.0
      y: 0.0
      z: 0.0499999990047
  covariance: [9.999999099271106e-10, 4.773001268194469e-13, 0.0, 0.0, 0.0, 1.069253867833725e-35, 4.773001268194465e-13, 1.5886514437731993, 0.0, 0.0, 0.0, -1.4048257928615677e-26, 0.0, 0.0, 9.442924230160271e-07, -6.800549337750246e-27, 7.463298543752357e-26, 0.0, 0.0, 0.0, -6.800549337750249e-27, 6.820413774270985e-07, 7.612743006405134e-33, 0.0, 0.0, 0.0, 7.463298543752356e-26, 7.613811858186215e-33, 6.820413774270985e-07, 0.0, 1.0692538678337253e-35, -1.4048257928615737e-26, 0.0, 0.0, 0.0, 1.6460881957012686e-06]
---
header: 
  seq: 2528
  stamp: 
    secs: 1518209715
    nsecs: 312111139
  frame_id: "swarmone/map"
child_frame_id: "swarmone/base_link"
pose: 
  pose: 
    position: 
      x: 1.22098494559
      y: -0.357419424859
      z: 0.0
    orientation: 
      x: 0.0
      y: 0.0
      z: 0.677972052073
      w: 0.735087679538
  covariance: [2.2294097214147364, -0.11550816129328799, 0.0, 0.0, 0.0, 3.6347341009628265e-14, -0.11550816129328785, 1.2090335964008652, 0.0, 0.0, 0.0, 4.214952648023642e-13, 0.0, 0.0, 6.843942672430004e-07, -6.259610220579186e-14, -6.032691288992569e-18, 0.0, 0.0, 0.0, -6.259610220579186e-14, 6.843943335049287e-07, -1.1981078043950103e-24, 0.0, 0.0, 0.0, -6.032691288992572e-18, -1.198107569875163e-24, 6.843943335049412e-07, 0.0, 3.634734100962827e-14, 4.2149526480236405e-13, 0.0, 0.0, 0.0, 8.444650067830179e-08]
twist: 
  twist: 
    linear: 
      x: 6.60637815239e-13
      y: -0.0753348490833
      z: 0.0
    angular: 
      x: 0.0
      y: 0.0
      z: 0.0400000010609
  covariance: [9.999999090798003e-10, 5.390967837752491e-13, 0.0, 0.0, 0.0, 1.9709469274151126e-29, 5.390967837752486e-13, 1.4054864417167356, 0.0, 0.0, 0.0, -2.331783817191699e-20, 0.0, 0.0, 9.450224976402519e-07, -6.106692785073423e-27, 7.532688007701303e-26, 0.0, 0.0, 0.0, -6.1066927850734226e-27, 6.843942672247603e-07, 7.19507418305774e-33, 0.0, 0.0, 0.0, 7.532688007701299e-26, 7.181678455803356e-33, 6.843942672247603e-07, 0.0, 1.9709469274151126e-29, -2.331783817191712e-20, 0.0, 0.0, 0.0, 1.6699300536104911e-06]
---
header: 
  seq: 2529
  stamp: 
    secs: 1518209715
    nsecs: 412593842
  frame_id: "swarmone/map"
child_frame_id: "swarmone/base_link"
pose: 
  pose: 
    position: 
      x: 1.22853266371
      y: -0.358030454271
      z: 0.0
    orientation: 
      x: 0.0
      y: 0.0
      z: 0.674288150815
      w: 0.738468340331
  covariance: [2.5249688749719157, -0.13783367306506353, 0.0, 0.0, 0.0, 2.0854546060874378e-16, -0.13783367306506336, 1.2911202711501333, 0.0, 0.0, 0.0, 2.432681338728161e-15, 0.0, 0.0, 6.720984523693328e-07, -6.280416515258036e-14, -5.522992641472403e-18, 0.0, 0.0, 0.0, -6.280416515258036e-14, 6.720985187404665e-07, -1.0576390499411967e-24, 0.0, 0.0, 0.0, -5.522992641472403e-18, -1.0576379801130001e-24, 6.720985187404783e-07, 0.0, 2.0854546060874376e-16, 2.4326813387281607e-15, 0.0, 0.0, 0.0, 7.848603621795394e-08]
twist: 
  twist: 
    linear: 
      x: 5.97568275617e-13
      y: -0.0753858702069
      z: 0.0
    angular: 
      x: 0.0
      y: 0.0
      z: 0.0399999999995
  covariance: [9.999999099340413e-10, 4.95086498398887e-13, 0.0, 0.0, 0.0, 1.8799046602885993e-36, 4.950864983988861e-13, 1.5252154667208704, 0.0, 0.0, 0.0, -2.5026553297444658e-27, 0.0, 0.0, 9.411667982484014e-07, -6.601695048576903e-27, 7.243806216293724e-26, 0.0, 0.0, 0.0, -6.601695048576906e-27, 6.720984523520686e-07, 6.962202163491481e-33, 0.0, 0.0, 0.0, 7.243806216293726e-26, 7.057946982541144e-33, 6.720984523520686e-07, 0.0, 1.8799046602885996e-36, -2.5026553297444787e-27, 0.0, 0.0, 0.0, 1.5507207640606378e-06]
---
header: 
  seq: 2530
  stamp: 
    secs: 1518209715
    nsecs: 512095213
  frame_id: "swarmone/map"
child_frame_id: "swarmone/base_link"
pose: 
  pose: 
    position: 
      x: 1.23600527796
      y: -0.358710688573
      z: 0.0
    orientation: 
      x: 0.0
      y: 0.0
      z: 0.674288161072
      w: 0.738468330965
  covariance: [2.8562498557587803, -0.16479986002557984, 0.0, 0.0, 0.0, 2.2131949240483101e-16, -0.16479986002557961, 1.3729098888507443, 0.0, 0.0, 0.0, 2.432453605138812e-15, 0.0, 0.0, 6.844335747108622e-07, -6.268415629285937e-14, -4.9360342052351e-18, 0.0, 0.0, 0.0, -6.268415629285939e-14, 6.84433640910752e-07, -9.802875090085296e-25, 0.0, 0.0, 0.0, -4.936034205235102e-18, -9.802866826194934e-25, 6.844336409107644e-07, 0.0, 2.2131949240483104e-16, 2.432453605138812e-15, 0.0, 0.0, 0.0, 8.444650067584886e-08]
twist: 
  twist: 
    linear: 
      x: 5.41243938875e-13
      y: -0.0754363925519
      z: 0.0
    angular: 
      x: 0.0
      y: 0.0
      z: 0.0399999999999
  covariance: [9.999999089715735e-10, 4.551089445953981e-13, 0.0, 0.0, 0.0, 3.498249428271163e-43, 4.551089445953975e-13, 1.6507338042530844, 0.0, 0.0, 0.0, -5.230939981587165e-34, 0.0, 0.0, 9.45022617218954e-07, -6.871539113484159e-27, 7.540699349988278e-26, 0.0, 0.0, 0.0, -6.871539113484159e-27, 6.844335746927641e-07, 7.860838159670914e-33, 0.0, 0.0, 0.0, 7.540699349988279e-26, 7.739171968119637e-33, 6.844335746927641e-07, 0.0, 3.4982494282711644e-43, -5.23093998158719e-34, 0.0, 0.0, 0.0, 1.6699300536104352e-06]
---
header: 
  seq: 2531
  stamp: 
    secs: 1518209715
    nsecs: 612543344
  frame_id: "swarmone/map"
child_frame_id: "swarmone/base_link"
pose: 
  pose: 
    position: 
      x: 1.24155761634
      y: -0.348786486069
      z: 0.0
    orientation: 
      x: 0.0
      y: 0.0
      z: 0.674288461038
      w: 0.738468057068
  covariance: [2.36762671216254, -0.12394060691562789, 0.0, 0.0, 0.0, 1.6147352663236597e-13, -0.12394060691562772, 1.2479806842378527, 0.0, 0.0, 0.0, 1.8112883275423276e-12, 0.0, 0.0, 8.446051388419108e-07, -4.4132094780407925e-14, -4.585442921518969e-18, 0.0, 0.0, 0.0, -4.413209478040792e-14, 8.446051744425255e-07, -1.3021921554143722e-24, 0.0, 0.0, 0.0, -4.585442921518966e-18, -1.3021922536478538e-24, 8.446051744425381e-07, 0.0, 1.6147352663236595e-13, 1.8112883275423274e-12, 0.0, 0.0, 0.0, 2.4776322741038524e-07]
twist: 
  twist: 
    linear: 
      x: 6.93494789928e-13
      y: -0.0740681817249
      z: 0.0
    angular: 
      x: 0.0
      y: 0.0
      z: 0.030000000812
  covariance: [9.999999100295027e-10, 5.083829675806338e-13, 0.0, 0.0, 0.0, 3.995466169652335e-29, 5.083829675806335e-13, 1.4635888442359732, 0.0, 0.0, 0.0, -5.465627477611162e-20, 0.0, 0.0, 9.803353380734696e-07, -7.452426060529602e-27, 8.175850629566141e-26, 0.0, 0.0, 0.0, -7.4524260605296e-27, 8.446051388097515e-07, 1.649305526084256e-32, 0.0, 0.0, 0.0, 8.175850629566142e-26, 1.6847770783701476e-32, 8.446051388097515e-07, 0.0, 3.995466169652336e-29, -5.465627477611148e-20, 0.0, 0.0, 0.0, 4.936264587301545e-06]
---
header: 
  seq: 2532
  stamp: 
    secs: 1518209715
    nsecs: 712062120
  frame_id: "swarmone/map"
child_frame_id: "swarmone/base_link"
pose: 
  pose: 
    position: 
      x: 1.24889887634
      y: -0.349454638093
      z: 0.0
    orientation: 
      x: 0.0
      y: 0.0
      z: 0.677972849814
      w: 0.735086943779
  covariance: [2.678635426166003, -0.14896394039560498, 0.0, 0.0, 0.0, 7.570431143982105e-16, -0.14896394039560484, 1.3295975515979401, 0.0, 0.0, 0.0, 8.902749794024925e-15, 0.0, 0.0, 8.837864493288853e-07, -3.553888580642196e-14, -3.2979452352891045e-18, 0.0, 0.0, 0.0, -3.553888580642195e-14, 8.837864875821828e-07, -1.0085040008382129e-24, 0.0, 0.0, 0.0, -3.297945235289103e-18, -1.0085043677803977e-24, 8.837864875821936e-07, 0.0, 7.570431143982105e-16, 8.902749794024925e-15, 0.0, 0.0, 0.0, 3.5624368085647204e-07]
twist: 
  twist: 
    linear: 
      x: 6.27573882449e-13
      y: -0.0740767778072
      z: 0.0
    angular: 
      x: 0.0
      y: 0.0
      z: 0.0399999989956
  covariance: [9.999999089652583e-10, 4.669697845503396e-13, 0.0, 0.0, 0.0, 3.7777483487446895e-36, 4.669697845503398e-13, 1.5855863768104355, 0.0, 0.0, 0.0, -5.819202841081462e-27, 0.0, 0.0, 9.862161619641217e-07, -5.80412010085146e-27, 7.159818697844571e-26, 0.0, 0.0, 0.0, -5.80412010085146e-27, 8.837864492925428e-07, 1.475546725022853e-32, 0.0, 0.0, 0.0, 7.159818697844572e-26, 1.5108343999426998e-32, 8.837864492925428e-07, 0.0, 3.777748348744692e-36, -5.819202841081446e-27, 0.0, 0.0, 0.0, 7.105873657126058e-06]
---
header: 
  seq: 2533
  stamp: 
    secs: 1518209715
    nsecs: 812463999
  frame_id: "swarmone/map"
child_frame_id: "swarmone/base_link"
pose: 
  pose: 
    position: 
      x: 1.25254866737
      y: -0.340872474161
      z: 0.0
    orientation: 
      x: 0.0
      y: 0.0
      z: 0.6742881649
      w: 0.738468327469
  covariance: [2.224409310446927, -0.1105863242248843, 0.0, 0.0, 0.0, 3.4190507054136786e-14, -0.1105863242248842, 1.2060338885276538, 0.0, 0.0, 0.0, 4.429422793098209e-13, 0.0, 0.0, 6.82005441976163e-07, -5.952444894322792e-14, -6.9148817763017775e-18, 0.0, 0.0, 0.0, -5.952444894322794e-14, 6.820055082212852e-07, -1.2961851587200537e-24, 0.0, 0.0, 0.0, -6.9148817763017775e-18, -1.2961865053239792e-24, 6.820055082212963e-07, 0.0, 3.419050705413678e-14, 4.42942279309821e-13, 0.0, 0.0, 0.0, 8.325440779976059e-08]
twist: 
  twist: 
    linear: 
      x: 7.50156720121e-13
      y: -0.0715857510016
      z: 0.0
    angular: 
      x: 0.0
      y: 0.0
      z: 0.0399999998271
  covariance: [9.99999909856155e-10, 5.211759398373562e-13, 0.0, 0.0, 0.0, 9.086403039717208e-29, 5.211759398373572e-13, 1.405471627524959, 0.0, 0.0, 0.0, -7.384056893204929e-20, 0.0, 0.0, 9.44292312477311e-07, -6.472970536380737e-27, 7.100373225762962e-26, 0.0, 0.0, 0.0, -6.472970536380737e-27, 6.820054419580946e-07, 7.130301387285484e-33, 0.0, 0.0, 0.0, 7.100373225762964e-26, 7.064476495030244e-33, 6.820054419580946e-07, 0.0, 9.08640303971721e-29, -7.384056893204881e-20, 0.0, 0.0, 0.0, 1.6460881957011593e-06]
---
header: 
  seq: 2534
  stamp: 
    secs: 1518209715
    nsecs: 911980629
  frame_id: "swarmone/map"
child_frame_id: "swarmone/base_link"
pose: 
  pose: 
    position: 
      x: 1.2596401432
      y: -0.34151795912
      z: 0.0
    orientation: 
      x: 0.0
      y: 0.0
      z: 0.67428815403
      w: 0.738468337395
  covariance: [2.516538734453816, -0.13372215709815347, 0.0, 0.0, 0.0, 2.1303055848013725e-16, -0.1337221570981534, 1.2874617152876908, 0.0, 0.0, 0.0, 2.341958730609397e-15, 0.0, 0.0, 6.796125839999445e-07, -5.951083717022133e-14, -6.203517987658226e-18, 0.0, 0.0, 0.0, -5.951083717022133e-14, 6.796126502884296e-07, -1.1520915959949113e-24, 0.0, 0.0, 0.0, -6.203517987658228e-18, -1.1520908504589567e-24, 6.796126502884407e-07, 0.0, 2.1303055848013727e-16, 2.3419587306093975e-15, 0.0, 0.0, 0.0, 8.206231488515845e-08]
twist: 
  twist: 
    linear: 
      x: 6.7913211218e-13
      y: -0.0715218187277
      z: 0.0
    angular: 
      x: 0.0
      y: 0.0
      z: 0.0399999999999
  covariance: [9.999999089757617e-10, 4.78993881554527e-13, 0.0, 0.0, 0.0, 8.704812626190536e-36, 4.789938815545279e-13, 1.5240359455353891, 0.0, 0.0, 0.0, -7.928153179395029e-27, 0.0, 0.0, 9.435425711007522e-07, -6.4203462620184264e-27, 7.043581767809885e-26, 0.0, 0.0, 0.0, -6.420346262018424e-27, 6.796125839821803e-07, 6.752946467602126e-33, 0.0, 0.0, 0.0, 7.043581767809884e-26, 6.7283968416802e-33, 6.796125839821803e-07, 0.0, 8.704812626190539e-36, -7.928153179394976e-27, 0.0, 0.0, 0.0, 1.6222463377901396e-06]
---
header: 
  seq: 2535
  stamp: 
    secs: 1518209716
    nsecs:  12454271
  frame_id: "swarmone/map"
child_frame_id: "swarmone/base_link"
pose: 
  pose: 
    position: 
      x: 1.26679338477
      y: -0.342169094138
      z: 0.0
    orientation: 
      x: 0.0
      y: 0.0
      z: 0.674288150508
      w: 0.73846834061
  covariance: [2.85069879080291, -0.16058195734407743, 0.0, 0.0, 0.0, 2.0969907953765518e-16, -0.16058195734407735, 1.369986394750352, 0.0, 0.0, 0.0, 2.3050324954640366e-15, 0.0, 0.0, 6.771464495388679e-07, -5.94881255478354e-14, -5.676122723925826e-18, 0.0, 0.0, 0.0, -5.948812554783541e-14, 6.771465158619119e-07, -1.0456729359810925e-24, 0.0, 0.0, 0.0, -5.676122723925826e-18, -1.0456718066545806e-24, 6.771465158619228e-07, 0.0, 2.0969907953765516e-16, 2.3050324954640362e-15, 0.0, 0.0, 0.0, 8.087022200878431e-08]
twist: 
  twist: 
    linear: 
      x: 6.14564148405e-13
      y: -0.0714572710904
      z: 0.0
    angular: 
      x: 0.0
      y: 0.0
      z: 0.0399999999999
  covariance: [9.999999099338866e-10, 4.3999795326362886e-13, 0.0, 0.0, 0.0, 1.56287954832521e-42, 4.399979532636297e-13, 1.6507678028516333, 0.0, 0.0, 0.0, -1.595899281069135e-33, 0.0, 0.0, 9.427722571466834e-07, -6.363540394149972e-27, 6.98194330977021e-26, 0.0, 0.0, 0.0, -6.363540394149975e-27, 6.771464495212742e-07, 6.537521323874975e-33, 0.0, 0.0, 0.0, 6.981943309770207e-26, 6.644917060345819e-33, 6.771464495212742e-07, 0.0, 1.5628795483252094e-42, -1.5958992810691243e-33, 0.0, 0.0, 0.0, 1.5984044798809404e-06]
---
header: 
  seq: 2536
  stamp: 
    secs: 1518209716
    nsecs: 111973047
  frame_id: "swarmone/map"
child_frame_id: "swarmone/base_link"
pose: 
  pose: 
    position: 
      x: 1.27138993655
      y: -0.333557582976
      z: 0.0
    orientation: 
      x: 0.0
      y: 0.0
      z: 0.67428816103
      w: 0.738468331003
  covariance: [2.365671067267433, -0.12121725374024762, 0.0, 0.0, 0.0, 1.5093142870227105e-13, -0.12121725374024762, 1.2461652520580846, 0.0, 0.0, 0.0, 1.6934938052113605e-12, 0.0, 0.0, 6.844314590733287e-07, -5.792517980218766e-14, -6.697498850507905e-18, 0.0, 0.0, 0.0, -5.792517980218765e-14, 6.844315252743128e-07, -1.2291397028218376e-24, 0.0, 0.0, 0.0, -6.697498850507905e-18, -1.2291399887898638e-24, 6.844315252743233e-07, 0.0, 1.5093142870227108e-13, 1.6934938052113603e-12, 0.0, 0.0, 0.0, 8.444650070475505e-08]
twist: 
  twist: 
    linear: 
      x: 7.3312792401e-13
      y: -0.0697088164596
      z: 0.0
    angular: 
      x: 0.0
      y: 0.0
      z: 0.0399999998051
  covariance: [9.999999091057258e-10, 4.94494212702778e-13, 0.0, 0.0, 0.0, 3.6421149488766597e-29, 4.944942127027791e-13, 1.4640163699137045, 0.0, 0.0, 0.0, -5.355289368865569e-20, 0.0, 0.0, 9.450226107948995e-07, -6.352562683232739e-27, 6.968343085120069e-26, 0.0, 0.0, 0.0, -6.352562683232741e-27, 6.84431459055094e-07, 6.67534115281289e-33, 0.0, 0.0, 0.0, 6.968343085120068e-26, 6.656113867655942e-33, 6.84431459055094e-07, 0.0, 3.6421149488766586e-29, -5.355289368865572e-20, 0.0, 0.0, 0.0, 1.6699300536092432e-06]
---
header: 
  seq: 2537
  stamp: 
    secs: 1518209716
    nsecs: 212451696
  frame_id: "swarmone/map"
child_frame_id: "swarmone/base_link"
pose: 
  pose: 
    position: 
      x: 1.27835964636
      y: -0.334191982207
      z: 0.0
    orientation: 
      x: 0.0
      y: 0.0
      z: 0.674288205089
      w: 0.738468290774
  covariance: [2.6800142008827796, -0.14626301921661897, 0.0, 0.0, 0.0, 2.060594242196426e-16, -0.14626301921661888, 1.3285269203888626, 0.0, 0.0, 0.0, 2.2652705701642646e-15, 0.0, 0.0, 6.746420299728384e-07, -5.796183124125356e-14, -6.12300023723008e-18, 0.0, 0.0, 0.0, -5.796183124125356e-14, 6.746421129115152e-07, -1.0906119145487441e-24, 0.0, 0.0, 0.0, -6.123000237230081e-18, -1.0906129457011301e-24, 6.746421129115256e-07, 0.0, 2.0605942421964257e-16, 2.265270570164265e-15, 0.0, 0.0, 0.0, 7.96781291133842e-08]
twist: 
  twist: 
    linear: 
      x: 6.62843330638e-13
      y: -0.069594844125
      z: 0.0
    angular: 
      x: 0.0
      y: 0.0
      z: 0.0499999990046
  covariance: [9.999999099160816e-10, 4.539281208536998e-13, 0.0, 0.0, 0.0, 3.3213968509234775e-36, 4.5392812085370073e-13, 1.5872487856494684, 0.0, 0.0, 0.0, -5.510682730109361e-27, 0.0, 0.0, 9.419806317700281e-07, -6.1478115364567995e-27, 6.744487516801064e-26, 0.0, 0.0, 0.0, -6.1478115364567995e-27, 6.74642029955414e-07, 6.079277582162543e-33, 0.0, 0.0, 0.0, 6.74448751680106e-26, 6.131156255826495e-33, 6.74642029955414e-07, 0.0, 3.321396850923475e-36, -5.510682730109363e-27, 0.0, 0.0, 0.0, 1.57456262197079e-06]
---
header: 
  seq: 2538
  stamp: 
    secs: 1518209716
    nsecs: 311964273
  frame_id: "swarmone/map"
child_frame_id: "swarmone/base_link"
pose: 
  pose: 
    position: 
      x: 1.27899262307
      y: -0.326500559761
      z: 0.0
    orientation: 
      x: 0.0
      y: 0.0
      z: 0.67428816178
      w: 0.738468330318
  covariance: [2.225562021756538, -0.10992462008555291, 0.0, 0.0, 0.0, 2.338186698267145e-14, -0.10992462008555286, 1.205512548753424, 0.0, 0.0, 0.0, 2.7135637338220577e-13, 0.0, 0.0, 6.843786084322559e-07, -5.4383040499847424e-14, -6.938390274931908e-18, 0.0, 0.0, 0.0, -5.4383040499847437e-14, 6.843786746385298e-07, -1.1981157117239263e-24, 0.0, 0.0, 0.0, -6.938390274931909e-18, -1.198116263718286e-24, 6.843786746385391e-07, 0.0, 2.3381866982671448e-14, 2.7135637338220577e-13, 0.0, 0.0, 0.0, 8.444650067610723e-08]
twist: 
  twist: 
    linear: 
      x: 7.60647628055e-13
      y: -0.0654521770978
      z: 0.0
    angular: 
      x: 0.0
      y: 0.0
      z: 0.0400000009638
  covariance: [9.999999089727104e-10, 5.135953436089453e-13, 0.0, 0.0, 0.0, 1.30832453426414e-29, 5.135953436089464e-13, 1.4061073213256392, 0.0, 0.0, 0.0, -1.8161659513581588e-20, 0.0, 0.0, 9.450224498698833e-07, -5.9603196944728116e-27, 6.537187700877567e-26, 0.0, 0.0, 0.0, -5.960319694472812e-27, 6.843786084140374e-07, 6.267633533286856e-33, 0.0, 0.0, 0.0, 6.537187700877566e-26, 6.20799289978513e-33, 6.843786084140374e-07, 0.0, 1.30832453426414e-29, -1.8161659513581585e-20, 0.0, 0.0, 0.0, 1.6699300536104121e-06]
---
header: 
  seq: 2539
  stamp: 
    secs: 1518209716
    nsecs: 412034273
  frame_id: "swarmone/map"
child_frame_id: "swarmone/base_link"
pose: 
  pose: 
    position: 
      x: 1.2855040152
      y: -0.327093181759
      z: 0.0
    orientation: 
      x: 0.0
      y: 0.0
      z: 0.677972748063
      w: 0.735087037625
  covariance: [2.519790915267458, -0.13316804181912648, 0.0, 0.0, 0.0, 3.6946173191914557e-16, -0.13316804181912636, 1.28738563917102, 0.0, 0.0, 0.0, 4.431703348415192e-15, 0.0, 0.0, 8.490788025084374e-07, -3.8074006982209016e-14, -4.432559018603048e-18, 0.0, 0.0, 0.0, -3.8074006982209016e-14, 8.490788606911714e-07, -1.1181999047236629e-24, 0.0, 0.0, 0.0, -4.432559018603051e-18, -1.1181994330385576e-24, 8.490788606911809e-07, 0.0, 3.694617319191455e-16, 4.431703348415192e-15, 0.0, 0.0, 0.0, 2.572999705375904e-07]
twist: 
  twist: 
    linear: 
      x: 6.88373444923e-13
      y: -0.0652224373857
      z: 0.0
    angular: 
      x: 0.0
      y: 0.0
      z: 0.0499999990006
  covariance: [9.999999095292762e-10, 4.719790160546827e-13, 0.0, 0.0, 0.0, 1.278891050591615e-36, 4.719790160546841e-13, 1.5253605328199449, 0.0, 0.0, 0.0, -2.0015797823263565e-27, 0.0, 0.0, 9.810462442860162e-07, -5.781725990742863e-27, 7.130091107109797e-26, 0.0, 0.0, 0.0, -5.7817259907428635e-27, 8.490788024758802e-07, 1.2222112018690727e-32, 0.0, 0.0, 0.0, 7.130091107109797e-26, 1.0875900691540526e-32, 8.490788024758802e-07, 0.0, 1.2788910505916153e-36, -2.0015797823263554e-27, 0.0, 0.0, 0.0, 5.126999450583629e-06]
---
header: 
  seq: 2540
  stamp: 
    secs: 1518209716
    nsecs: 512530327
  frame_id: "swarmone/map"
child_frame_id: "swarmone/base_link"
pose: 
  pose: 
    position: 
      x: 1.29202568
      y: -0.327621178485
      z: 0.0
    orientation: 
      x: 0.0
      y: 0.0
      z: 0.674288626925
      w: 0.738467905599
  covariance: [2.854955333770494, -0.15828501052731478, 0.0, 0.0, 0.0, 5.507215394040973e-16, -0.1582850105273147, 1.369676476217014, 0.0, 0.0, 0.0, 6.423754074662171e-15, 0.0, 0.0, 8.404683007881614e-07, -3.943441473762115e-14, -4.189497591846745e-18, 0.0, 0.0, 0.0, -3.943441473762113e-14, 8.404683491268617e-07, -1.0355272640201906e-24, 0.0, 0.0, 0.0, -4.189497591846745e-18, -1.0355278424693662e-24, 8.404683491268715e-07, 0.0, 5.507215394040974e-16, 6.4237540746621715e-15, 0.0, 0.0, 0.0, 2.394185771139918e-07]
twist: 
  twist: 
    linear: 
      x: 6.22892699809e-13
      y: -0.0649917189911
      z: 0.0
    angular: 
      x: 0.0
      y: 0.0
      z: 0.0400000009935
  covariance: [9.999999099585947e-10, 4.3361065427051573e-13, 0.0, 0.0, 0.0, 6.41774948334263e-43, 4.336106542705171e-13, 1.6521703023712913, 0.0, 0.0, 0.0, -1.1322341792142645e-33, 0.0, 0.0, 9.79668066271443e-07, -6.599423369335868e-27, 7.239818856241778e-26, 0.0, 0.0, 0.0, -6.599423369335865e-27, 8.404683007564741e-07, 1.2323517807049464e-32, 0.0, 0.0, 0.0, 7.239818856241773e-26, 1.3127939754369804e-32, 8.404683007564741e-07, 0.0, 6.417749483342632e-43, -1.132234179214264e-33, 0.0, 0.0, 0.0, 4.769371581931747e-06]
---
header: 
  seq: 2541
  stamp: 
    secs: 1518209716
    nsecs: 612047911
  frame_id: "swarmone/map"
child_frame_id: "swarmone/base_link"
pose: 
  pose: 
    position: 
      x: 1.29180585833
      y: -0.321029300308
      z: 0.0
    orientation: 
      x: 0.0
      y: 0.0
      z: 0.674288657533
      w: 0.738467877651
