header: 
  seq: 1209
  stamp: 
    secs: 1518209583
    nsecs: 412630320
  frame_id: "swarmone/map"
child_frame_id: "swarmone/base_link"
pose: 
  pose: 
    position: 
      x: -0.512230109606
      y: -1.4957474516
      z: 0.0
    orientation: 
      x: 0.0
      y: 0.0
      z: 0.692537232221
      w: 0.721382133122
  covariance: [2.3457452574715494, -0.045772339379833236, 0.0, 0.0, 0.0, -6.590323717075363e-17, -0.045772339379833174, 1.2210832411552377, 0.0, 0.0, 0.0, -1.852229011013449e-15, 0.0, 0.0, 6.720984504566435e-07, 4.7958526943634763e-14, 2.708564672925958e-18, 0.0, 0.0, 0.0, 4.7958526943634763e-14, 6.720985170468802e-07, -3.9611229954193416e-25, 0.0, 0.0, 0.0, 2.7085646729259583e-18, -3.9611180586361575e-25, 6.720985170468872e-07, 0.0, -6.590323717075362e-17, -1.852229011013449e-15, 0.0, 0.0, 0.0, 7.848603621652577e-08]
twist: 
  twist: 
    linear: 
      x: -2.9323416745e-13
      y: 0.0575661469958
      z: 0.0
    angular: 
      x: 0.0
      y: 0.0
      z: 0.0399999999995
  covariance: [9.999999098594236e-10, 1.8605246303464277e-13, 0.0, 0.0, 0.0, -4.479309342929766e-36, 1.86052463034643e-13, 1.4541798694484915, 0.0, 0.0, 0.0, 1.6979179406551086e-27, 0.0, 0.0, 9.411667982422448e-07, 2.2685360474737982e-27, -5.549805544150132e-26, 0.0, 0.0, 0.0, 2.2685360474737975e-27, 6.720984504394112e-07, 1.879595160719815e-33, 0.0, 0.0, 0.0, -5.549805544150132e-26, 1.8126085755789698e-33, 6.720984504394112e-07, 0.0, -4.479309342929765e-36, 1.69791794065511e-27, 0.0, 0.0, 0.0, 1.5507207640605664e-06]
---
header: 
  seq: 1210
  stamp: 
    secs: 1518209583
    nsecs: 512115479
  frame_id: "swarmone/map"
child_frame_id: "swarmone/base_link"
pose: 
  pose: 
    position: 
      x: -0.517939421491
      y: -1.49551448308
      z: 0.0
    orientation: 
      x: 0.0
      y: 0.0
      z: 0.696135403734
      w: 0.717910509512
  covariance: [2.6597937733905797, -0.05624356944256177, 0.0, 0.0, 0.0, -6.446144512979148e-17, -0.05624356944256171, 1.3010235398491332, 0.0, 0.0, 0.0, -1.8019993242370715e-15, 0.0, 0.0, 6.746420036651185e-07, 4.772751691802873e-14, 2.4285334764288477e-18, 0.0, 0.0, 0.0, 4.772751691802872e-14, 6.746420536100086e-07, -3.5619272538488093e-25, 0.0, 0.0, 0.0, 2.4285334764288477e-18, -3.5619276534547633e-25, 6.746420536100156e-07, 0.0, -6.446144512979147e-17, -1.801999324237072e-15, 0.0, 0.0, 0.0, 7.96781290934784e-08]
twist: 
  twist: 
    linear: 
      x: -2.65609267419e-13
      y: 0.0573065142774
      z: 0.0
    angular: 
      x: 0.0
      y: 0.0
      z: 0.0300000010054
  covariance: [9.999999089518886e-10, 1.7114640935558635e-13, 0.0, 0.0, 0.0, -7.577693096776933e-43, 1.7114640935558658e-13, 1.5759464976156117, 0.0, 0.0, 0.0, 3.221069116706086e-34, 0.0, 0.0, 9.419806316863631e-07, 1.7199349415190298e-27, -5.573975236831619e-26, 0.0, 0.0, 0.0, 1.7199349415190294e-27, 6.746420036477244e-07, 1.3761688522740002e-33, 0.0, 0.0, 0.0, -5.573975236831619e-26, 1.4445805179875396e-33, 6.746420036477244e-07, 0.0, -7.577693096776933e-43, 3.2210691167060895e-34, 0.0, 0.0, 0.0, 1.5745626219697949e-06]
---
header: 
  seq: 1211
  stamp: 
    secs: 1518209583
    nsecs: 612583637
  frame_id: "swarmone/map"
child_frame_id: "swarmone/base_link"
pose: 
  pose: 
    position: 
      x: -0.520027956688
      y: -1.49609730152
      z: 0.0
    orientation: 
      x: 0.0
      y: 0.0
      z: 0.699716298874
      w: 0.714420815129
  covariance: [2.2005675120733446, -0.0416421658920676, 0.0, 0.0, 0.0, -3.9165669634803214e-14, -0.04164216589206756, 1.1806923190895464, 0.0, 0.0, 0.0, -1.3288305946908808e-12, 0.0, 0.0, 6.771445111942381e-07, 4.560916880752435e-14, 2.3341480121621153e-18, 0.0, 0.0, 0.0, 4.560916880752433e-14, 6.771445777775631e-07, -3.297211404566266e-25, 0.0, 0.0, 0.0, 2.334148012162116e-18, -3.29720845680052e-25, 6.771445777775695e-07, 0.0, -3.9165669634803214e-14, -1.3288305946908812e-12, 0.0, 0.0, 0.0, 8.08702220403232e-08]
twist: 
  twist: 
    linear: 
      x: -2.52302207447e-13
      y: 0.0547853665794
      z: 0.0
    angular: 
      x: 0.0
      y: 0.0
      z: 0.0399999993295
  covariance: [9.999999100497376e-10, 1.9539980882307373e-13, 0.0, 0.0, 0.0, -2.844010978850442e-29, 1.9539980882307408e-13, 1.394618227403542, 0.0, 0.0, 0.0, 1.0175391416564557e-20, 0.0, 0.0, 9.427722510539939e-07, 1.1205626342382457e-27, -5.374242805616436e-26, 0.0, 0.0, 0.0, 1.1205626342382455e-27, 6.771445111765248e-07, 8.746234444653708e-34, 0.0, 0.0, 0.0, -5.374242805616434e-26, 9.08322379716085e-34, 6.771445111765248e-07, 0.0, -2.844010978850444e-29, 1.017539141656454e-20, 0.0, 0.0, 0.0, 1.598404479879749e-06]
---
header: 
  seq: 1212
  stamp: 
    secs: 1518209583
    nsecs: 712113142
  frame_id: "swarmone/map"
child_frame_id: "swarmone/base_link"
pose: 
  pose: 
    position: 
      x: -0.525463436865
      y: -1.49598427036
      z: 0.0
    orientation: 
      x: 0.0
      y: 0.0
      z: 0.692537239532
      w: 0.721382126103
  covariance: [2.4955594537121244, -0.04834119842601883, 0.0, 0.0, 0.0, -5.2809804215432106e-17, -0.048341198426018805, 1.2604859876627124, 0.0, 0.0, 0.0, -1.7290871269605185e-15, 0.0, 0.0, 6.720984267461852e-07, 4.5372245749958116e-14, 2.0884186532094132e-18, 0.0, 0.0, 0.0, 4.537224574995811e-14, 6.720984933364015e-07, -2.8895563492935104e-25, 0.0, 0.0, 0.0, 2.088418653209414e-18, -2.8895533209944054e-25, 6.720984933364077e-07, 0.0, -5.28098042154321e-17, -1.7290871269605183e-15, 0.0, 0.0, 0.0, 7.84860361988752e-08]
twist: 
  twist: 
    linear: 
      x: -2.2833789794e-13
      y: 0.0544617585006
      z: 0.0
    angular: 
      x: 0.0
      y: 0.0
      z: 0.0399999999992
  covariance: [9.999999089741875e-10, 1.7963684218869013e-13, 0.0, 0.0, 0.0, -2.619549799140498e-36, 1.7963684218869043e-13, 1.5129462465277732, 0.0, 0.0, 0.0, 1.0518063607669862e-27, 0.0, 0.0, 9.411667981659027e-07, 2.1456721683823366e-27, -5.250514815049554e-26, 0.0, 0.0, 0.0, 2.1456721683823355e-27, 6.720984267289616e-07, 1.651972782836871e-33, 0.0, 0.0, 0.0, -5.250514815049554e-26, 1.653403286658961e-33, 6.720984267289616e-07, 0.0, -2.6195497991404974e-36, 1.0518063607669844e-27, 0.0, 0.0, 0.0, 1.550720764059684e-06]
---
header: 
  seq: 1213
  stamp: 
    secs: 1518209583
    nsecs: 812582254
  frame_id: "swarmone/map"
child_frame_id: "swarmone/base_link"
pose: 
  pose: 
    position: 
      x: -0.52710054655
      y: -1.49628218349
      z: 0.0
    orientation: 
      x: 0.0
      y: 0.0
      z: 0.696135470559
      w: 0.717910444714
  covariance: [2.0675551410208026, -0.03696050412631677, 0.0, 0.0, 0.0, -1.6337585428305723e-14, -0.03696050412631674, 1.1411530820374756, 0.0, 0.0, 0.0, -4.4015598915860504e-13, 0.0, 0.0, 6.820169096785209e-07, 4.3024025674334575e-14, 1.980132137252196e-18, 0.0, 0.0, 0.0, 4.302402567433456e-14, 6.82016976167267e-07, -2.681338192975015e-25, 0.0, 0.0, 0.0, 1.980132137252196e-18, -2.6813395598896086e-25, 6.820169761672729e-07, 0.0, -1.6337585428305723e-14, -4.401559891586051e-13, 0.0, 0.0, 0.0, 8.325440779998363e-08]
twist: 
  twist: 
    linear: 
      x: -2.14636026593e-13
      y: 0.0517409486227
      z: 0.0
    angular: 
      x: 0.0
      y: 0.0
      z: 0.0400000001011
  covariance: [9.999999099240111e-10, 2.0176737626309458e-13, 0.0, 0.0, 0.0, -2.070717467304375e-29, 2.0176737626309493e-13, 1.338601958072076, 0.0, 0.0, 0.0, 1.9146442003822742e-20, 0.0, 0.0, 9.442923477957652e-07, 1.5894165277896296e-27, -5.151729744740921e-26, 0.0, 0.0, 0.0, 1.589416527789629e-27, 6.820169096604854e-07, 1.2989871580416428e-33, 0.0, 0.0, 0.0, -5.151729744740921e-26, 1.2305621300486428e-33, 6.820169096604854e-07, 0.0, -2.0707174673043752e-29, 1.9146442003822718e-20, 0.0, 0.0, 0.0, 1.6460881957011036e-06]
---
header: 
  seq: 1214
  stamp: 
    secs: 1518209583
    nsecs: 912053823
  frame_id: "swarmone/map"
child_frame_id: "swarmone/base_link"
pose: 
  pose: 
    position: 
      x: -0.53222537547
      y: -1.49612435752
      z: 0.0
    orientation: 
      x: 0.0
      y: 0.0
      z: 0.696135467434
      w: 0.717910447744
  covariance: [2.3442366047078407, -0.04455233323112323, 0.0, 0.0, 0.0, -5.1282716661784624e-17, -0.0445523332311232, 1.2209545777066249, 0.0, 0.0, 0.0, -1.6661992209325185e-15, 0.0, 0.0, 6.746420033043124e-07, 4.276583937361224e-14, 1.775662587649705e-18, 0.0, 0.0, 0.0, 4.276583937361223e-14, 6.746420698979098e-07, -2.3336381892073916e-25, 0.0, 0.0, 0.0, 1.7756625876497053e-18, -2.3336411707307993e-25, 6.746420698979154e-07, 0.0, -5.128271666178462e-17, -1.6661992209325185e-15, 0.0, 0.0, 0.0, 7.967812909322683e-08]
twist: 
  twist: 
    linear: 
      x: -1.94294386369e-13
      y: 0.051348983112
      z: 0.0
    angular: 
      x: 0.0
      y: 0.0
      z: 0.0399999999999
  covariance: [9.999999089259e-10, 1.8556279211577481e-13, 0.0, 0.0, 0.0, -1.9573583251674446e-36, 1.8556279211577512e-13, 1.453503313712201, 0.0, 0.0, 0.0, 2.047850856276799e-27, 0.0, 0.0, 9.419806316852073e-07, 1.540689857221663e-27, -4.994520007714775e-26, 0.0, 0.0, 0.0, 1.5406898572216632e-27, 6.746420032869182e-07, 1.1251898507237114e-33, 0.0, 0.0, 0.0, -4.994520007714774e-26, 1.1504761650722277e-33, 6.746420032869182e-07, 0.0, -1.9573583251674443e-36, 2.0478508562767957e-27, 0.0, 0.0, 0.0, 1.5745626219697822e-06]
---
header: 
  seq: 1215
  stamp: 
    secs: 1518209584
    nsecs:  12607813
  frame_id: "swarmone/map"
child_frame_id: "swarmone/base_link"
pose: 
  pose: 
    position: 
      x: -0.537366361715
      y: -1.49596602631
      z: 0.0
    orientation: 
      x: 0.0
      y: 0.0
      z: 0.696135408383
      w: 0.717910505004
  covariance: [2.661668472844419, -0.05337269289077552, 0.0, 0.0, 0.0, -4.9361407203601355e-17, -0.05337269289077551, 1.301660645044506, 0.0, 0.0, 0.0, -1.6038331679970363e-15, 0.0, 0.0, 6.720984542633077e-07, 4.244888666160161e-14, 1.6267711499120174e-18, 0.0, 0.0, 0.0, 4.244888666160162e-14, 6.720985042235978e-07, -2.1056232744409873e-25, 0.0, 0.0, 0.0, 1.6267711499120176e-18, -2.1056204458666175e-25, 6.720985042236033e-07, 0.0, -4.936140720360135e-17, -1.6038331679970361e-15, 0.0, 0.0, 0.0, 7.848603621934231e-08]
twist: 
  twist: 
    linear: 
      x: -1.75816302909e-13
      y: 0.0509527522874
      z: 0.0
    angular: 
      x: 0.0
      y: 0.0
      z: 0.0300000009944
  covariance: [9.999999100087723e-10, 1.7058385986676836e-13, 0.0, 0.0, 0.0, -3.017184715318373e-43, 1.7058385986676874e-13, 1.5765789619473136, 0.0, 0.0, 0.0, 3.572024704674398e-34, 0.0, 0.0, 9.411667982545081e-07, 1.5156902366885638e-27, -4.913987497439988e-26, 0.0, 0.0, 0.0, 1.5156902366885636e-27, 6.720984542460908e-07, 1.1074913367491267e-33, 0.0, 0.0, 0.0, -4.913987497439989e-26, 1.1064634399687393e-33, 6.720984542460908e-07, 0.0, -3.0171847153183726e-43, 3.5720247046743915e-34, 0.0, 0.0, 0.0, 1.5507207640607075e-06]
---
header: 
  seq: 1216
  stamp: 
    secs: 1518209584
    nsecs: 112100124
  frame_id: "swarmone/map"
child_frame_id: "swarmone/base_link"
pose: 
  pose: 
    position: 
      x: -0.538429694812
      y: -1.49613571249
      z: 0.0
    orientation: 
      x: 0.0
      y: 0.0
      z: 0.696135470279
      w: 0.717910444986
  covariance: [2.1994308567748355, -0.039630586579513946, 0.0, 0.0, 0.0, -3.4088824352696334e-14, -0.03963058657951395, 1.1805292633700317, 0.0, 0.0, 0.0, -1.1551618194695887e-12, 0.0, 0.0, 6.77144485795988e-07, 4.0044612834887104e-14, 1.4894286573266665e-18, 0.0, 0.0, 0.0, 4.0044612834887116e-14, 6.771445523621386e-07, -1.8471205310530183e-25, 0.0, 0.0, 0.0, 1.489428657326666e-18, -1.84712091495327e-25, 6.771445523621437e-07, 0.0, -3.408882435269635e-14, -1.155161819469589e-12, 0.0, 0.0, 0.0, 8.087022202070886e-08]
twist: 
  twist: 
    linear: 
      x: -1.62776281508e-13
      y: 0.0481012507621
      z: 0.0
    angular: 
      x: 0.0
      y: 0.0
      z: 0.0399999988395
  covariance: [9.999999090809352e-10, 1.90545184037562e-13, 0.0, 0.0, 0.0, -2.4445125011373257e-29, 1.9054518403756252e-13, 1.3943356046748159, 0.0, 0.0, 0.0, 1.0702133674636863e-20, 0.0, 0.0, 9.427722509741568e-07, 1.454981190704666e-27, -4.7173398874311335e-26, 0.0, 0.0, 0.0, 1.4549811907046667e-27, 6.771444857782841e-07, 9.877097859603704e-34, 0.0, 0.0, 0.0, -4.717339887431134e-26, 1.0396315640238861e-33, 6.771444857782841e-07, 0.0, -2.4445125011373248e-29, 1.0702133674636825e-20, 0.0, 0.0, 0.0, 1.5984044798787872e-06]
---
header: 
  seq: 1217
  stamp: 
    secs: 1518209584
    nsecs: 212589502
  frame_id: "swarmone/map"
child_frame_id: "swarmone/base_link"
pose: 
  pose: 
    position: 
      x: -0.543237659257
      y: -1.49598762132
      z: 0.0
    orientation: 
      x: 0.0
      y: 0.0
      z: 0.692537176318
      w: 0.721382186789
  covariance: [2.4971442387519356, -0.047766397164409044, 0.0, 0.0, 0.0, -5.397138065555553e-17, -0.04776639716440904, 1.2611591958305357, 0.0, 0.0, 0.0, -1.513595937544839e-15, 0.0, 0.0, 6.720984525450772e-07, 3.9684975102512015e-14, 1.3603467909648973e-18, 0.0, 0.0, 0.0, 3.968497510251203e-14, 6.720985024874933e-07, -1.646088747829086e-25, 0.0, 0.0, 0.0, 1.3603467909648973e-18, -1.6460874273772664e-25, 6.720985024874979e-07, 0.0, -5.3971380655555525e-17, -1.513595937544839e-15, 0.0, 0.0, 0.0, 7.848603621806914e-08]
twist: 
  twist: 
    linear: 
      x: -1.47187066171e-13
      y: 0.0476351291457
      z: 0.0
    angular: 
      x: 0.0
      y: 0.0
      z: 0.0300000009947
  covariance: [9.999999099246876e-10, 1.7505716047244892e-13, 0.0, 0.0, 0.0, -2.228453347248571e-36, 1.7505716047244942e-13, 1.513827510174515, 0.0, 0.0, 0.0, 1.0997587713493684e-27, 0.0, 0.0, 9.411667982489735e-07, 1.8761604520274375e-27, -4.5923855201911824e-26, 0.0, 0.0, 0.0, 1.8761604520274382e-27, 6.720984525278622e-07, 1.2617758914763016e-33, 0.0, 0.0, 0.0, -4.5923855201911847e-26, 1.2716233501196303e-33, 6.720984525278622e-07, 0.0, -2.22845334724857e-36, 1.0997587713493644e-27, 0.0, 0.0, 0.0, 1.5507207640606437e-06]
---
header: 
  seq: 1218
  stamp: 
    secs: 1518209584
    nsecs: 312363386
  frame_id: "swarmone/map"
child_frame_id: "swarmone/base_link"
pose: 
  pose: 
    position: 
      x: -0.541590412196
      y: -1.4945265527
      z: 0.0
    orientation: 
      x: 0.0
      y: 0.0
      z: 0.692537234694
      w: 0.721382130748
  covariance: [2.0669381797667983, -0.0365375343611507, 0.0, 0.0, 0.0, -1.3560645211250543e-14, -0.03653753436115069, 1.1411695822222412, 0.0, 0.0, 0.0, -3.5613546037084063e-13, 0.0, 0.0, 6.795868134376953e-07, 3.593294528906924e-14, 9.321113192079364e-19, 0.0, 0.0, 0.0, 3.593294528906924e-14, 6.795868799385726e-07, -1.0460840830489539e-25, 0.0, 0.0, 0.0, 9.32111319207936e-19, -1.0460863394167626e-25, 6.795868799385766e-07, 0.0, -1.3560645211250543e-14, -3.5613546037084073e-13, 0.0, 0.0, 0.0, 8.206231489057764e-08]
twist: 
  twist: 
    linear: 
      x: -1.01806124905e-13
      y: 0.043186144955
      z: 0.0
    angular: 
      x: 0.0
      y: 0.0
      z: 0.039999998947
  covariance: [9.999999092366282e-10, 1.986492522294e-13, 0.0, 0.0, 0.0, -1.7572968414278369e-29, 1.9864925222940078e-13, 1.338718975569014, 0.0, 0.0, 0.0, 1.6434935300976494e-20, 0.0, 0.0, 9.435424909533908e-07, 1.742443088615027e-27, -4.2660043215972657e-26, 0.0, 0.0, 0.0, 1.7424430886150255e-27, 6.795868134198363e-07, 1.1229383084468625e-33, 0.0, 0.0, 0.0, -4.2660043215972657e-26, 1.1409072658856963e-33, 6.795868134198363e-07, 0.0, -1.7572968414278357e-29, 1.6434935300976455e-20, 0.0, 0.0, 0.0, 1.622246337790262e-06]
---
header: 
  seq: 1219
  stamp: 
    secs: 1518209584
    nsecs: 411742926
  frame_id: "swarmone/map"
child_frame_id: "swarmone/base_link"
pose: 
  pose: 
    position: 
      x: -0.545850123085
      y: -1.4943526993
      z: 0.0
    orientation: 
      x: 0.0
      y: 0.0
      z: 0.692537231917
      w: 0.721382133414
  covariance: [2.3431227950377798, -0.04553961028458807, 0.0, 0.0, 0.0, -5.647367734545149e-17, -0.04553961028458804, 1.2209673448305474, 0.0, 0.0, 0.0, -1.3841741502986908e-15, 0.0, 0.0, 6.771464209828743e-07, 3.547394174428161e-14, 8.405225109391547e-19, 0.0, 0.0, 0.0, 3.547394174428161e-14, 6.771464875248791e-07, -9.231986390370249e-26, 0.0, 0.0, 0.0, 8.405225109391549e-19, -9.23199685948763e-26, 6.77146487524883e-07, 0.0, -5.64736773454515e-17, -1.384174150298691e-15, 0.0, 0.0, 0.0, 8.087022198686971e-08]
twist: 
  twist: 
    linear: 
      x: -9.21680681876e-14
      y: 0.0426113344689
      z: 0.0
    angular: 
      x: 0.0
      y: 0.0
      z: 0.0399999999999
  covariance: [9.999999088337693e-10, 1.827253465402853e-13, 0.0, 0.0, 0.0, -1.6638821509501432e-36, 1.82725346540286e-13, 1.453523926329317, 0.0, 0.0, 0.0, 1.760429475440045e-27, 0.0, 0.0, 9.427722570569429e-07, 1.7060982436115086e-27, -4.17724303315594e-26, 0.0, 0.0, 0.0, 1.706098243611509e-27, 6.771464209653233e-07, 1.0562039141374975e-33, 0.0, 0.0, 0.0, -4.1772430331559424e-26, 1.0449098111440722e-33, 6.771464209653233e-07, 0.0, -1.6638821509501425e-36, 1.7604294754400407e-27, 0.0, 0.0, 0.0, 1.5984044798798447e-06]
---
header: 
  seq: 1220
  stamp: 
    secs: 1518209584
    nsecs: 512214184
  frame_id: "swarmone/map"
child_frame_id: "swarmone/base_link"
pose: 
  pose: 
    position: 
      x: -0.550098607369
      y: -1.49417930058
      z: 0.0
    orientation: 
      x: 0.0
      y: 0.0
      z: 0.6925371743
      w: 0.721382188727
  covariance: [2.6599881195631756, -0.056122479640293134, 0.0, 0.0, 0.0, -5.527197563989404e-17, -0.05612247964029313, 1.3017013722335369, 0.0, 0.0, 0.0, -1.3546327455765877e-15, 0.0, 0.0, 6.771464494766353e-07, 3.49901540606959e-14, 7.700380727466211e-19, 0.0, 0.0, 0.0, 3.49901540606959e-14, 6.771464993828688e-07, -8.342216471580634e-26, 0.0, 0.0, 0.0, 7.700380727466213e-19, -8.342243100465319e-26, 6.771464993828726e-07, 0.0, -5.527197563989403e-17, -1.3546327455765875e-15, 0.0, 0.0, 0.0, 8.08702220087314e-08]
twist: 
  twist: 
    linear: 
      x: -8.3409049452e-14
      y: 0.0420302094623
      z: 0.0
    angular: 
      x: 0.0
      y: 0.0
      z: 0.0300000009952
  covariance: [9.999999099276592e-10, 1.6799751890634438e-13, 0.0, 0.0, 0.0, -2.6172309904479527e-43, 1.6799751890634496e-13, 1.5765030359839303, 0.0, 0.0, 0.0, 3.1329442800372315e-34, 0.0, 0.0, 9.4277225714649e-07, 1.6827624572987728e-27, -4.120277690274239e-26, 0.0, 0.0, 0.0, 1.6827624572987724e-27, 6.771464494590869e-07, 1.0510109821536145e-33, 0.0, 0.0, 0.0, -4.120277690274239e-26, 1.0014430820043996e-33, 6.771464494590869e-07, 0.0, -2.617230990447952e-43, 3.1329442800372246e-34, 0.0, 0.0, 0.0, 1.5984044798809378e-06]
---
header: 
  seq: 1221
  stamp: 
    secs: 1518209584
    nsecs: 612761497
  frame_id: "swarmone/map"
child_frame_id: "swarmone/base_link"
pose: 
  pose: 
    position: 
      x: -0.553332906355
      y: -1.48906231587
      z: 0.0
    orientation: 
      x: 0.0
      y: 0.0
      z: 0.692537231333
      w: 0.721382133975
  covariance: [2.2014347001274017, -0.04289660903121583, 0.0, 0.0, 0.0, -3.910657600131932e-14, -0.04289660903121582, 1.1815159523773324, 0.0, 0.0, 0.0, -9.885267962214499e-13, 0.0, 0.0, 6.77144587807971e-07, 3.404432129117311e-14, -2.2528746883105427e-19, 0.0, 0.0, 0.0, 3.40443212911731e-14, 6.77144654350324e-07, 2.3811829703214494e-26, 0.0, 0.0, 0.0, -2.252874688310543e-19, 2.3811377619298138e-26, 6.771446543503276e-07, 0.0, -3.910657600131929e-14, -9.885267962214495e-13, 0.0, 0.0, 0.0, 8.087022204276098e-08]
twist: 
  twist: 
    linear: 
      x: 2.42134508545e-14
      y: 0.0408937277291
      z: 0.0
    angular: 
      x: 0.0
      y: 0.0
      z: 0.0399999988493
  covariance: [9.999999101279018e-10, 1.9472151100399806e-13, 0.0, 0.0, 0.0, -2.048549218234575e-29, 1.9472151100399874e-13, 1.395918110889108, 0.0, 0.0, 0.0, 1.8569191656091227e-20, 0.0, 0.0, 9.427722512948214e-07, 1.6361931982821206e-27, -4.009068416539314e-26, 0.0, 0.0, 0.0, 1.636193198282121e-27, 6.771445877902758e-07, 9.889037821236656e-34, 0.0, 0.0, 0.0, -4.009068416539313e-26, 9.500995849325077e-34, 6.771445877902758e-07, 0.0, -2.048549218234575e-29, 1.8569191656091227e-20, 0.0, 0.0, 0.0, 1.5984044798798411e-06]
---
header: 
  seq: 1222
  stamp: 
    secs: 1518209584
    nsecs: 712205410
  frame_id: "swarmone/map"
child_frame_id: "swarmone/base_link"
pose: 
  pose: 
    position: 
      x: -0.557366826758
      y: -1.48889764981
      z: 0.0
    orientation: 
      x: 0.0
      y: 0.0
      z: 0.692537228477
      w: 0.721382136716
  covariance: [2.496041139988444, -0.05282413076403963, 0.0, 0.0, 0.0, -5.272551285135453e-17, -0.05282413076403959, 1.2614102754833183, 0.0, 0.0, 0.0, -1.2916224403009576e-15, 0.0, 0.0, 6.746420025630146e-07, 3.356657405732964e-14, -2.01295081842881e-19, 0.0, 0.0, 0.0, 3.356657405732964e-14, 6.746420691327625e-07, 2.0800800073409696e-26, 0.0, 0.0, 0.0, -2.0129508184288094e-19, 2.080047730628199e-26, 6.74642069132766e-07, 0.0, -5.272551285135453e-17, -1.2916224403009576e-15, 0.0, 0.0, 0.0, 7.967812909265611e-08]
twist: 
  twist: 
    linear: 
      x: 2.19160470445e-14
      y: 0.0403033973603
      z: 0.0
    angular: 
      x: 0.0
      y: 0.0
      z: 0.0399999999999
  covariance: [9.999999088881118e-10, 1.790482899263764e-13, 0.0, 0.0, 0.0, -1.8888346175545844e-36, 1.7904828992637698e-13, 1.51423268040388, 0.0, 0.0, 0.0, 1.934398063160391e-27, 0.0, 0.0, 9.419806316828536e-07, 1.5993619233891015e-27, -3.9187612690827893e-26, 0.0, 0.0, 0.0, 1.5993619233891013e-27, 6.746420025456374e-07, 9.309954740842999e-34, 0.0, 0.0, 0.0, -3.9187612690827893e-26, 9.482087916250257e-34, 6.746420025456374e-07, 0.0, -1.8888346175545847e-36, 1.934398063160391e-27, 0.0, 0.0, 0.0, 1.5745626219697536e-06]
---
header: 
  seq: 1223
  stamp: 
    secs: 1518209584
    nsecs: 812737703
  frame_id: "swarmone/map"
child_frame_id: "swarmone/base_link"
pose: 
  pose: 
    position: 
      x: -0.55970913751
      y: -1.48113108881
      z: 0.0
    orientation: 
      x: 0.0
      y: 0.0
      z: 0.692537235356
      w: 0.721382130112
  covariance: [2.0669052088273654, -0.04000012844843172, 0.0, 0.0, 0.0, -1.2604545216700018e-14, -0.040000128448431704, 1.1415348685754296, 0.0, 0.0, 0.0, -3.3847191406552374e-13, 0.0, 0.0, 6.79588577324863e-07, 3.221365595780769e-14, -1.6746086162170701e-18, 0.0, 0.0, 0.0, 3.221365595780769e-14, 6.795886438315547e-07, 1.686159344953183e-25, 0.0, 0.0, 0.0, -1.6746086162170709e-18, 1.6861603073796693e-25, 6.795886438315579e-07, 0.0, -1.2604545216700018e-14, -3.384719140655237e-13, 0.0, 0.0, 0.0, 8.206231490575546e-08]
twist: 
  twist: 
    linear: 
      x: 1.81074376396e-13
      y: 0.0387160050607
      z: 0.0
    angular: 
      x: 0.0
      y: 0.0
      z: 0.0399999999302
  covariance: [9.999999099860031e-10, 2.08833248237601e-13, 0.0, 0.0, 0.0, -1.5876462025374328e-29, 2.088332482376016e-13, 1.3395478261421285, 0.0, 0.0, 0.0, 1.2557854364499272e-20, 0.0, 0.0, 9.435424964456574e-07, 1.5591405497577567e-27, -3.82453760512003e-26, 0.0, 0.0, 0.0, 1.559140549757758e-27, 6.795885773070088e-07, 9.422159439438182e-34, 0.0, 0.0, 0.0, -3.824537605120032e-26, 9.00808429285738e-34, 6.795885773070088e-07, 0.0, -1.5876462025374328e-29, 1.2557854364499265e-20, 0.0, 0.0, 0.0, 1.6222463377910027e-06]
---
header: 
  seq: 1224
  stamp: 
    secs: 1518209584
    nsecs: 912193537
  frame_id: "swarmone/map"
child_frame_id: "swarmone/base_link"
pose: 
  pose: 
    position: 
      x: -0.563525763873
      y: -1.48097525583
      z: 0.0
    orientation: 
      x: 0.0
      y: 0.0
      z: 0.692537259435
      w: 0.721382106996
  covariance: [2.3433673899878, -0.04936489035632209, 0.0, 0.0, 0.0, -5.356040485179957e-17, -0.049364890356322084, 1.2214228270973078, 0.0, 0.0, 0.0, -1.3110639063801647e-15, 0.0, 0.0, 6.958743104349176e-07, 3.15042083383728e-14, -1.4888828769506484e-18, 0.0, 0.0, 0.0, 3.15042083383728e-14, 6.958743765310637e-07, 1.5426184331370064e-25, 0.0, 0.0, 0.0, -1.4888828769506486e-18, 1.542621831957363e-25, 6.95874376531067e-07, 0.0, -5.356040485179958e-17, -1.3110639063801644e-15, 0.0, 0.0, 0.0, 9.0406965152502e-08]
twist: 
  twist: 
    linear: 
      x: 1.63913821134e-13
      y: 0.0380981228861
      z: 0.0
    angular: 
      x: 0.0
      y: 0.0
      z: 0.0399999999999
  covariance: [9.999999089095167e-10, 1.9205735213023837e-13, 0.0, 0.0, 0.0, -1.4987290823419673e-36, 1.9205735213023903e-13, 1.4545009380418865, 0.0, 0.0, 0.0, 1.3382147401652367e-27, 0.0, 0.0, 9.484041158759902e-07, 1.6096585120562921e-27, -3.947987796650967e-26, 0.0, 0.0, 0.0, 1.6096585120562921e-27, 6.958743104160579e-07, 9.265300464589557e-34, 0.0, 0.0, 0.0, -3.9479877966509674e-26, 1.0342514644608875e-33, 6.958743104160579e-07, 0.0, -1.4987290823419673e-36, 1.338214740165236e-27, 0.0, 0.0, 0.0, 1.7891393431611699e-06]
---
header: 
  seq: 1225
  stamp: 
    secs: 1518209585
    nsecs:  12634516
  frame_id: "swarmone/map"
child_frame_id: "swarmone/base_link"
pose: 
  pose: 
    position: 
      x: -0.567317879411
      y: -1.48082042988
      z: 0.0
    orientation: 
      x: 0.0
      y: 0.0
      z: 0.692537228477
      w: 0.721382136716
  covariance: [2.660233160382744, -0.06031799964235737, 0.0, 0.0, 0.0, -5.1949728534372845e-17, -0.06031799964235736, 1.30216282641867, 0.0, 0.0, 0.0, -1.2716980434442638e-15, 0.0, 0.0, 6.746420289879145e-07, 3.121024641186436e-14, -1.3719609487969059e-18, 0.0, 0.0, 0.0, 3.1210246411864355e-14, 6.746420955577477e-07, 1.3164048509378996e-25, 0.0, 0.0, 0.0, -1.3719609487969059e-18, 1.3164041772157155e-25, 6.746420955577507e-07, 0.0, -5.1949728534372845e-17, -1.2716980434442634e-15, 0.0, 0.0, 0.0, 7.967812911266609e-08]
twist: 
  twist: 
    linear: 
      x: 1.48341722003e-13
      y: 0.0374741204205
      z: 0.0
    angular: 
      x: 0.0
      y: 0.0
      z: 0.0399999999999
  covariance: [9.999999098973656e-10, 1.7656748950301986e-13, 0.0, 0.0, 0.0, -2.416652890446107e-43, 1.7656748950302044e-13, 1.5775072337945835, 0.0, 0.0, 0.0, 2.4359008690203905e-34, 0.0, 0.0, 9.419806317668861e-07, 1.4857098085818049e-27, -3.643685242358215e-26, 0.0, 0.0, 0.0, 1.4857098085818049e-27, 6.746420289705249e-07, 8.384872326488103e-34, 0.0, 0.0, 0.0, -3.6436852423582155e-26, 7.611211546930915e-34, 6.746420289705249e-07, 0.0, -2.4166528904461076e-43, 2.435900869020389e-34, 0.0, 0.0, 0.0, 1.5745626219707537e-06]
---
header: 
  seq: 1226
  stamp: 
    secs: 1518209585
    nsecs: 112104416
  frame_id: "swarmone/map"
child_frame_id: "swarmone/base_link"
pose: 
  pose: 
    position: 
      x: -0.566713307368
      y: -1.47268825036
      z: 0.0
    orientation: 
      x: 0.0
      y: 0.0
      z: 0.699716295682
      w: 0.714420818256
  covariance: [2.2000992637965884, -0.04567503982017568, 0.0, 0.0, 0.0, -3.1874723940859725e-14, -0.04567503982017566, 1.1813989762162298, 0.0, 0.0, 0.0, -8.117719477534537e-13, 0.0, 0.0, 6.796108390986064e-07, 2.851600194082997e-14, -2.7198251549923586e-18, 0.0, 0.0, 0.0, 2.851600194082997e-14, 6.796109056481361e-07, 2.421585112708894e-25, 0.0, 0.0, 0.0, -2.7198251549923578e-18, 2.4215827418422555e-25, 6.796109056481388e-07, 0.0, -3.187472394085973e-14, -8.117719477534536e-13, 0.0, 0.0, 0.0, 8.206231491767226e-08]
twist: 
  twist: 
    linear: 
      x: 2.97229117878e-13
      y: 0.0342710114763
      z: 0.0
    angular: 
      x: 0.0
      y: 0.0
      z: 0.0400000007585
  covariance: [9.999999090604883e-10, 2.0526265368307683e-13, 0.0, 0.0, 0.0, -1.6917308593524535e-29, 2.0526265368307743e-13, 1.396438589462484, 0.0, 0.0, 0.0, 1.3399343614596113e-20, 0.0, 0.0, 9.435425656802731e-07, 7.015547887468584e-28, -3.3884912380492174e-26, 0.0, 0.0, 0.0, 7.015547887468584e-28, 6.796108390807521e-07, 3.3827639128088947e-34, 0.0, 0.0, 0.0, -3.3884912380492174e-26, 3.6648877520284453e-34, 6.796108390807521e-07, 0.0, -1.691730859352454e-29, 1.3399343614596085e-20, 0.0, 0.0, 0.0, 1.622246337788958e-06]
---
header: 
  seq: 1227
  stamp: 
    secs: 1518209585
    nsecs: 212609053
  frame_id: "swarmone/map"
child_frame_id: "swarmone/base_link"
pose: 
  pose: 
    position: 
      x: -0.570121932571
      y: -1.47261727172
      z: 0.0
    orientation: 
      x: 0.0
      y: 0.0
      z: 0.69613548827
      w: 0.71791042754
  covariance: [2.4981801874287104, -0.052864488752826025, 0.0, 0.0, 0.0, -2.896564760981652e-17, -0.052864488752826025, 1.2619922540639439, 0.0, 0.0, 0.0, -1.1181894956468098e-15, 0.0, 0.0, 6.844335996911026e-07, 2.7898410636482484e-14, -2.4803057549644693e-18, 0.0, 0.0, 0.0, 2.789841063648249e-14, 6.844336661334055e-07, 2.1929400304391815e-25, 0.0, 0.0, 0.0, -2.480305754964469e-18, 2.192944740648944e-25, 6.844336661334079e-07, 0.0, -2.896564760981652e-17, -1.1181894956468098e-15, 0.0, 0.0, 0.0, 8.444650069593081e-08]
twist: 
  twist: 
    linear: 
      x: 2.68777274403e-13
      y: 0.0335738803878
      z: 0.0
    angular: 
      x: 0.0
      y: 0.0
      z: 0.0399999999995
  covariance: [9.999999099398417e-10, 1.8855911827272939e-13, 0.0, 0.0, 0.0, -1.5426871785162168e-36, 1.885591182727299e-13, 1.5160925877932483, 0.0, 0.0, 0.0, 1.3797644529449223e-27, 0.0, 0.0, 9.450226172947842e-07, 1.0346930677249402e-27, -3.3684116745335656e-26, 0.0, 0.0, 0.0, 1.0346930677249402e-27, 6.844335996730592e-07, 5.168435406357018e-34, 0.0, 0.0, 0.0, -3.3684116745335644e-26, 5.361503757009596e-34, 6.844335996730592e-07, 0.0, -1.5426871785162175e-36, 1.3797644529449193e-27, 0.0, 0.0, 0.0, 1.6699300536114392e-06]
---
header: 
  seq: 1228
  stamp: 
    secs: 1518209585
    nsecs: 312067270
  frame_id: "swarmone/map"
child_frame_id: "swarmone/base_link"
pose: 
  pose: 
    position: 
      x: -0.568034228997
      y: -1.46577597742
      z: 0.0
    orientation: 
      x: 0.0
      y: 0.0
      z: 0.692537424243
      w: 0.721381948778
  covariance: [2.067320046424573, -0.03887155435925452, 0.0, 0.0, 0.0, -6.8851023001903034e-15, -0.03887155435925452, 1.1415827269605314, 0.0, 0.0, 0.0, -2.515412744509971e-13, 0.0, 0.0, 6.820169137987789e-07, 2.457451533593088e-14, -3.556805681944103e-18, 0.0, 0.0, 0.0, 2.4574515335930886e-14, 6.820170300977031e-07, 2.7522688301968903e-25, 0.0, 0.0, 0.0, -3.556805681944103e-18, 2.7522732732466735e-25, 6.82017030097705e-07, 0.0, -6.8851023001903066e-15, -2.5154127445099707e-13, 0.0, 0.0, 0.0, 8.325440777978411e-08]
twist: 
  twist: 
    linear: 
      x: 3.89483531757e-13
      y: 0.0295533917886
      z: 0.0
    angular: 
      x: 0.0
      y: 0.0
      z: 0.0699999967407
  covariance: [9.99999908921944e-10, 2.0883758580056207e-13, 0.0, 0.0, 0.0, -1.3608647077233947e-29, 2.0883758580056255e-13, 1.3405029951629996, 0.0, 0.0, 0.0, 4.120198780013079e-21, 0.0, 0.0, 9.442923478084476e-07, 1.1964433611191501e-27, -2.941544171014591e-26, 0.0, 0.0, 0.0, 1.1964433611191505e-27, 6.820169137807688e-07, 5.5514428759192805e-34, 0.0, 0.0, 0.0, -2.941544171014592e-26, 5.253530060146901e-34, 6.820169137807688e-07, 0.0, -1.3608647077233947e-29, 4.1201987800130696e-21, 0.0, 0.0, 0.0, 1.646088195700092e-06]
---
header: 
  seq: 1229
  stamp: 
    secs: 1518209585
    nsecs: 412077188
  frame_id: "swarmone/map"
child_frame_id: "swarmone/base_link"
pose: 
  pose: 
    position: 
      x: -0.570947983309
      y: -1.46565694885
      z: 0.0
    orientation: 
      x: 0.0
      y: 0.0
      z: 0.69253723408
      w: 0.721382131337
  covariance: [2.345570725209987, -0.04816057461645221, 0.0, 0.0, 0.0, -3.864589148621236e-17, -0.04816057461645221, 1.2219050611360298, 0.0, 0.0, 0.0, -9.446241235033632e-16, 0.0, 0.0, 6.771464375125925e-07, 2.3946508130389767e-14, -3.2407678941449175e-18, 0.0, 0.0, 0.0, 2.394650813038977e-14, 6.771465040557031e-07, 2.404087201617156e-25, 0.0, 0.0, 0.0, -3.2407678941449175e-18, 2.404090290729126e-25, 6.771465040557048e-07, 0.0, -3.8645891486212365e-17, -9.446241235033634e-16, 0.0, 0.0, 0.0, 8.08702219995603e-08]
twist: 
  twist: 
    linear: 
      x: 3.52396331381e-13
      y: 0.0287645262985
      z: 0.0
    angular: 
      x: 0.0
      y: 0.0
      z: 0.0400000029995
  covariance: [9.999999094618874e-10, 1.919100199167504e-13, 0.0, 0.0, 0.0, -1.2788471447646873e-36, 1.919100199167509e-13, 1.4561752457861916, 0.0, 0.0, 0.0, 4.338015396185116e-28, 0.0, 0.0, 9.427722571088877e-07, 1.1472102541477384e-27, -2.8198497075075064e-26, 0.0, 0.0, 0.0, 1.1472102541477376e-27, 6.771464374950522e-07, 4.970783694909282e-34, 0.0, 0.0, 0.0, -2.8198497075075053e-26, 5.11607373756245e-34, 6.771464374950522e-07, 0.0, -1.278847144764687e-36, 4.338015396185106e-28, 0.0, 0.0, 0.0, 1.5984044798804792e-06]
---
header: 
  seq: 1230
  stamp: 
    secs: 1518209585
    nsecs: 512590408
  frame_id: "swarmone/map"
child_frame_id: "swarmone/base_link"
pose: 
  pose: 
    position: 
      x: -0.573796977055
      y: -1.46554057917
      z: 0.0
    orientation: 
      x: 0.0
      y: 0.0
      z: 0.692537235357
      w: 0.721382130112
  covariance: [2.663071285533987, -0.05899345513678685, 0.0, 0.0, 0.0, -3.729101824459016e-17, -0.05899345513678685, 1.3026920417694303, 0.0, 0.0, 0.0, -9.11468135888381e-16, 0.0, 0.0, 6.796126095684038e-07, 2.327433815178934e-14, -2.9476400131110467e-18, 0.0, 0.0, 0.0, 2.327433815178934e-14, 6.796126760757514e-07, 2.1415098922137953e-25, 0.0, 0.0, 0.0, -2.9476400131110467e-18, 2.1415063258333598e-25, 6.796126760757531e-07, 0.0, -3.7291018244590167e-17, -9.114681358883812e-16, 0.0, 0.0, 0.0, 8.206231490507319e-08]
twist: 
  twist: 
    linear: 
      x: 3.18893854906e-13
      y: 0.0279716909437
      z: 0.0
    angular: 
      x: 0.0
      y: 0.0
      z: 0.0399999999999
  covariance: [9.99999909968975e-10, 1.7635552380553422e-13, 0.0, 0.0, 0.0, -1.9852173482032595e-43, 1.7635552380553472e-13, 1.579373020367267, 0.0, 0.0, 0.0, 7.542694573707734e-35, 0.0, 0.0, 9.435425711801681e-07, 1.1246645885724237e-27, -2.763840144136859e-26, 0.0, 0.0, 0.0, 1.124664588572423e-27, 6.796126095507e-07, 4.1772821922745074e-34, 0.0, 0.0, 0.0, -2.7638401441368577e-26, 4.92647704669943e-34, 6.796126095507e-07, 0.0, -1.9852173482032603e-43, 7.542694573707716e-35, 0.0, 0.0, 0.0, 1.6222463377911355e-06]
---
header: 
  seq: 1231
  stamp: 
    secs: 1518209585
    nsecs: 612101078
  frame_id: "swarmone/map"
child_frame_id: "swarmone/base_link"
pose: 
  pose: 
    position: 
      x: -0.570424368695
      y: -1.45975850554
      z: 0.0
    orientation: 
      x: 0.0
      y: 0.0
      z: 0.692537281062
      w: 0.721382086234
  covariance: [2.201710562070857, -0.04473045177144571, 0.0, 0.0, 0.0, -2.2275570858413096e-14, -0.04473045177144571, 1.1817306048967418, 0.0, 0.0, 0.0, -5.673174616504183e-13, 0.0, 0.0, 6.720964392480376e-07, 1.9543068941852704e-14, -3.728448167207937e-18, 0.0, 0.0, 0.0, 1.9543068941852704e-14, 6.720965224870333e-07, 2.222754312521161e-25, 0.0, 0.0, 0.0, -3.728448167207937e-18, 2.222747169310213e-25, 6.720965224870344e-07, 0.0, -2.2275570858413096e-14, -5.673174616504183e-13, 0.0, 0.0, 0.0, 7.848603623020982e-08]
twist: 
  twist: 
    linear: 
      x: 4.06769659866e-13
      y: 0.0234578735435
      z: 0.0
    angular: 
      x: 0.0
      y: 0.0
      z: 0.049999998792
  covariance: [9.999999090996243e-10, 2.0110347226433523e-13, 0.0, 0.0, 0.0, -1.389000053436008e-29, 2.0110347226433568e-13, 1.3972695941354911, 0.0, 0.0, 0.0, 1.1624247427523524e-20, 0.0, 0.0, 9.411667917649874e-07, 9.188727656743373e-28, -2.2616839705088497e-26, 0.0, 0.0, 0.0, 9.188727656743377e-28, 6.720964392306928e-07, 2.76158381787539e-34, 0.0, 0.0, 0.0, -2.2616839705088494e-26, 3.325568852833483e-34, 6.720964392306928e-07, 0.0, -1.3890000534360084e-29, 1.1624247427523523e-20, 0.0, 0.0, 0.0, 1.5507207640584963e-06]
---
header: 
  seq: 1232
  stamp: 
    secs: 1518209585
    nsecs: 712740183
  frame_id: "swarmone/map"
child_frame_id: "swarmone/base_link"
pose: 
  pose: 
    position: 
      x: -0.572737945295
      y: -1.45966397856
      z: 0.0
    orientation: 
      x: 0.0
      y: 0.0
      z: 0.696135471289
      w: 0.717910444007
  covariance: [2.5002424326014974, -0.05494956232683077, 0.0, 0.0, 0.0, -2.6297213151759527e-17, -0.054949562326830764, 1.2625989116589922, 0.0, 0.0, 0.0, -7.328419934103751e-16, 0.0, 0.0, 6.82041381178773e-07, 1.8758305006976212e-14, -3.4007626676049585e-18, 0.0, 0.0, 0.0, 1.8758305006976212e-14, 6.820414476689812e-07, 2.006492919074518e-25, 0.0, 0.0, 0.0, -3.400762667604958e-18, 2.0064929876441576e-25, 6.820414476689823e-07, 0.0, -2.6297213151759527e-17, -7.32841993410375e-16, 0.0, 0.0, 0.0, 8.325440780306169e-08]
twist: 
  twist: 
    linear: 
      x: 3.67762002017e-13
      y: 0.0225581830497
      z: 0.0
    angular: 
      x: 0.0
      y: 0.0
      z: 0.0400000009938
  covariance: [9.999999100715326e-10, 1.8465132505878027e-13, 0.0, 0.0, 0.0, -1.2637146917013082e-36, 1.8465132505878065e-13, 1.5171254189153485, 0.0, 0.0, 0.0, 1.1958040929891302e-27, 0.0, 0.0, 9.442924230274982e-07, 6.88045044974198e-28, -2.246742165824181e-26, 0.0, 0.0, 0.0, 6.880450449741978e-28, 6.8204138116091e-07, 2.174066550259318e-34, 0.0, 0.0, 0.0, -2.2467421658241804e-26, 2.501959713093849e-34, 6.8204138116091e-07, 0.0, -1.263714691701308e-36, 1.1958040929891298e-27, 0.0, 0.0, 0.0, 1.6460881957014156e-06]
---
header: 
  seq: 1233
  stamp: 
    secs: 1518209585
    nsecs: 812206507
  frame_id: "swarmone/map"
child_frame_id: "swarmone/base_link"
pose: 
  pose: 
    position: 
      x: -0.564167661632
      y: -1.45525282776
      z: 0.0
    orientation: 
      x: 0.0
      y: 0.0
      z: 0.692537239168
      w: 0.721382126453
  covariance: [2.0682687478979664, -0.04026800380239961, 0.0, 0.0, 0.0, -3.3710161540194964e-15, -0.0402680038023996, 1.1419221439053506, 0.0, 0.0, 0.0, -1.2247634466547165e-13, 0.0, 0.0, 6.771199360559346e-07, 1.2445563426243958e-14, -3.96258527396833e-18, 0.0, 0.0, 0.0, 1.244556342624396e-14, 6.771200025975667e-07, 1.529439375651793e-25, 0.0, 0.0, 0.0, -3.96258527396833e-18, 1.5294404437114675e-25, 6.771200025975671e-07, 0.0, -3.371016154019496e-15, -1.224763446654716e-13, 0.0, 0.0, 0.0, 8.087022198888427e-08]
twist: 
  twist: 
    linear: 
      x: 4.33491676562e-13
      y: 0.0149497832754
      z: 0.0
    angular: 
      x: 0.0
      y: 0.0
      z: 0.039999999771
  covariance: [9.999999089295988e-10, 2.1024166431949157e-13, 0.0, 0.0, 0.0, -8.631545483214296e-30, 2.1024166431949187e-13, 1.3409620479789355, 0.0, 0.0, 0.0, 2.15560110030013e-21, 0.0, 0.0, 9.427721737115784e-07, 5.934162523415341e-28, -1.465257770718413e-26, 0.0, 0.0, 0.0, 5.934162523415343e-28, 6.771199360382644e-07, 1.6230697217153724e-34, 0.0, 0.0, 0.0, -1.4652577707184137e-26, 1.039636249349958e-34, 6.771199360382644e-07, 0.0, -8.631545483214299e-30, 2.1556011003001396e-21, 0.0, 0.0, 0.0, 1.5984044798797992e-06]
---
header: 
  seq: 1234
  stamp: 
    secs: 1518209585
    nsecs: 912714243
  frame_id: "swarmone/map"
child_frame_id: "swarmone/base_link"
pose: 
  pose: 
    position: 
      x: -0.565614129082
      y: -1.45519368061
      z: 0.0
    orientation: 
      x: 0.0
      y: 0.0
      z: 0.692537238796
      w: 0.72138212681
  covariance: [2.348104974489242, -0.04974460200280456, 0.0, 0.0, 0.0, -1.891067083189974e-17, -0.04974460200280455, 1.2226556504953303, 0.0, 0.0, 0.0, -4.607456321361807e-16, 0.0, 0.0, 6.820413778972066e-07, 1.1523265356646606e-14, -3.620342565723124e-18, 0.0, 0.0, 0.0, 1.1523265356646604e-14, 6.820414443632894e-07, 1.3121412868837886e-25, 0.0, 0.0, 0.0, -3.620342565723126e-18, 1.312137441179391e-25, 6.820414443632899e-07, 0.0, -1.891067083189974e-17, -4.607456321361807e-16, 0.0, 0.0, 0.0, 8.325440780047551e-08]
twist: 
  twist: 
    linear: 
      x: 3.92037578345e-13
      y: 0.0138574864857
      z: 0.0
    angular: 
      x: 0.0
      y: 0.0
      z: 0.0399999999999
  covariance: [9.999999099532865e-10, 1.9311386614616572e-13, 0.0, 0.0, 0.0, -8.0710598381038e-37, 1.9311386614616605e-13, 1.4572397917388917, 0.0, 0.0, 0.0, 2.248913938235938e-28, 0.0, 0.0, 9.442924230174192e-07, 5.588358540307891e-28, -1.3796962032884265e-26, 0.0, 0.0, 0.0, 5.588358540307891e-28, 6.820413778793437e-07, 1.1155463380355381e-34, 0.0, 0.0, 0.0, -1.3796962032884265e-26, 1.20244958112043e-34, 6.820413778793437e-07, 0.0, -8.071059838103806e-37, 2.248913938235948e-28, 0.0, 0.0, 0.0, 1.646088195701286e-06]
---
header: 
  seq: 1235
  stamp: 
    secs: 1518209586
    nsecs:  12160063
  frame_id: "swarmone/map"
child_frame_id: "swarmone/base_link"
pose: 
  pose: 
    position: 
      x: -0.566937354403
      y: -1.45513959361
      z: 0.0
    orientation: 
      x: 0.0
      y: 0.0
      z: 0.696135881275
      w: 0.717910046456
  covariance: [2.6623354686951712, -0.060602311707467584, 0.0, 0.0, 0.0, -2.6977917445288865e-17, -0.06060231170746758, 1.302595682961175, 0.0, 0.0, 0.0, -7.969811638905984e-16, 0.0, 0.0, 8.335022175375224e-07, 7.979931439501813e-15, -2.434811300102066e-18, 0.0, 0.0, 0.0, 7.979931439501813e-15, 8.335022674759847e-07, 1.166976922457567e-25, 0.0, 0.0, 0.0, -2.4348113001020666e-18, 1.1669783096138484e-25, 8.335022674759851e-07, 0.0, -2.6977917445288862e-17, -7.969811638905983e-16, 0.0, 0.0, 0.0, 2.2630555524135684e-07]
twist: 
  twist: 
    linear: 
      x: 3.5512130837e-13
      y: 0.0127767305046
      z: 0.0
    angular: 
      x: 0.0
      y: 0.0
      z: 0.0400000000002
  covariance: [9.999999089115876e-10, 1.7759768470754768e-13, 0.0, 0.0, 0.0, -1.3064741676820744e-43, 1.7759768470754796e-13, 1.5791389800988491, 0.0, 0.0, 0.0, 4.054405627442031e-35, 0.0, 0.0, 9.785228482986866e-07, 4.415432129044281e-28, -1.4476833969859715e-26, 0.0, 0.0, 0.0, 4.415432129044281e-28, 8.335022175066778e-07, 3.0050469251078557e-34, 0.0, 0.0, 0.0, -1.4476833969859717e-26, 2.3157981754465936e-35, 8.335022175066778e-07, 0.0, -1.3064741676820746e-43, 4.0544056274420505e-35, 0.0, 0.0, 0.0, 4.507111144918945e-06]
---
header: 
  seq: 1236
  stamp: 
    secs: 1518209586
    nsecs: 112571955
  frame_id: "swarmone/map"
child_frame_id: "swarmone/base_link"
pose: 
  pose: 
    position: 
      x: -0.558712890064
      y: -1.44975344216
      z: 0.0
    orientation: 
      x: 0.0
      y: 0.0
      z: 0.692537235501
      w: 0.721382129973
  covariance: [2.2028536032087582, -0.04458025655469517, 0.0, 0.0, 0.0, -4.503708268378483e-15, -0.044580256554695184, 1.1820212355805224, 0.0, 0.0, 0.0, -1.519945733132769e-13, 0.0, 0.0, 6.746400171384347e-07, 4.910229886176728e-15, -4.029441409767757e-18, 0.0, 0.0, 0.0, 4.910229886176729e-15, 6.746400837094999e-07, 6.082246006608235e-26, 0.0, 0.0, 0.0, -4.029441409767757e-18, 6.08223630265708e-26, 6.746400837095e-07, 0.0, -4.503708268378484e-15, -1.5199457331327688e-13, 0.0, 0.0, 0.0, 7.967812914384153e-08]
twist: 
  twist: 
    linear: 
      x: 4.35489982292e-13
      y: 0.00589555100417
      z: 0.0
    angular: 
      x: 0.0
      y: 0.0
      z: 0.0399999993219
  covariance: [9.999999099929134e-10, 2.0487233128195833e-13, 0.0, 0.0, 0.0, -1.7915126128179063e-29, 2.0487233128195848e-13, 1.3976117110428268, 0.0, 0.0, 0.0, 4.3103757169794454e-21, 0.0, 0.0, 9.41980625366677e-07, 2.2930281293166482e-28, -5.733051198099521e-27, 0.0, 0.0, 0.0, 2.293028129316648e-28, 6.746400171209288e-07, 4.341162350992301e-35, 0.0, 0.0, 0.0, -5.733051198099521e-27, -1.0909183514811967e-35, 6.746400171209288e-07, 0.0, -1.7915126128179057e-29, 4.310375716979465e-21, 0.0, 0.0, 0.0, 1.5745626219695581e-06]
---
header: 
  seq: 1237
  stamp: 
    secs: 1518209586
    nsecs: 212117672
  frame_id: "swarmone/map"
child_frame_id: "swarmone/base_link"
pose: 
  pose: 
    position: 
      x: -0.55923737003
      y: -1.44973193485
      z: 0.0
    orientation: 
      x: 0.0
      y: 0.0
      z: 0.696135467069
      w: 0.717910448098
  covariance: [2.498043912690365, -0.05465294509878337, 0.0, 0.0, 0.0, -5.8619643728557585e-18, -0.05465294509878338, 1.2620079232484933, 0.0, 0.0, 0.0, -1.5961416251535218e-16, 0.0, 0.0, 6.796125847515123e-07, 3.8698519415098025e-15, -3.602993931874542e-18, 0.0, 0.0, 0.0, 3.869851941509802e-15, 6.796126512826757e-07, 4.3521334414116456e-26, 0.0, 0.0, 0.0, -3.6029939318745414e-18, 4.352125865291565e-26, 6.796126512826757e-07, 0.0, -5.861964372855759e-18, -1.5961416251535218e-16, 0.0, 0.0, 0.0, 8.206231488572839e-08]
twist: 
  twist: 
    linear: 
      x: 3.94117650706e-13
      y: 0.00465078421031
      z: 0.0
    angular: 
      x: 0.0
      y: 0.0
      z: 0.0400000000002
  covariance: [9.999999089896178e-10, 1.882861634055442e-13, 0.0, 0.0, 0.0, -1.649448571985072e-36, 1.882861634055443e-13, 1.5161342177396193, 0.0, 0.0, 0.0, 4.413887495796602e-28, 0.0, 0.0, 9.435425711030924e-07, 1.373375297097496e-28, -4.597257031936282e-27, 0.0, 0.0, 0.0, 1.373375297097495e-28, 6.796125847338206e-07, 6.840451091071199e-35, 0.0, 0.0, 0.0, -4.5972570319362795e-27, -4.1868426883991005e-35, 6.796125847338206e-07, 0.0, -1.649448571985072e-36, 4.413887495796622e-28, 0.0, 0.0, 0.0, 1.6222463377901684e-06]
---
header: 
  seq: 1238
  stamp: 
    secs: 1518209586
    nsecs: 312712193
  frame_id: "swarmone/map"
child_frame_id: "swarmone/base_link"
pose: 
  pose: 
    position: 
      x: -0.549831745125
      y: -1.44372753518
      z: 0.0
    orientation: 
      x: 0.0
      y: 0.0
      z: 0.692537245966
      w: 0.721382119926
  covariance: [2.0698900379253558, -0.04014702321189633, 0.0, 0.0, 0.0, 5.121917246001846e-16, -0.04014702321189634, 1.1423976703239778, 0.0, 0.0, 0.0, 2.03641048274313e-14, 0.0, 0.0, 6.820137801228992e-07, -2.256020022118501e-15, -4.538468279830218e-18, 0.0, 0.0, 0.0, -2.256020022118501e-15, 6.820138465875828e-07, -3.2240466907822067e-26, 0.0, 0.0, 0.0, -4.538468279830217e-18, -3.2240722373303473e-26, 6.820138465875828e-07, 0.0, 5.121917246001846e-16, 2.03641048274313e-14, 0.0, 0.0, 0.0, 8.3254407802402e-08]
twist: 
  twist: 
    linear: 
      x: 4.91030344301e-13
      y: -0.00271325793934
      z: 0.0
    angular: 
      x: 0.0
      y: 0.0
      z: 0.0399999997855
  covariance: [9.999999100451135e-10, 2.1480656070717027e-13, 0.0, 0.0, 0.0, -1.4872287738798035e-30, 2.1480656070717032e-13, 1.341403319148315, 0.0, 0.0, 0.0, 4.170323853719857e-22, 0.0, 0.0, 9.442923381613488e-07, -1.1565187811432125e-28, 2.6999562333169902e-27, 0.0, 0.0, 0.0, -1.1565187811432127e-28, 6.820137801049018e-07, -2.1020278149705705e-35, 0.0, 0.0, 0.0, 2.6999562333169913e-27, 2.7152274801061945e-35, 6.820137801049018e-07, 0.0, -1.487228773879804e-30, 4.1703238537198647e-22, 0.0, 0.0, 0.0, 1.6460881957012544e-06]
---
header: 
  seq: 1239
  stamp: 
    secs: 1518209586
    nsecs: 412190199
  frame_id: "swarmone/map"
child_frame_id: "swarmone/base_link"
pose: 
  pose: 
    position: 
      x: -0.549491582844
      y: -1.4437413046
      z: 0.0
    orientation: 
      x: 0.0
      y: 0.0
      z: 0.696135569762
      w: 0.71791034852
  covariance: [2.346827967841007, -0.049497753083957145, 0.0, 0.0, 0.0, 5.14201391417945e-18, -0.049497753083957166, 1.2223014865600705, 0.0, 0.0, 0.0, 1.5344560312957905e-16, 0.0, 0.0, 7.393441912259623e-07, -3.2788482003023475e-15, -3.873624518654654e-18, 0.0, 0.0, 0.0, -3.2788482003023475e-15, 7.393442546892531e-07, -4.872804993980122e-26, 0.0, 0.0, 0.0, -3.873624518654655e-18, -4.8727200358290645e-26, 7.393442546892531e-07, 0.0, 5.14201391417945e-18, 1.5344560312957908e-16, 0.0, 0.0, 0.0, 1.1782510174975103e-07]
twist: 
  twist: 
    linear: 
      x: 4.44515984012e-13
      y: -0.00413127552504
      z: 0.0
    angular: 
      x: 0.0
      y: 0.0
      z: 0.0400000000002
  covariance: [9.999999089331722e-10, 1.9751936035413063e-13, 0.0, 0.0, 0.0, -1.4113491863409179e-37, 1.9751936035413068e-13, 1.4564669852024232, 0.0, 0.0, 0.0, 4.423602009619478e-29, 0.0, 0.0, 9.597828567665262e-07, -1.4996347115321401e-28, 4.688126280870229e-27, 0.0, 0.0, 0.0, -1.4996347115321397e-28, 7.393441912037661e-07, -4.048182615711391e-36, 0.0, 0.0, 0.0, 4.6881262808702296e-27, 2.5116338817722067e-35, 7.393441912037661e-07, 0.0, -1.4113491863409179e-37, 4.4236020096194846e-29, 0.0, 0.0, 0.0, 2.337502075094781e-06]
---
header: 
  seq: 1240
  stamp: 
    secs: 1518209586
    nsecs: 512702465
  frame_id: "swarmone/map"
child_frame_id: "swarmone/base_link"
pose: 
  pose: 
    position: 
      x: -0.549004562638
      y: -1.4437562134
      z: 0.0
    orientation: 
      x: 0.0
      y: 0.0
      z: 0.692537283811
      w: 0.721382083595
  covariance: [2.664523135535643, -0.05878305249864151, 0.0, 0.0, 0.0, 7.70675607241173e-18, -0.05878305249864152, 1.3030025647126766, 0.0, 0.0, 0.0, 2.201852220532674e-16, 0.0, 0.0, 7.065145343395246e-07, -4.5702345230535055e-15, -3.669462686087096e-18, 0.0, 0.0, 0.0, -4.5702345230535055e-15, 7.065145999952737e-07, -5.714277242857393e-26, 0.0, 0.0, 0.0, -3.669462686087096e-18, -5.714257600398499e-26, 7.065145999952738e-07, 0.0, 7.706756072411728e-18, 2.2018522205326739e-16, 0.0, 0.0, 0.0, 9.636742965136822e-08]
twist: 
  twist: 
    linear: 
      x: 4.02253521596e-13
      y: -0.00556403590579
      z: 0.0
    angular: 
      x: 0.0
      y: 0.0
      z: 0.0399999999993
  covariance: [9.999999099685323e-10, 1.8153893560895096e-13, 0.0, 0.0, 0.0, -2.7493598602278156e-44, 1.8153893560895101e-13, 1.5796518696969641, 0.0, 0.0, 0.0, 9.635655766024469e-36, 0.0, 0.0, 9.513937450871314e-07, -2.465680350562537e-28, 5.923727429483805e-27, 0.0, 0.0, 0.0, -2.465680350562538e-28, 7.065145343198678e-07, 4.237717463332732e-35, 0.0, 0.0, 0.0, 5.923727429483805e-27, 2.409645295378553e-35, 7.065145343198678e-07, 0.0, -2.7493598602278156e-44, 9.635655766024488e-36, 0.0, 0.0, 0.0, 1.908348632713014e-06]
---
header: 
  seq: 1241
  stamp: 
    secs: 1518209586
    nsecs: 612177849
  frame_id: "swarmone/map"
child_frame_id: "swarmone/base_link"
pose: 
  pose: 
    position: 
      x: -0.54126841567
      y: -1.43862512053
      z: 0.0
    orientation: 
      x: 0.0
      y: 0.0
      z: 0.696135494517
      w: 0.717910421483
  covariance: [2.2030707308935464, -0.04457266343090858, 0.0, 0.0, 0.0, 1.015087648109696e-14, -0.044572663430908585, 1.182108415288604, 0.0, 0.0, 0.0, 2.6198588139462456e-13, 0.0, 0.0, 6.980618814081015e-07, -9.358955367333978e-15, -4.292978433866645e-18, 0.0, 0.0, 0.0, -9.35895536733398e-15, 6.980619474491627e-07, -1.330787268921363e-25, 0.0, 0.0, 0.0, -4.292978433866646e-18, -1.330783601527208e-25, 6.980619474491629e-07, 0.0, 1.0150876481096964e-14, 2.619858813946245e-13, 0.0, 0.0, 0.0, 9.159905807938694e-08]
twist: 
  twist: 
    linear: 
      x: 4.72742824196e-13
      y: -0.0113315942339
      z: 0.0
    angular: 
      x: 0.0
      y: 0.0
      z: 0.0400000002911
  covariance: [9.999999090635086e-10, 2.0565226462503712e-13, 0.0, 0.0, 0.0, 3.532885524587794e-30, 2.0565226462503692e-13, 1.3974807440574033, 0.0, 0.0, 0.0, -2.9712748902907982e-21, 0.0, 0.0, 9.490311005431354e-07, -3.69395905825687e-28, 1.1815057849385099e-26, 0.0, 0.0, 0.0, -3.6939590582568715e-28, 6.980618813889753e-07, 1.0519957022413007e-34, 0.0, 0.0, 0.0, 1.1815057849385099e-26, 6.658267404323325e-35, 6.980618813889753e-07, 0.0, 3.532885524587797e-30, -2.971274890290808e-21, 0.0, 0.0, 0.0, 1.8129812010701675e-06]
---
header: 
  seq: 1242
  stamp: 
    secs: 1518209586
    nsecs: 712616205
  frame_id: "swarmone/map"
child_frame_id: "swarmone/base_link"
pose: 
  pose: 
    position: 
      x: -0.540052766284
      y: -1.43866245425
      z: 0.0
    orientation: 
      x: 0.0
      y: 0.0
      z: 0.699716237164
      w: 0.714420875569
  covariance: [2.5011563049423327, -0.05317660301301574, 0.0, 0.0, 0.0, 1.0885075847080255e-17, -0.05317660301301574, 1.2627260106629519, 0.0, 0.0, 0.0, 4.2186667457843796e-16, 0.0, 0.0, 6.720984511917235e-07, -1.0735835082918608e-14, -3.9510588743191456e-18, 0.0, 0.0, 0.0, -1.0735835082918605e-14, 6.720985011650362e-07, -1.2936313340140784e-25, 0.0, 0.0, 0.0, -3.951058874319145e-18, -1.293632400065316e-25, 6.720985011650365e-07, 0.0, 1.0885075847080258e-17, 4.21866674578438e-16, 0.0, 0.0, 0.0, 7.848603621710924e-08]
twist: 
  twist: 
    linear: 
      x: 4.2747802724e-13
      y: -0.0128867027408
      z: 0.0
    angular: 
      x: 0.0
      y: 0.0
      z: 0.0300000009958
  covariance: [9.999999098748292e-10, 1.888967621958546e-13, 0.0, 0.0, 0.0, 3.2276741861405064e-37, 1.8889676219585452e-13, 1.5170784753473114, 0.0, 0.0, 0.0, -3.0701263642808695e-28, 0.0, 0.0, 9.411667982445985e-07, -2.631306135471466e-28, 1.2431159221110315e-26, 0.0, 0.0, 0.0, -2.631306135471464e-28, 6.720984511745182e-07, 5.353546153727031e-35, 0.0, 0.0, 0.0, 1.2431159221110309e-26, 5.178609852589876e-35, 6.720984511745182e-07, 0.0, 3.227674186140509e-37, -3.0701263642808803e-28, 0.0, 0.0, 0.0, 1.5507207640605952e-06]
---
header: 
  seq: 1243
  stamp: 
    secs: 1518209586
    nsecs: 812206507
  frame_id: "swarmone/map"
child_frame_id: "swarmone/base_link"
pose: 
  pose: 
    position: 
      x: -0.531689026793
      y: -1.43282164423
      z: 0.0
    orientation: 
      x: 0.0
      y: 0.0
      z: 0.696135504792
      w: 0.71791041152
  covariance: [2.0702661892610457, -0.0379932888575677, 0.0, 0.0, 0.0, 2.7120966955161334e-15, -0.037993288857567725, 1.142405383283356, 0.0, 0.0, 0.0, 1.521741613939383e-13, 0.0, 0.0, 6.958507204440996e-07, -1.552762020517224e-14, -4.691976067231708e-18, 0.0, 0.0, 0.0, -1.5527620205172236e-14, 6.958507865553317e-07, -2.3979528075113743e-25, 0.0, 0.0, 0.0, -4.691976067231707e-18, -2.3979534546728684e-25, 6.958507865553326e-07, 0.0, 2.7120966955161334e-15, 1.5217416139393833e-13, 0.0, 0.0, 0.0, 9.040696515545044e-08]
twist: 
  twist: 
    linear: 
      x: 5.16158311059e-13
      y: -0.0187789472726
      z: 0.0
    angular: 
      x: 0.0
      y: 0.0
      z: 0.0399999987826
  covariance: [9.99999909053514e-10, 2.0775581957220518e-13, 0.0, 0.0, 0.0, 4.968120649442965e-30, 2.0775581957220513e-13, 1.341472776832734, 0.0, 0.0, 0.0, 1.011316409612657e-21, 0.0, 0.0, 9.484040478716929e-07, -6.052964585430924e-28, 1.9456177674013204e-26, 0.0, 0.0, 0.0, -6.052964585430921e-28, 6.958507204251315e-07, 1.994821273290077e-34, 0.0, 0.0, 0.0, 1.9456177674013207e-26, 1.741495224803048e-34, 6.958507204251315e-07, 0.0, 4.968120649442965e-30, 1.0113164096126562e-21, 0.0, 0.0, 0.0, 1.7891393431611724e-06]
---
header: 
  seq: 1244
  stamp: 
    secs: 1518209586
    nsecs: 912601709
  frame_id: "swarmone/map"
child_frame_id: "swarmone/base_link"
pose: 
  pose: 
    position: 
      x: -0.529720333239
      y: -1.43288217545
      z: 0.0
    orientation: 
      x: 0.0
      y: 0.0
      z: 0.692537235662
      w: 0.721382129819
  covariance: [2.350046187630787, -0.04574683041753388, 0.0, 0.0, 0.0, 2.392693066997778e-17, -0.04574683041753389, 1.2229532418385685, 0.0, 0.0, 0.0, 6.764495484943216e-16, 0.0, 0.0, 6.746420277864255e-07, -1.7038642170867986e-14, -4.311749384321264e-18, 0.0, 0.0, 0.0, -1.703864217086799e-14, 6.746420943562735e-07, -2.2580210446127886e-25, 0.0, 0.0, 0.0, -4.311749384321264e-18, -2.2580212336881373e-25, 6.746420943562744e-07, 0.0, 2.392693066997778e-17, 6.764495484943216e-16, 0.0, 0.0, 0.0, 7.967812911175821e-08]
twist: 
  twist: 
    linear: 
      x: 4.66848636165e-13
      y: -0.0204584673092
      z: 0.0
    angular: 
      x: 0.0
      y: 0.0
      z: 0.0399999999995
  covariance: [9.999999098428223e-10, 1.908847798450797e-13, 0.0, 0.0, 0.0, 4.672615508470313e-37, 1.9088477984507955e-13, 1.4576299161113015, 0.0, 0.0, 0.0, 1.1023882821082815e-28, 0.0, 0.0, 9.419806317630648e-07, -8.170091784563177e-28, 1.9891691083491628e-26, 0.0, 0.0, 0.0, -8.170091784563175e-28, 6.746420277690485e-07, 2.9515558756818097e-34, 0.0, 0.0, 0.0, 1.9891691083491628e-26, 2.0986751514842674e-34, 6.746420277690485e-07, 0.0, 4.6726155084703134e-37, 1.102388282108281e-28, 0.0, 0.0, 0.0, 1.5745626219707084e-06]
---
header: 
  seq: 1245
  stamp: 
    secs: 1518209587
    nsecs:  11967421
  frame_id: "swarmone/map"
child_frame_id: "swarmone/base_link"
pose: 
  pose: 
    position: 
      x: -0.527606630274
      y: -1.43296834973
      z: 0.0
    orientation: 
      x: 0.0
      y: 0.0
      z: 0.696135467056
      w: 0.717910448111
  covariance: [2.6641572475940865, -0.05619650962783909, 0.0, 0.0, 0.0, 2.4764553446807364e-17, -0.056196509627839106, 1.302796040470539, 0.0, 0.0, 0.0, 6.973775612807278e-16, 0.0, 0.0, 6.796125800810783e-07, -1.8405791766107438e-14, -3.85905802519398e-18, 0.0, 0.0, 0.0, -1.8405791766107428e-14, 6.796126466122331e-07, -2.216945643159995e-25, 0.0, 0.0, 0.0, -3.8590580251939796e-18, -2.216944824019912e-25, 6.796126466122343e-07, 0.0, 2.476455344680736e-17, 6.973775612807276e-16, 0.0, 0.0, 0.0, 8.206231488208874e-08]
twist: 
  twist: 
    linear: 
      x: 4.22920128551e-13
      y: -0.0221207647461
      z: 0.0
    angular: 
      x: 0.0
      y: 0.0
      z: 0.0400000000002
  covariance: [9.99999908831184e-10, 1.7559190012045775e-13, 0.0, 0.0, 0.0, 7.419386523293034e-44, 1.7559190012045775e-13, 1.579434030871665, 0.0, 0.0, 0.0, 2.0202989969334973e-35, 0.0, 0.0, 9.435425710885867e-07, -6.781348811808231e-28, 2.1864448057761138e-26, 0.0, 0.0, 0.0, -6.781348811808228e-28, 6.796125800633806e-07, 2.588268554771775e-34, 0.0, 0.0, 0.0, 2.1864448057761132e-26, 1.753107075937741e-34, 6.796125800633806e-07, 0.0, 7.419386523293039e-44, 2.0202989969334965e-35, 0.0, 0.0, 0.0, 1.6222463377899863e-06]
---
header: 
  seq: 1246
  stamp: 
    secs: 1518209587
    nsecs: 112559319
  frame_id: "swarmone/map"
child_frame_id: "swarmone/base_link"
pose: 
  pose: 
    position: 
      x: -0.522919323574
      y: -1.42280996033
      z: 0.0
    orientation: 
      x: 0.0
      y: 0.0
      z: 0.692537256132
      w: 0.721382110167
  covariance: [2.2051580967333844, -0.04159549923496141, 0.0, 0.0, 0.0, 1.7409388352453433e-14, -0.041595499234961426, 1.1825433756024315, 0.0, 0.0, 0.0, 6.033470861757994e-13, 0.0, 0.0, 6.89109774835373e-07, -2.0905175171579317e-14, -5.4356995767844716e-18, 0.0, 0.0, 0.0, -2.0905175171579317e-14, 6.891098411420292e-07, -3.655453746251693e-25, 0.0, 0.0, 0.0, -5.4356995767844716e-18, -3.65545426906952e-25, 6.891098411420306e-07, 0.0, 1.7409388352453436e-14, 6.033470861757994e-13, 0.0, 0.0, 0.0, 8.683068651931332e-08]
twist: 
  twist: 
    linear: 
      x: 5.88759489566e-13
      y: -0.025200890709
      z: 0.0
    angular: 
      x: 0.0
      y: 0.0
      z: 0.0399999993196
  covariance: [9.999999101686943e-10, 1.9738960899219436e-13, 0.0, 0.0, 0.0, 1.186613547184912e-29, 1.9738960899219406e-13, 1.398140352984217, 0.0, 0.0, 0.0, -4.333165269092403e-21, 0.0, 0.0, 9.464270405684384e-07, -1.0527167756775042e-27, 2.5626274379291868e-26, 0.0, 0.0, 0.0, -1.052716775677504e-27, 6.891097748168739e-07, 4.090830934946659e-34, 0.0, 0.0, 0.0, 2.562627437929187e-26, 4.158859074307746e-34, 6.891097748168739e-07, 0.0, 1.1866135471849122e-29, -4.333165269092416e-21, 0.0, 0.0, 0.0, 1.7176137694306349e-06]
---
header: 
  seq: 1247
  stamp: 
    secs: 1518209587
    nsecs: 212317944
  frame_id: "swarmone/map"
child_frame_id: "swarmone/base_link"
pose: 
  pose: 
    position: 
      x: -0.520322302102
      y: -1.42291582293
      z: 0.0
    orientation: 
      x: 0.0
      y: 0.0
      z: 0.696135460238
      w: 0.717910454722
  covariance: [2.50121389581137, -0.05139645339469849, 0.0, 0.0, 0.0, 3.137897451200933e-17, -0.051396453394698484, 1.2626768603592147, 0.0, 0.0, 0.0, 8.764236706643356e-16, 0.0, 0.0, 6.746420109623975e-07, -2.241046430830138e-14, -4.885317088833943e-18, 0.0, 0.0, 0.0, -2.2410464308301383e-14, 6.746420775560533e-07, -3.3649376605571953e-25, 0.0, 0.0, 0.0, -4.885317088833942e-18, -3.364930061704779e-25, 6.746420775560548e-07, 0.0, 3.137897451200933e-17, 8.764236706643357e-16, 0.0, 0.0, 0.0, 7.967812909902952e-08]
twist: 
  twist: 
    linear: 
      x: 5.32707578102e-13
      y: -0.0269084311319
      z: 0.0
    angular: 
      x: 0.0
      y: 0.0
      z: 0.0400000000002
  covariance: [9.999999092019437e-10, 1.8141117970867402e-13, 0.0, 0.0, 0.0, 1.0911022186153475e-36, 1.8141117970867384e-13, 1.5169410580197233, 0.0, 0.0, 0.0, -4.477500319416162e-28, 0.0, 0.0, 9.419806317095592e-07, -8.119685011516329e-28, 2.617245723584176e-26, 0.0, 0.0, 0.0, -8.11968501151633e-28, 6.746420109450222e-07, 3.18977721725498e-34, 0.0, 0.0, 0.0, 2.617245723584176e-26, 3.01934764660314e-34, 6.746420109450222e-07, 0.0, 1.0911022186153479e-36, -4.477500319416177e-28, 0.0, 0.0, 0.0, 1.574562621970072e-06]
---
header: 
  seq: 1248
  stamp: 
    secs: 1518209587
    nsecs: 312710762
  frame_id: "swarmone/map"
child_frame_id: "swarmone/base_link"
pose: 
  pose: 
    position: 
      x: -0.514799161418
