header: 
  seq: 8215
  stamp: 
    secs: 1518210284
    nsecs:  11993408
  frame_id: "swarmone/map"
child_frame_id: "swarmone/base_link"
pose: 
  pose: 
    position: 
      x: 1.36424912804
      y: 6.21917024318
      z: 0.0
    orientation: 
      x: 0.0
      y: 0.0
      z: 0.692537217786
      w: 0.72138214698
  covariance: [2.5418855031033445, -0.06803256176670694, 0.0, 0.0, 0.0, -8.021766597937342e-17, -0.06803256176670704, 1.27031836940442, 0.0, 0.0, 0.0, -1.7466676017339706e-15, 0.0, 0.0, 6.720984254710196e-07, 4.603936999948686e-14, 5.0092442331123367e-20, 0.0, 0.0, 0.0, 4.6039369999486854e-14, 6.720984920612324e-07, -6.957749390950705e-27, 0.0, 0.0, 0.0, 5.0092442331123355e-20, -6.957670700211249e-27, 6.720984920612388e-07, 0.0, -8.021766597937342e-17, -1.7466676017339706e-15, 0.0, 0.0, 0.0, 7.84860361979265e-08]
twist: 
  twist: 
    linear: 
      x: -5.62449297854e-15
      y: 0.0552625813071
      z: 0.0
    angular: 
      x: 0.0
      y: 0.0
      z: 0.0400000000002
  covariance: [9.999999089516899e-10, 2.323051618995492e-13, 0.0, 0.0, 0.0, -7.219751438784904e-38, 2.3230516189954925e-13, 1.5333947134978252, 0.0, 0.0, 0.0, 4.5996198447639656e-29, 0.0, 0.0, 9.411667981617966e-07, 2.1747549525302926e-27, -5.327722710748758e-26, 0.0, 0.0, 0.0, 2.174754952530293e-27, 6.720984254537948e-07, 1.7051640549549307e-33, 0.0, 0.0, 0.0, -5.327722710748758e-26, 1.692675956912093e-33, 6.720984254537948e-07, 0.0, -7.219751438784908e-38, 4.599619844763976e-29, 0.0, 0.0, 0.0, 1.5507207640596366e-06]
---
header: 
  seq: 8216
  stamp: 
    secs: 1518210284
    nsecs: 112473488
  frame_id: "swarmone/map"
child_frame_id: "swarmone/base_link"
pose: 
  pose: 
    position: 
      x: 1.35304419633
      y: 6.22041657586
      z: 0.0
    orientation: 
      x: 0.0
      y: 0.0
      z: 0.692537740983
      w: 0.721381644703
  covariance: [2.106063797123747, -0.05046219702320659, 0.0, 0.0, 0.0, -5.5596661909970573e-14, -0.05046219702320663, 1.1512940290951375, 0.0, 0.0, 0.0, -1.442543165693234e-12, 0.0, 0.0, 8.490780598835292e-07, 3.447037465782187e-14, -7.141487433149743e-20, 0.0, 0.0, 0.0, 3.447037465782188e-14, 8.490781065411356e-07, 1.6342189050992634e-26, 0.0, 0.0, 0.0, -7.141487433149743e-20, 1.6342325512617127e-26, 8.490781065411436e-07, 0.0, -5.5596661909970554e-14, -1.4425431656932339e-12, 0.0, 0.0, 0.0, 2.5729997056392865e-07]
twist: 
  twist: 
    linear: 
      x: 1.05569299827e-14
      y: 0.0590517652541
      z: 0.0
    angular: 
      x: 0.0
      y: 0.0
      z: 0.0399999998046
  covariance: [9.999999100355353e-10, 2.624004052090425e-13, 0.0, 0.0, 0.0, -3.789895061586881e-29, 2.624004052090428e-13, 1.357618599100592, 0.0, 0.0, 0.0, 2.0052048154565412e-20, 0.0, 0.0, 9.810462431141948e-07, 2.640795593072394e-27, -6.469787192508294e-26, 0.0, 0.0, 0.0, 2.640795593072393e-27, 8.490780598509625e-07, 5.140662839492877e-33, 0.0, 0.0, 0.0, -6.469787192508292e-26, 4.477841714736676e-33, 8.490780598509625e-07, 0.0, -3.789895061586881e-29, 2.0052048154565352e-20, 0.0, 0.0, 0.0, 5.126999450582837e-06]
---
header: 
  seq: 8217
  stamp: 
    secs: 1518210284
    nsecs: 212045193
  frame_id: "swarmone/map"
child_frame_id: "swarmone/base_link"
pose: 
  pose: 
    position: 
      x: 1.34715122133
      y: 6.22065712352
      z: 0.0
    orientation: 
      x: 0.0
      y: 0.0
      z: 0.692537221597
      w: 0.721382143321
  covariance: [2.3900235365159275, -0.06078563995521413, 0.0, 0.0, 0.0, -1.613237189772706e-16, -0.060785639955214174, 1.23134060270363, 0.0, 0.0, 0.0, -3.952384406872665e-15, 0.0, 0.0, 6.6951476620377e-07, 4.950714881017825e-14, -8.891578418254301e-20, 0.0, 0.0, 0.0, 4.950714881017824e-14, 6.695148328075855e-07, 1.3433407756415056e-26, 0.0, 0.0, 0.0, -8.891578418254303e-20, 1.3433470849656812e-26, 6.69514832807593e-07, 0.0, -1.6132371897727058e-16, -3.952384406872665e-15, 0.0, 0.0, 0.0, 7.729394330506886e-08]
twist: 
  twist: 
    linear: 
      x: 9.55033405414e-15
      y: 0.0594132638101
      z: 0.0
    angular: 
      x: 0.0
      y: 0.0
      z: 0.0399999999996
  covariance: [9.999999090176214e-10, 2.411868124036165e-13, 0.0, 0.0, 0.0, -3.5847462407369106e-36, 2.4118681240361683e-13, 1.4739325210982597, 0.0, 0.0, 0.0, 2.1348646764895947e-27, 0.0, 0.0, 9.403298086691216e-07, 2.317457902899748e-27, -5.677658013081036e-26, 0.0, 0.0, 0.0, 2.3174579028997486e-27, 6.69514766186604e-07, 1.906942991836052e-33, 0.0, 0.0, 0.0, -5.677658013081039e-26, 1.9094431218279075e-33, 6.69514766186604e-07, 0.0, -3.5847462407369126e-36, 2.134864676489588e-27, 0.0, 0.0, 0.0, 1.5268789061496062e-06]
---
header: 
  seq: 8218
  stamp: 
    secs: 1518210284
    nsecs: 317591190
  frame_id: "swarmone/map"
child_frame_id: "swarmone/base_link"
pose: 
  pose: 
    position: 
      x: 1.33843762839
      y: 6.22178548328
      z: 0.0
    orientation: 
      x: 0.0
      y: 0.0
      z: 0.692609949591
      w: 0.721312316356
  covariance: [1.9955060402354903, -0.04551938561123314, 0.0, 0.0, 0.0, -2.7415130991843214e-12, -0.045519385611233185, 1.117191465534312, 0.0, 0.0, 0.0, -6.474610905547203e-11, 0.0, 0.0, 9.980095851068587e-07, 1.0057437232025124e-15, -8.247603869134815e-21, 0.0, 0.0, 0.0, 1.0057437232025124e-15, 9.9800958643777e-07, 4.1677679148108556e-27, 0.0, 0.0, 0.0, -8.247603869134815e-21, 4.1677743160538854e-27, 9.980095864377706e-07, 0.0, -2.7415130991843226e-12, -6.474610905547204e-11, 0.0, 0.0, 0.0, 2.5283033393846894e-05]
twist: 
  twist: 
    linear: 
      x: 1.26365603721e-08
      y: 0.0613388060402
      z: 0.0
    angular: 
      x: 0.0
      y: 0.0
      z: 0.0399999999999
  covariance: [0.0005031807459383507, 1.3573088203576065e-07, 0.0, 0.0, 0.0, 2.5047630998262737e-23, 1.3573088203576084e-07, 1.3098624234924379, 0.0, 0.0, 0.0, -2.7004246983283485e-20, 0.0, 0.0, 9.998003026996814e-07, 3.119706342084658e-28, -7.644875741281905e-27, 0.0, 0.0, 0.0, 3.1197063420846584e-28, 9.980095850090645e-07, 1.2464457512475584e-33, 0.0, 0.0, 0.0, -7.64487574128191e-27, 1.2471486729168603e-33, 9.980095850090645e-07, 0.0, 2.5047630998262737e-23, -2.7004246983283498e-20, 0.0, 0.0, 0.0, 0.0005056391225584943]
---
header: 
  seq: 8219
  stamp: 
    secs: 1518210284
    nsecs: 412088394
  frame_id: "swarmone/map"
child_frame_id: "swarmone/base_link"
pose: 
  pose: 
    position: 
      x: 1.33262803035
      y: 6.2220255817
      z: 0.0
    orientation: 
      x: 0.0
      y: 0.0
      z: 0.688922143008
      w: 0.724835347423
  covariance: [2.2496647017420557, -0.05459136084061912, 0.0, 0.0, 0.0, -1.2038759604718482e-14, -0.054591360840619156, 1.193128164076148, 0.0, 0.0, 0.0, -2.956448200620347e-13, 0.0, 0.0, 8.398591595992038e-07, 3.7549561125675386e-14, -1.5645680850307208e-19, 0.0, 0.0, 0.0, 3.7549561125675386e-14, 8.398592082018504e-07, 3.67254789422347e-26, 0.0, 0.0, 0.0, -1.564568085030722e-19, 3.672594234571745e-26, 8.398592082018593e-07, 0.0, -1.203875960471848e-14, -2.956448200620346e-13, 0.0, 0.0, 0.0, 2.382264842155557e-07]
twist: 
  twist: 
    linear: 
      x: 2.28564670683e-14
      y: 0.0617242215533
      z: 0.0
    angular: 
      x: 0.0
      y: 0.0
      z: 0.0399999998662
  covariance: [9.999999090082686e-10, 2.4928166808100625e-13, 0.0, 0.0, 0.0, -2.178326010206722e-30, 2.4928166808100635e-13, 1.4173217112941237, 0.0, 0.0, 0.0, 1.3226484455073479e-21, 0.0, 0.0, 9.79569026843772e-07, 3.509755927415682e-27, -6.903969716444617e-26, 0.0, 0.0, 0.0, 3.509755927415682e-27, 8.398591595675776e-07, 6.440519967479114e-33, 0.0, 0.0, 0.0, -6.903969716444617e-26, 6.429406566754483e-33, 8.398591595675776e-07, 0.0, -2.1783260102067215e-30, 1.3226484455073462e-21, 0.0, 0.0, 0.0, 4.745529724020552e-06]
---
header: 
  seq: 8220
  stamp: 
    secs: 1518210284
    nsecs: 512519836
  frame_id: "swarmone/map"
child_frame_id: "swarmone/base_link"
pose: 
  pose: 
    position: 
      x: 1.32641642922
      y: 6.22234134541
      z: 0.0
    orientation: 
      x: 0.0
      y: 0.0
      z: 0.692537221297
      w: 0.721382143609
  covariance: [2.5554392143552174, -0.0672919941625724, 0.0, 0.0, 0.0, -1.8963426063963838e-16, -0.06729199416257244, 1.273995881352026, 0.0, 0.0, 0.0, -3.922622900034622e-15, 0.0, 0.0, 6.746420287755953e-07, 5.174817293421654e-14, -1.927665180762362e-19, 0.0, 0.0, 0.0, 5.1748172934216543e-14, 6.746420953459908e-07, 3.080695797805776e-26, 0.0, 0.0, 0.0, -1.9276651807623622e-19, 3.080666961418234e-26, 6.746420953459991e-07, 0.0, -1.8963426063963838e-16, -3.922622900034622e-15, 0.0, 0.0, 0.0, 7.967812911318103e-08]
twist: 
  twist: 
    linear: 
      x: 2.06835524581e-14
      y: 0.062133840411
      z: 0.0
    angular: 
      x: 0.0
      y: 0.0
      z: 0.0400000000006
  covariance: [9.999999098930003e-10, 2.2921593577181955e-13, 0.0, 0.0, 0.0, -2.349555980412765e-37, 2.292159357718196e-13, 1.5382195467234934, 0.0, 0.0, 0.0, 1.607207672908642e-28, 0.0, 0.0, 9.41980631766093e-07, 2.4658467015370293e-27, -6.041525980241821e-26, 0.0, 0.0, 0.0, 2.4658467015370293e-27, 6.746420287580893e-07, 2.2248456356794697e-33, 0.0, 0.0, 0.0, -6.04152598024182e-26, 2.179020540036265e-33, 6.746420287580893e-07, 0.0, -2.3495559804127645e-37, 1.60720767290864e-28, 0.0, 0.0, 0.0, 1.5745626219707736e-06]
---
header: 
  seq: 8221
  stamp: 
    secs: 1518210284
    nsecs: 612110615
  frame_id: "swarmone/map"
child_frame_id: "swarmone/base_link"
pose: 
  pose: 
    position: 
      x: 1.31524950411
      y: 6.22383879084
      z: 0.0
    orientation: 
      x: 0.0
      y: 0.0
      z: 0.68892168331
      w: 0.724835784344
  covariance: [2.1172163593228226, -0.050014694550007996, 0.0, 0.0, 0.0, -6.12895462346535e-14, -0.05001469455000801, 1.1548781259817893, 0.0, 0.0, 0.0, -1.5888679879073718e-12, 0.0, 0.0, 6.746385409195751e-07, 5.467033451058985e-14, -3.6347764642033736e-19, 0.0, 0.0, 0.0, 5.467033451058983e-14, 6.746386074599995e-07, 6.126418857249859e-26, 0.0, 0.0, 0.0, -3.634776464203373e-19, 6.126389892630247e-26, 6.746386074600087e-07, 0.0, -6.128954623465348e-14, -1.5888679879073718e-12, 0.0, 0.0, 0.0, 7.967812911383698e-08]
twist: 
  twist: 
    linear: 
      x: 3.94308493264e-14
      y: 0.0656423140353
      z: 0.0
    angular: 
      x: 0.0
      y: 0.0
      z: 0.0399999993191
  covariance: [9.999999091554784e-10, 2.6023503683864297e-13, 0.0, 0.0, 0.0, -4.259003200568611e-29, 2.60235036838643e-13, 1.3617197450143017, 0.0, 0.0, 0.0, 2.3586099545715442e-20, 0.0, 0.0, 9.419806206698425e-07, 3.243056512759492e-27, -6.37981466395198e-26, 0.0, 0.0, 0.0, 3.243056512759493e-27, 6.746385409020123e-07, 3.068563756442332e-33, 0.0, 0.0, 0.0, -6.379814663951979e-26, 3.058857861290296e-33, 6.746385409020123e-07, 0.0, -4.259003200568611e-29, 2.3586099545715457e-20, 0.0, 0.0, 0.0, 1.57456262196871e-06]
---
header: 
  seq: 8222
  stamp: 
    secs: 1518210284
    nsecs: 712836981
  frame_id: "swarmone/map"
child_frame_id: "swarmone/base_link"
pose: 
  pose: 
    position: 
      x: 1.30862095286
      y: 6.22417579609
      z: 0.0
    orientation: 
      x: 0.0
      y: 0.0
      z: 0.68892214618
      w: 0.724835344408
  covariance: [2.4057953067255657, -0.06196500711671326, 0.0, 0.0, 0.0, -2.1518770056973958e-16, -0.06196500711671327, 1.2359490287992694, 0.0, 0.0, 0.0, -4.232975722359737e-15, 0.0, 0.0, 8.416727080882617e-07, 3.992420905758449e-14, -2.43309552933542e-19, 0.0, 0.0, 0.0, 3.992420905758449e-14, 8.416727563122867e-07, 6.137923829672485e-26, 0.0, 0.0, 0.0, -2.43309552933542e-19, 6.137911841931934e-26, 8.416727563122967e-07, 0.0, -2.1518770056973958e-16, -4.232975722359737e-15, 0.0, 0.0, 0.0, 2.418027629087516e-07]
twist: 
  twist: 
    linear: 
      x: 3.56330864219e-14
      y: 0.0661426988122
      z: 0.0
    angular: 
      x: 0.0
      y: 0.0
      z: 0.0399999999999
  covariance: [9.999999101591815e-10, 2.3901697401971923e-13, 0.0, 0.0, 0.0, -3.871332024084348e-36, 2.390169740197192e-13, 1.479643987985339, 0.0, 0.0, 0.0, 2.417312968188409e-27, 0.0, 0.0, 9.798632920899028e-07, 3.746663114073621e-27, -7.370396878034357e-26, 0.0, 0.0, 0.0, 3.7466631140736214e-27, 8.416727080564719e-07, 7.389261259945506e-33, 0.0, 0.0, 0.0, -7.37039687803436e-26, 7.4153384300268e-33, 8.416727080564719e-07, 0.0, -3.8713320240843466e-36, 2.4173129681884098e-27, 0.0, 0.0, 0.0, 4.8170552977522525e-06]
---
header: 
  seq: 8223
  stamp: 
    secs: 1518210284
    nsecs: 821920395
  frame_id: "swarmone/map"
child_frame_id: "swarmone/base_link"
pose: 
  pose: 
    position: 
      x: 1.29783724072
      y: 6.22744858195
      z: 0.0
    orientation: 
      x: 0.0
      y: 0.0
      z: 0.68905932413
      w: 0.724704938461
  covariance: [2.013753107125585, -0.04770524017049625, 0.0, 0.0, 0.0, -6.917626539347559e-12, -0.047705240170496224, 1.1233740343722756, 0.0, 0.0, 0.0, -1.3509650122578778e-10, 0.0, 0.0, 9.989451334946e-07, 5.946180196891718e-16, -1.1557776799245581e-20, 0.0, 0.0, 0.0, 5.946180196891717e-16, 9.989451341933854e-07, 6.515279956401982e-27, 0.0, 0.0, 0.0, -1.1557776799245583e-20, 6.515279957280641e-27, 9.989451341933854e-07, 0.0, -6.91762653934756e-12, -1.3509650122578776e-10, 0.0, 0.0, 0.0, 4.7559996487594395e-05]
twist: 
  twist: 
    linear: 
      x: 8.69420646328e-08
      y: 0.0689522494987
      z: 0.0
    angular: 
      x: 0.0
      y: 0.0
      z: 0.0399999999996
  covariance: [0.0009555020213454197, 2.618265400323919e-07, 0.0, 0.0, 0.0, 9.835194166788839e-23, 2.6182654003239203e-07, 1.3164535254739307, 0.0, 0.0, 0.0, -1.024096626006278e-19, 0.0, 0.0, 9.99894329551111e-07, 2.2953530444582147e-28, -4.5169318096781076e-27, 0.0, 0.0, 0.0, 2.2953530444582147e-28, 9.989451333964686e-07, 1.0222356150291009e-33, 0.0, 0.0, 0.0, -4.516931809678108e-27, 1.0226849845331929e-33, 9.989451333964686e-07, 0.0, 9.83519416678884e-23, -1.0240966260062771e-19, 0.0, 0.0, 0.0, 0.0009511719213255832]
---
header: 
  seq: 8224
  stamp: 
    secs: 1518210284
    nsecs: 912008524
  frame_id: "swarmone/map"
child_frame_id: "swarmone/base_link"
pose: 
  pose: 
    position: 
      x: 1.29161066114
      y: 6.2277650732
      z: 0.0
    orientation: 
      x: 0.0
      y: 0.0
      z: 0.688921621586
      w: 0.724835843009
  covariance: [2.2571296528129645, -0.057810395860795956, 0.0, 0.0, 0.0, -2.966655006658057e-14, -0.05781039586079594, 1.195866961269597, 0.0, 0.0, 0.0, -5.878432316141456e-13, 0.0, 0.0, 6.771461506230957e-07, 5.782530150465149e-14, -7.632516573938976e-19, 0.0, 0.0, 0.0, 5.782530150465151e-14, 6.771462005078133e-07, 1.3696517116176283e-25, 0.0, 0.0, 0.0, -7.632516573938974e-19, 1.3696581388315216e-25, 6.771462005078237e-07, 0.0, -2.966655006658058e-14, -5.878432316141455e-13, 0.0, 0.0, 0.0, 8.087022201872544e-08]
twist: 
  twist: 
    linear: 
      x: 8.31693624213e-14
      y: 0.0694592738384
      z: 0.0
    angular: 
      x: 0.0
      y: 0.0
      z: 0.0300000009377
  covariance: [9.99999909081919e-10, 2.541683281849525e-13, 0.0, 0.0, 0.0, -8.09159081524532e-30, 2.541683281849527e-13, 1.4190902808670605, 0.0, 0.0, 0.0, 8.99059351379876e-21, 0.0, 0.0, 9.427722562069782e-07, 3.459523430012748e-27, -6.806496996658775e-26, 0.0, 0.0, 0.0, 3.4595234300127484e-27, 6.771461506053542e-07, 3.547012467759441e-33, 0.0, 0.0, 0.0, -6.80649699665878e-26, 3.474585614147475e-33, 6.771461506053542e-07, 0.0, -8.091590815245319e-30, 8.990593513798751e-21, 0.0, 0.0, 0.0, 1.5984044798799042e-06]
---
header: 
  seq: 8225
  stamp: 
    secs: 1518210285
    nsecs:  12488365
  frame_id: "swarmone/map"
child_frame_id: "swarmone/base_link"
pose: 
  pose: 
    position: 
      x: 1.28461203201
      y: 6.22812087975
      z: 0.0
    orientation: 
      x: 0.0
      y: 0.0
      z: 0.692537166399
      w: 0.721382196312
  covariance: [2.5636572476517623, -0.07086032214401732, 0.0, 0.0, 0.0, -1.0296263813618624e-16, -0.0708603221440173, 1.2768068482151196, 0.0, 0.0, 0.0, -2.245148794338092e-15, 0.0, 0.0, 6.771464496982447e-07, 5.829552446874636e-14, -6.969134117051571e-19, 0.0, 0.0, 0.0, 5.829552446874632e-14, 6.771464996040769e-07, 1.259292426452381e-25, 0.0, 0.0, 0.0, -6.969134117051571e-19, 1.2592901041034819e-25, 6.771464996040873e-07, 0.0, -1.0296263813618624e-16, -2.245148794338092e-15, 0.0, 0.0, 0.0, 8.087022200890144e-08]
twist: 
  twist: 
    linear: 
      x: 7.52595074502e-14
      y: 0.0700247837531
      z: 0.0
    angular: 
      x: 0.0
      y: 0.0
      z: 0.0300000000002
  covariance: [9.999999099352618e-10, 2.3373316600167264e-13, 0.0, 0.0, 0.0, -7.557407460979712e-37, 2.337331660016727e-13, 1.5401173043377312, 0.0, 0.0, 0.0, 9.490229114699929e-28, 0.0, 0.0, 9.427722571471862e-07, 2.8012101959101547e-27, -6.864613509974785e-26, 0.0, 0.0, 0.0, 2.801210195910154e-27, 6.77146449680656e-07, 2.878201402069137e-33, 0.0, 0.0, 0.0, -6.864613509974784e-26, 2.810503805938172e-33, 6.77146449680656e-07, 0.0, -7.557407460979713e-37, 9.490229114699921e-28, 0.0, 0.0, 0.0, 1.5984044798809463e-06]
---
header: 
  seq: 8226
  stamp: 
    secs: 1518210285
    nsecs: 111994028
  frame_id: "swarmone/map"
child_frame_id: "swarmone/base_link"
pose: 
  pose: 
    position: 
      x: 1.27726794728
      y: 6.23085998699
      z: 0.0
    orientation: 
      x: 0.0
      y: 0.0
      z: 0.688921682774
      w: 0.724835784853
  covariance: [2.12302500666954, -0.05247527870826335, 0.0, 0.0, 0.0, -6.709919934931249e-14, -0.05247527870826332, 1.1572282466511934, 0.0, 0.0, 0.0, -1.7137749331446767e-12, 0.0, 0.0, 6.746385525838338e-07, 5.898972697616126e-14, -1.0811132106028495e-18, 0.0, 0.0, 0.0, 5.898972697616124e-14, 6.746386191230234e-07, 1.9621034673073933e-25, 0.0, 0.0, 0.0, -1.0811132106028495e-18, 1.9621074826660615e-25, 6.74638619123034e-07, 0.0, -6.70991993493125e-14, -1.7137749331446769e-12, 0.0, 0.0, 0.0, 7.967812911222084e-08]
twist: 
  twist: 
    linear: 
      x: 1.17821035072e-13
      y: 0.0708285850156
      z: 0.0
    angular: 
      x: 0.0
      y: 0.0
      z: 0.0399999983504
  covariance: [9.999999090663204e-10, 2.694069016727924e-13, 0.0, 0.0, 0.0, -4.806479354010709e-29, 2.694069016727927e-13, 1.3632365153946422, 0.0, 0.0, 0.0, 2.206601604273304e-20, 0.0, 0.0, 9.419806207069568e-07, 3.498481111233243e-27, -6.88387408439928e-26, 0.0, 0.0, 0.0, 3.498481111233242e-27, 6.746385525662614e-07, 3.5491557048914835e-33, 0.0, 0.0, 0.0, -6.883874084399278e-26, 3.5604015846436734e-33, 6.746385525662614e-07, 0.0, -4.806479354010708e-29, 2.2066016042732953e-20, 0.0, 0.0, 0.0, 1.574562621968624e-06]
---
header: 
  seq: 8227
  stamp: 
    secs: 1518210285
    nsecs: 212352037
  frame_id: "swarmone/map"
child_frame_id: "swarmone/base_link"
pose: 
  pose: 
    position: 
      x: 1.27014022938
      y: 6.2312223886
      z: 0.0
    orientation: 
      x: 0.0
      y: 0.0
      z: 0.688921679581
      w: 0.724835787888
  covariance: [2.4109170676653138, -0.06463752760718913, 0.0, 0.0, 0.0, -1.1560138716569491e-16, -0.06463752760718912, 1.2380275291657623, 0.0, 0.0, 0.0, -2.2740659937393808e-15, 0.0, 0.0, 6.771464465489962e-07, 5.944099388512476e-14, -9.851106208492907e-19, 0.0, 0.0, 0.0, 5.944099388512477e-14, 6.771465130604513e-07, 1.814975194556138e-25, 0.0, 0.0, 0.0, -9.851106208492911e-19, 1.8149708698698037e-25, 6.771465130604623e-07, 0.0, -1.156013871656949e-16, -2.2740659937393804e-15, 0.0, 0.0, 0.0, 8.087022200647941e-08]
twist: 
  twist: 
    linear: 
      x: 1.06514816845e-13
      y: 0.0714007225752
      z: 0.0
    angular: 
      x: 0.0
      y: 0.0
      z: 0.0399999999999
  covariance: [9.999999097945474e-10, 2.475390149141137e-13, 0.0, 0.0, 0.0, -4.3853365665360396e-36, 2.4753901491411395e-13, 1.4807851779075296, 0.0, 0.0, 0.0, 2.2598762081591366e-27, 0.0, 0.0, 9.427722571372914e-07, 3.5557551725895025e-27, -6.996292426780959e-26, 0.0, 0.0, 0.0, 3.555755172589501e-27, 6.77146446531407e-07, 3.696989636697404e-33, 0.0, 0.0, 0.0, -6.996292426780958e-26, 3.692680476960865e-33, 6.77146446531407e-07, 0.0, -4.385336566536039e-36, 2.2598762081591276e-27, 0.0, 0.0, 0.0, 1.5984044798808254e-06]
---
header: 
  seq: 8228
  stamp: 
    secs: 1518210285
    nsecs: 316851139
  frame_id: "swarmone/map"
child_frame_id: "swarmone/base_link"
pose: 
  pose: 
    position: 
      x: 1.26235363928
      y: 6.23388808077
      z: 0.0
    orientation: 
      x: 0.0
      y: 0.0
      z: 0.685354003948
      w: 0.728210058481
  covariance: [2.0117094115242224, -0.0493504107412395, 0.0, 0.0, 0.0, -1.2882382937447853e-12, -0.049350410741239505, 1.1233209320575364, 0.0, 0.0, 0.0, -2.1435159229489182e-11, 0.0, 0.0, 9.977710186521416e-07, 1.0748545070742331e-15, -1.1999879966452843e-20, 0.0, 0.0, 0.0, 1.0748545070742335e-15, 9.977710198172788e-07, 5.787965561204833e-27, 0.0, 0.0, 0.0, -1.1999879966452841e-20, 5.787955529033223e-27, 9.977710198172794e-07, 0.0, -1.2882382937447847e-12, -2.1435159229489182e-11, 0.0, 0.0, 0.0, 2.2426682528142672e-05]
twist: 
  twist: 
    linear: 
      x: 6.50846900849e-08
      y: 0.0722107273189
      z: 0.0
    angular: 
      x: 0.0
      y: 0.0
      z: 0.0399999999996
  covariance: [0.0004490528011076783, 1.2784939031397842e-07, 0.0, 0.0, 0.0, 7.219320835970283e-24, 1.2784939031397852e-07, 1.3156024817731748, 0.0, 0.0, 0.0, -2.3284197760093104e-20, 0.0, 0.0, 9.997763651151017e-07, 3.353642951374877e-28, -5.510700728481046e-27, 0.0, 0.0, 0.0, 3.3536429513748767e-28, 9.977710185582927e-07, 9.364337132027238e-34, 0.0, 0.0, 0.0, -5.5107007284810454e-27, 9.373827160646061e-34, 9.977710185582927e-07, 0.0, 7.219320835970283e-24, -2.3284197760093107e-20, 0.0, 0.0, 0.0, 0.00044851403100575944]
---
header: 
  seq: 8229
  stamp: 
    secs: 1518210285
    nsecs: 412129879
  frame_id: "swarmone/map"
child_frame_id: "swarmone/base_link"
pose: 
  pose: 
    position: 
      x: 1.25545989263
      y: 6.23430461904
      z: 0.0
    orientation: 
      x: 0.0
      y: 0.0
      z: 0.68892160924
      w: 0.724835854744
  covariance: [2.269380368014974, -0.061602875463336086, 0.0, 0.0, 0.0, -1.872812628715776e-14, -0.0616028754633361, 1.2001043646712275, 0.0, 0.0, 0.0, -3.087103264530772e-13, 0.0, 0.0, 6.720983063433692e-07, 6.061720499861522e-14, -1.2118698656617858e-18, 0.0, 0.0, 0.0, 6.061720499861522e-14, 6.720983562642694e-07, 2.2438877548475395e-25, 0.0, 0.0, 0.0, -1.211869865661786e-18, 2.24388190365398e-25, 6.720983562642806e-07, 0.0, -1.872812628715776e-14, -3.0871032645307713e-13, 0.0, 0.0, 0.0, 7.848603621872286e-08]
twist: 
  twist: 
    linear: 
      x: 1.31815814223e-13
      y: 0.0727601154924
      z: 0.0
    angular: 
      x: 0.0
      y: 0.0
      z: 0.0300000010541
  covariance: [9.999999092481047e-10, 2.6297492082432583e-13, 0.0, 0.0, 0.0, -6.335667130179834e-31, 2.6297492082432603e-13, 1.424267079555452, 0.0, 0.0, 0.0, 1.0311215598194515e-21, 0.0, 0.0, 9.411667977779102e-07, 3.5634617962676126e-27, -7.011912935514848e-26, 0.0, 0.0, 0.0, 3.563461796267612e-27, 6.720983063259572e-07, 3.6459426994783975e-33, 0.0, 0.0, 0.0, -7.011912935514842e-26, 3.717032020887656e-33, 6.720983063259572e-07, 0.0, -6.335667130179828e-31, 1.0311215598194517e-21, 0.0, 0.0, 0.0, 1.5507207640598674e-06]
---
header: 
  seq: 8230
  stamp: 
    secs: 1518210285
    nsecs: 511763811
  frame_id: "swarmone/map"
child_frame_id: "swarmone/base_link"
pose: 
  pose: 
    position: 
      x: 1.24819128543
      y: 6.23467418354
      z: 0.0
    orientation: 
      x: 0.0
      y: 0.0
      z: 0.688921682313
      w: 0.724835785292
  covariance: [2.5746156905347273, -0.0749297842026467, 0.0, 0.0, 0.0, -1.186449102558799e-16, -0.0749297842026467, 1.2803987334913103, 0.0, 0.0, 0.0, -2.3329577752189767e-15, 0.0, 0.0, 6.796125870335861e-07, 6.101913884515943e-14, -1.0948570049123513e-18, 0.0, 0.0, 0.0, 6.101913884515941e-14, 6.796126535100148e-07, 2.0862023359739853e-25, 0.0, 0.0, 0.0, -1.094857004912351e-18, 2.08619590059398e-25, 6.796126535100265e-07, 0.0, -1.1864491025587992e-16, -2.332957775218977e-15, 0.0, 0.0, 0.0, 8.206231488750149e-08]
twist: 
  twist: 
    linear: 
      x: 1.19376050132e-13
      y: 0.0733346162818
      z: 0.0
    angular: 
      x: 0.0
      y: 0.0
      z: 0.0399999989962
  covariance: [9.999999091026415e-10, 2.4198521243894194e-13, 0.0, 0.0, 0.0, -6.175524042966689e-38, 2.419852124389422e-13, 1.544543927856676, 0.0, 0.0, 0.0, 1.1362984109605241e-28, 0.0, 0.0, 9.435425711101819e-07, 3.68088220020338e-27, -7.242686748515544e-26, 0.0, 0.0, 0.0, 3.680882200203379e-27, 6.796125870158266e-07, 3.995170466814636e-33, 0.0, 0.0, 0.0, -7.242686748515545e-26, 3.9684624843559236e-33, 6.796125870158266e-07, 0.0, -6.175524042966686e-38, 1.1362984109605241e-28, 0.0, 0.0, 0.0, 1.6222463377902571e-06]
---
header: 
  seq: 8231
  stamp: 
    secs: 1518210285
    nsecs: 612215042
  frame_id: "swarmone/map"
child_frame_id: "swarmone/base_link"
pose: 
  pose: 
    position: 
      x: 1.24068504324
      y: 6.23719051276
      z: 0.0
    orientation: 
      x: 0.0
      y: 0.0
      z: 0.688921717572
      w: 0.724835751779
  covariance: [2.1358369955324137, -0.05660749436502474, 0.0, 0.0, 0.0, -8.81236239673881e-14, -0.0566074943650247, 1.1617947257613812, 0.0, 0.0, 0.0, -1.8127258038040896e-12, 0.0, 0.0, 7.023462841863134e-07, 6.096763140391051e-14, -1.3935946926590361e-18, 0.0, 0.0, 0.0, 6.096763140391051e-14, 7.023463500007366e-07, 2.8572981403569687e-25, 0.0, 0.0, 0.0, -1.3935946926590358e-18, 2.8572984923365017e-25, 7.023463500007491e-07, 0.0, -8.812362396738811e-14, -1.8127258038040898e-12, 0.0, 0.0, 0.0, 9.398324387812954e-08]
twist: 
  twist: 
    linear: 
      x: 1.51969746229e-13
      y: 0.0740107310474
      z: 0.0
    angular: 
      x: 0.0
      y: 0.0
      z: 0.0399999998036
  covariance: [9.999999100094473e-10, 2.8043185026805166e-13, 0.0, 0.0, 0.0, -5.108758847940754e-29, 2.804318502680522e-13, 1.3686553871902984, 0.0, 0.0, 0.0, 4.511910870376609e-20, 0.0, 0.0, 9.50240446973063e-07, 3.961728056356419e-27, -7.796034701735509e-26, 0.0, 0.0, 0.0, 3.961728056356419e-27, 7.023462841667961e-07, 4.867006778784066e-33, 0.0, 0.0, 0.0, -7.796034701735507e-26, 4.856892515489935e-33, 7.023462841667961e-07, 0.0, -5.108758847940751e-29, 4.51191087037658e-20, 0.0, 0.0, 0.0, 1.8606649168914232e-06]
---
header: 
  seq: 8232
  stamp: 
    secs: 1518210285
    nsecs: 711736441
  frame_id: "swarmone/map"
child_frame_id: "swarmone/base_link"
pose: 
  pose: 
    position: 
      x: 1.23330022323
      y: 6.23756599261
      z: 0.0
    orientation: 
      x: 0.0
      y: 0.0
      z: 0.688921672668
      w: 0.724835794458
  covariance: [2.4227075262032947, -0.06909150303532496, 0.0, 0.0, 0.0, -1.297974429970771e-16, -0.06909150303532492, 1.2419597807873508, 0.0, 0.0, 0.0, -2.5524939976278983e-15, 0.0, 0.0, 6.72098426533085e-07, 6.21391624912644e-14, -1.2603838182941785e-18, 0.0, 0.0, 0.0, 6.213916249126443e-14, 6.720984930928518e-07, 2.390064157669278e-25, 0.0, 0.0, 0.0, -1.2603838182941789e-18, 2.3900648583651536e-25, 6.720984930928636e-07, 0.0, -1.2979744299707708e-16, -2.5524939976278983e-15, 0.0, 0.0, 0.0, 7.848603619877496e-08]
twist: 
  twist: 
    linear: 
      x: 1.37489380453e-13
      y: 0.0745876540226
      z: 0.0
    angular: 
      x: 0.0
      y: 0.0
      z: 0.0399999999999
  covariance: [9.999999089669605e-10, 2.577873124221995e-13, 0.0, 0.0, 0.0, -4.713591771931422e-36, 2.577873124222001e-13, 1.485506049322542, 0.0, 0.0, 0.0, 4.694849972591809e-27, 0.0, 0.0, 9.41166798165195e-07, 3.6526853302209895e-27, -7.187538263707395e-26, 0.0, 0.0, 0.0, 3.6526853302209895e-27, 6.720984265158079e-07, 3.8563472951746556e-33, 0.0, 0.0, 0.0, -7.187538263707393e-26, 3.84468590131359e-33, 6.720984265158079e-07, 0.0, -4.7135917719314206e-36, 4.6948499725917805e-27, 0.0, 0.0, 0.0, 1.5507207640596785e-06]
---
header: 
  seq: 8233
  stamp: 
    secs: 1518210285
    nsecs: 817912102
  frame_id: "swarmone/map"
child_frame_id: "swarmone/base_link"
pose: 
  pose: 
    position: 
      x: 1.22547196642
      y: 6.23999822002
      z: 0.0
    orientation: 
      x: 0.0
      y: 0.0
      z: 0.685367605072
      w: 0.72819725756
  covariance: [2.024228018491366, -0.0525426816713498, 0.0, 0.0, 0.0, -1.613531890731433e-12, -0.05254268167134977, 1.1278537706177991, 0.0, 0.0, 0.0, -2.6659217485547525e-11, 0.0, 0.0, 9.98155135578629e-07, 9.262409866803535e-16, -1.2579515998382669e-20, 0.0, 0.0, 0.0, 9.262409866803535e-16, 9.981551365348966e-07, 6.317005843614797e-27, 0.0, 0.0, 0.0, -1.257951599838267e-20, 6.3170140924813914e-27, 9.98155136534897e-07, 0.0, -1.6135318907314325e-12, -2.6659217485547528e-11, 0.0, 0.0, 0.0, 2.7096124005943666e-05]
twist: 
  twist: 
    linear: 
      x: 9.10803948052e-08
      y: 0.0751531752898
      z: 0.0
    angular: 
      x: 0.0
      y: 0.0
      z: 0.0399999999996
  covariance: [0.0005434300154600463, 1.601246438692714e-07, 0.0, 0.0, 0.0, 1.0881393796403597e-23, 1.6012464386927173e-07, 1.3205677625070735, 0.0, 0.0, 0.0, -2.6807070892974246e-20, 0.0, 0.0, 9.998150099945025e-07, 2.8732246053529337e-28, -4.72150763808859e-27, 0.0, 0.0, 0.0, 2.8732246053529355e-28, 9.981551354847265e-07, 8.318159364977849e-34, 0.0, 0.0, 0.0, -4.7215076380885945e-27, 8.324695453250648e-34, 9.981551354847265e-07, 0.0, 1.0881393796403597e-23, -2.6807070892974216e-20, 0.0, 0.0, 0.0, 0.0005419025884398421]
---
header: 
  seq: 8234
  stamp: 
    secs: 1518210285
    nsecs: 912262201
  frame_id: "swarmone/map"
child_frame_id: "swarmone/base_link"
pose: 
  pose: 
    position: 
      x: 1.21836818945
      y: 6.24042295311
      z: 0.0
    orientation: 
      x: 0.0
      y: 0.0
      z: 0.692537214119
      w: 0.721382150501
  covariance: [2.2805978783713874, -0.06498142388600496, 0.0, 0.0, 0.0, -2.3247151780894234e-14, -0.06498142388600495, 1.2039221859104463, 0.0, 0.0, 0.0, -3.835913714036223e-13, 0.0, 0.0, 6.74641858970443e-07, 6.304625545491098e-14, -1.4022877480565617e-18, 0.0, 0.0, 0.0, 6.304625545491097e-14, 6.746419255414966e-07, 2.7211171654230317e-25, 0.0, 0.0, 0.0, -1.4022877480565619e-18, 2.721113378160872e-25, 6.74641925541509e-07, 0.0, -2.3247151780894225e-14, -3.835913714036224e-13, 0.0, 0.0, 0.0, 7.967812911699867e-08]
twist: 
  twist: 
    linear: 
      x: 1.5256306168e-13
      y: 0.075699044303
      z: 0.0
    angular: 
      x: 0.0
      y: 0.0
      z: 0.040000000163
  covariance: [9.9999990926154e-10, 2.7228659919187504e-13, 0.0, 0.0, 0.0, -9.430231055261593e-31, 2.722865991918755e-13, 1.4284052381779047, 0.0, 0.0, 0.0, 1.416352946823109e-21, 0.0, 0.0, 9.419806312258377e-07, 3.0029883585316495e-27, -7.360830614028792e-26, 0.0, 0.0, 0.0, 3.0029883585316484e-27, 6.746418589528562e-07, 3.221411629829356e-33, 0.0, 0.0, 0.0, -7.360830614028792e-26, 3.3049134779061616e-33, 6.746418589528562e-07, 0.0, -9.430231055261596e-31, 1.4163529468231068e-21, 0.0, 0.0, 0.0, 1.5745626219700132e-06]
---
header: 
  seq: 8235
  stamp: 
    secs: 1518210286
    nsecs:  12481689
  frame_id: "swarmone/map"
child_frame_id: "swarmone/base_link"
pose: 
  pose: 
    position: 
      x: 1.21075895773
      y: 6.24073368744
      z: 0.0
    orientation: 
      x: 0.0
      y: 0.0
      z: 0.677972153818
      w: 0.735087585698
  covariance: [2.589122138074633, -0.07711165598970113, 0.0, 0.0, 0.0, -1.5367449100042023e-16, -0.07711165598970111, 1.2845949228714153, 0.0, 0.0, 0.0, -2.4974644814998965e-15, 0.0, 0.0, 6.867900867544523e-07, 6.333308558237187e-14, -1.2738618439828992e-18, 0.0, 0.0, 0.0, 6.333308558237187e-14, 6.867901695090625e-07, 2.5769483071065213e-25, 0.0, 0.0, 0.0, -1.2738618439828993e-18, 2.57694378162408e-25, 6.867901695090752e-07, 0.0, -1.5367449100042023e-16, -2.4974644814998965e-15, 0.0, 0.0, 0.0, 8.563859358576856e-08]
twist: 
  twist: 
    linear: 
      x: 1.38087258658e-13
      y: 0.0762788711697
      z: 0.0
    angular: 
      x: 0.0
      y: 0.0
      z: 0.0499999990008
  covariance: [9.999999096840225e-10, 2.5036571710415527e-13, 0.0, 0.0, 0.0, -9.039772297967169e-38, 2.503657171041557e-13, 1.5496313381958862, 0.0, 0.0, 0.0, 1.5349303009354724e-28, 0.0, 0.0, 9.457339169824896e-07, 6.2217329498013764e-27, -7.6854873369332e-26, 0.0, 0.0, 0.0, 6.221732949801372e-27, 6.86790086736185e-07, 7.227450352770488e-33, 0.0, 0.0, 0.0, -7.685487336933197e-26, 7.19733919552388e-33, 6.86790086736185e-07, 0.0, -9.039772297967169e-38, 1.5349303009354697e-28, 0.0, 0.0, 0.0, 1.6937719115213118e-06]
---
header: 
  seq: 8236
  stamp: 
    secs: 1518210286
    nsecs: 112217665
  frame_id: "swarmone/map"
child_frame_id: "swarmone/base_link"
pose: 
  pose: 
    position: 
      x: 1.20116590961
      y: 6.24522607336
      z: 0.0
    orientation: 
      x: 0.0
      y: 0.0
      z: 0.833272447306
      w: 0.552862576559
  covariance: [2.1439851575482476, -0.06157075614514323, 0.0, 0.0, 0.0, -1.4685127105540245e-13, -0.061570756145143214, 1.165089927314131, 0.0, 0.0, 0.0, -1.887991600673532e-12, 0.0, 0.0, 7.023461198608169e-07, 6.43955407658017e-14, -1.461303832842284e-18, 0.0, 0.0, 0.0, 6.439554076580171e-14, 7.023463020115634e-07, 3.167395205805334e-25, 0.0, 0.0, 0.0, -1.461303832842284e-18, 3.1673805500218955e-25, 7.023463020115774e-07, 0.0, -1.4685127105540248e-13, -1.8879916006735314e-12, 0.0, 0.0, 0.0, 9.398324386269867e-08]
twist: 
  twist: 
    linear: 
      x: 0.0540999747222
      y: 0.0781874140108
      z: 0.0
    angular: 
      x: 0.0
      y: 0.0
      z: 0.120000015998
  covariance: [9.999999092993742e-10, 2.8558798263232835e-13, 0.0, 0.0, 0.0, -5.588685117920317e-29, 2.8558798263232886e-13, 1.3715001377984168, 0.0, 0.0, 0.0, 1.3585065028335865e-19, 0.0, 0.0, 9.502404465135443e-07, -3.205047950297503e-26, -7.596563691903652e-26, 0.0, 0.0, 0.0, -3.205047950297503e-26, 7.023461198412901e-07, -3.799286766093463e-32, 0.0, 0.0, 0.0, -7.596563691903653e-26, -3.850482696577925e-32, 7.023461198412901e-07, 0.0, -5.588685117920317e-29, 1.3585065028335863e-19, 0.0, 0.0, 0.0, 1.8606649168907312e-06]
---
header: 
  seq: 8237
  stamp: 
    secs: 1518210286
    nsecs: 212815523
  frame_id: "swarmone/map"
child_frame_id: "swarmone/base_link"
pose: 
  pose: 
    position: 
      x: 1.19153371416
      y: 6.25220412946
      z: 0.0
    orientation: 
      x: 0.0
      y: 0.0
      z: 0.703279211599
      w: 0.710913743384
  covariance: [2.4114524190370266, -0.007671765416293368, 0.0, 0.0, 0.0, -3.2665087697587483e-15, -0.007671765416293348, 1.2435813560977982, 0.0, 0.0, 0.0, -5.4857488677505575e-15, 0.0, 0.0, 8.398592007526149e-07, 4.7942065872733975e-14, -3.611974497854927e-14, 0.0, 0.0, 0.0, 4.794206587273399e-14, 8.398591642529879e-07, 1.0813471998305386e-20, 0.0, 0.0, 0.0, -3.6119744978549285e-14, 1.0813471998329685e-20, 8.39859164252994e-07, 0.0, -3.266508769758748e-15, -5.4857488677505575e-15, 0.0, 0.0, 0.0, 2.3822648421970384e-07]
twist: 
  twist: 
    linear: 
      x: 0.241499914937
      y: 0.0788555585018
      z: 0.0
    angular: 
      x: 0.0
      y: 0.0
      z: -0.0299999851005
  covariance: [9.999999100332232e-10, 2.621649369521425e-13, 0.0, 0.0, 0.0, -5.0985912728379684e-36, 2.6216493695214303e-13, 1.4897935207120674, 0.0, 0.0, 0.0, 1.4062782764442783e-26, 0.0, 0.0, 9.795690269108056e-07, -7.45876818558744e-24, -1.6989295480213973e-25, 0.0, 0.0, 0.0, -7.45876818558744e-24, 8.398592007208617e-07, -2.0899545207802837e-31, 0.0, 0.0, 0.0, -1.6989295480213987e-25, -2.090386859391557e-31, 8.398592007208617e-07, 0.0, -5.0985912728379684e-36, 1.4062782764442783e-26, 0.0, 0.0, 0.0, 4.74552972402166e-06]
---
header: 
  seq: 8238
  stamp: 
    secs: 1518210286
    nsecs: 317910194
  frame_id: "swarmone/map"
child_frame_id: "swarmone/base_link"
pose: 
  pose: 
    position: 
      x: 1.18514835959
      y: 6.28713528566
      z: 0.0
    orientation: 
      x: 0.0
      y: 0.0
      z: 0.720888029063
      w: 0.693051548987
  covariance: [2.021008934103855, -0.005533795559955038, 0.0, 0.0, 0.0, -1.0519796714819642e-10, -0.005533795559955028, 1.1298809052259153, 0.0, 0.0, 0.0, -3.549463836161366e-11, 0.0, 0.0, 9.981897265074232e-07, 9.755169323170441e-16, -3.933213330856595e-15, 0.0, 0.0, 0.0, 9.755169323170445e-16, 9.9818972720937e-07, 2.1196714915255702e-21, 0.0, 0.0, 0.0, -3.933213330856592e-15, 2.119671491524908e-21, 9.981897272093617e-07, 0.0, -1.0519796714819643e-10, -3.5494638361613657e-11, 0.0, 0.0, 0.0, 2.761826531046819e-05]
twist: 
  twist: 
    linear: 
      x: 0.321327164367
      y: 0.0783653677105
      z: 0.0
    angular: 
      x: 0.0
      y: 0.0
      z: 0.0299999939821
  covariance: [0.0005538954897494752, 7.62488165112779e-08, 0.0, 0.0, 0.0, 1.3202587816065467e-23, 7.624881651127809e-08, 1.327805201485412, 0.0, 0.0, 0.0, -4.674506702228987e-18, 0.0, 0.0, 9.998184845964942e-07, -2.0789992381019753e-26, -4.2988198979140386e-27, 0.0, 0.0, 0.0, -2.0789992381019736e-26, 9.981897264062072e-07, -5.549318235914668e-32, 0.0, 0.0, 0.0, -4.2988198979140386e-27, -5.549467675540232e-32, 9.981897264062072e-07, 0.0, 1.320258781606547e-23, -4.674506702228987e-18, 0.0, 0.0, 0.0, 0.0005523453222044895]
---
header: 
  seq: 8239
  stamp: 
    secs: 1518210286
    nsecs: 412307739
  frame_id: "swarmone/map"
child_frame_id: "swarmone/base_link"
pose: 
  pose: 
    position: 
      x: 1.17679424985
      y: 6.31877768562
      z: 0.0
    orientation: 
      x: 0.0
      y: 0.0
      z: 0.655617494166
      w: 0.755093173948
  covariance: [2.277898413287417, 2.2460127966944785e-06, 0.0, 0.0, 0.0, -1.7174575880486973e-12, 2.2460127967055264e-06, 1.205458277564008, 0.0, 0.0, 0.0, -4.748621150699679e-13, 0.0, 0.0, 6.746418603818901e-07, 6.572526673400066e-14, -2.894181909579906e-13, 0.0, 0.0, 0.0, 6.572526673400065e-14, 6.746418438883919e-07, 5.84724630194163e-20, 0.0, 0.0, 0.0, -2.894181909579907e-13, 5.84724630194555e-20, 6.746418438881478e-07, 0.0, -1.717457588048697e-12, -4.748621150699678e-13, 0.0, 0.0, 0.0, 7.967812912033759e-08]
twist: 
  twist: 
    linear: 
      x: 0.357199992011
      y: 0.0789169697043
      z: 0.0
    angular: 
      x: 0.0
      y: 0.0
      z: -0.00999999788833
  covariance: [9.999999094124402e-10, 1.2666328272795775e-13, 0.0, 0.0, 0.0, -1.1613757555434292e-30, 1.2666328272795813e-13, 1.4361086805071848, 0.0, 0.0, 0.0, 2.568253400720954e-19, 0.0, 0.0, 9.419806312303221e-07, -6.4268506090345255e-24, -9.868307720131965e-25, 0.0, 0.0, 0.0, -6.4268506090345255e-24, 6.746418603626761e-07, -1.6494546555204054e-30, 0.0, 0.0, 0.0, -9.868307720131969e-25, -1.6494143304621008e-30, 6.746418603626761e-07, 0.0, -1.1613757555434289e-30, 2.568253400720954e-19, 0.0, 0.0, 0.0, 1.5745626219701638e-06]
---
header: 
  seq: 8240
  stamp: 
    secs: 1518210286
    nsecs: 511891365
  frame_id: "swarmone/map"
child_frame_id: "swarmone/base_link"
pose: 
  pose: 
    position: 
      x: 1.17416722272
      y: 6.35419262261
      z: 0.0
    orientation: 
      x: 0.0
      y: 0.0
      z: 0.651834049091
      w: 0.758361636982
  covariance: [2.58171687448778, -0.021705281899006477, 0.0, 0.0, 0.0, -1.5417204674959145e-14, -0.021705281899006463, 1.2852050830691024, 0.0, 0.0, 0.0, -9.12213434841402e-16, 0.0, 0.0, 7.425441217774911e-07, 6.281359060331476e-14, -3.04777987346011e-13, 0.0, 0.0, 0.0, 6.281359060331476e-14, 7.425441686413541e-07, 7.436137304616044e-20, 0.0, 0.0, 0.0, -3.047779873460111e-13, 7.436137304648609e-20, 7.425441686410086e-07, 0.0, -1.5417204674959145e-14, -9.12213434841402e-16, 0.0, 0.0, 0.0, 1.202092875428949e-07]
twist: 
  twist: 
    linear: 
      x: 0.304000034882
      y: 0.079488102802
      z: 0.0
    angular: 
      x: 0.0
      y: 0.0
      z: 0.0299999959827
  covariance: [9.999999090527048e-10, 1.1601541816546596e-13, 0.0, 0.0, 0.0, -1.1199853737312635e-37, 1.1601541816546624e-13, 1.5569925396109854, 0.0, 0.0, 0.0, 2.8113499331305153e-26, 0.0, 0.0, 9.605395901664856e-07, -1.6672710856204395e-23, -2.6251589768228002e-24, 0.0, 0.0, 0.0, -1.6672710856204395e-23, 7.425441217523283e-07, -6.577309701545357e-30, 0.0, 0.0, 0.0, -2.6251589768227995e-24, -6.577319891252945e-30, 7.425441217523283e-07, 0.0, -1.1199853737312628e-37, 2.811349933130516e-26, 0.0, 0.0, 0.0, 2.3851857909151987e-06]
---
header: 
  seq: 8241
  stamp: 
    secs: 1518210286
    nsecs: 612405300
  frame_id: "swarmone/map"
child_frame_id: "swarmone/base_link"
pose: 
  pose: 
    position: 
      x: 1.17115713511
      y: 6.38896036728
      z: 0.0
    orientation: 
      x: 0.0
      y: 0.0
      z: 0.655617768505
      w: 0.755092935751
  covariance: [2.146575301055633, -0.03275324627766387, 0.0, 0.0, 0.0, -8.033691434316205e-12, -0.032753246277663864, 1.16806851122767, 0.0, 0.0, 0.0, -7.604620174180083e-13, 0.0, 0.0, 6.74638538521999e-07, 6.639921059023454e-14, -2.7069280254369755e-13, 0.0, 0.0, 0.0, 6.639921059023454e-14, 6.746386374683752e-07, 5.525816405600427e-20, 0.0, 0.0, 0.0, -2.7069280254369765e-13, 5.525816405711761e-20, 6.746386374681635e-07, 0.0, -8.033691434316207e-12, -7.604620174180086e-13, 0.0, 0.0, 0.0, 7.96781291322339e-08]
twist: 
  twist: 
    linear: 
      x: 0.242300036186
      y: 0.079717024334
      z: 0.0
    angular: 
      x: 0.0
      y: 0.0
      z: 0.059999997319
  covariance: [9.999999100681302e-10, 9.799028222937916e-14, 0.0, 0.0, 0.0, -3.7129037734583094e-29, 9.799028222937938e-14, 1.382810260630179, 0.0, 0.0, 0.0, 1.8184411064461217e-17, 0.0, 0.0, 9.41980620662209e-07, -6.065994281825241e-24, -9.382597919802255e-25, 0.0, 0.0, 0.0, -6.065994281825242e-24, 6.746385385029776e-07, -1.5165393312028744e-30, 0.0, 0.0, 0.0, -9.382597919802255e-25, -1.5165231074226036e-30, 6.746385385029776e-07, 0.0, -3.712903773458308e-29, 1.8184411064461214e-17, 0.0, 0.0, 0.0, 1.5745626219696344e-06]
---
header: 
  seq: 8242
  stamp: 
    secs: 1518210286
    nsecs: 711992979
  frame_id: "swarmone/map"
child_frame_id: "swarmone/base_link"
pose: 
  pose: 
    position: 
      x: 1.16667102798
      y: 6.41276029491
      z: 0.0
    orientation: 
      x: 0.0
      y: 0.0
      z: 0.663135671254
      w: 0.748499219446
  covariance: [2.4330231126503254, -0.0566435702652245, 0.0, 0.0, 0.0, -8.319146312612581e-15, -0.05664357026522449, 1.2487855698443573, 0.0, 0.0, 0.0, -1.4894770167503144e-15, 0.0, 0.0, 6.771464264632073e-07, 6.683927460576749e-14, -2.1241079023210878e-13, 0.0, 0.0, 0.0, 6.683927460576749e-14, 6.771464925750933e-07, 4.39770736543736e-20, 0.0, 0.0, 0.0, -2.124107902321088e-13, 4.397707365345241e-20, 6.771464925749675e-07, 0.0, -8.319146312612583e-15, -1.4894770167503144e-15, 0.0, 0.0, 0.0, 8.087022199106426e-08]
twist: 
  twist: 
    linear: 
      x: 0.185200031835
      y: 0.0802813250394
      z: 0.0
    angular: 
      x: 0.0
      y: 0.0
      z: 0.0400000020087
  covariance: [9.999999090336488e-10, 8.949826920108706e-14, 0.0, 0.0, 0.0, -3.415708909927918e-36, 8.949826920108721e-14, 1.5005507270238967, 0.0, 0.0, 0.0, 1.901718971469053e-24, 0.0, 0.0, 9.427722570741667e-07, -4.9698869236320226e-24, -6.827628333972497e-25, 0.0, 0.0, 0.0, -4.969886923632024e-24, 6.771464264447661e-07, -9.337254102651814e-31, 0.0, 0.0, 0.0, -6.827628333972495e-25, -9.337447747127281e-31, 6.771464264447661e-07, 0.0, -3.415708909927916e-36, 1.9017189714690523e-24, 0.0, 0.0, 0.0, 1.5984044798800546e-06]
---
header: 
  seq: 8243
  stamp: 
    secs: 1518210286
    nsecs: 820184469
  frame_id: "swarmone/map"
child_frame_id: "swarmone/base_link"
pose: 
  pose: 
    position: 
      x: 1.15614302857
      y: 6.43745409621
      z: 0.0
    orientation: 
      x: 0.0
      y: 0.0
      z: 0.616877081782
      w: 0.787059505992
  covariance: [2.0391739345617697, -0.05355127915771717, 0.0, 0.0, 0.0, -8.000738761209521e-11, -0.05355127915771718, 1.1365015461097918, 0.0, 0.0, 0.0, -2.4034934293269853e-11, 0.0, 0.0, 9.987038476452931e-07, 7.158493127740438e-16, -1.3530551107116007e-15, 0.0, 0.0, 0.0, 7.158493127740439e-16, 9.987038465857748e-07, 7.473329095382426e-22, 0.0, 0.0, 0.0, -1.3530551107116009e-15, 7.473329095301015e-22, 9.98703846585774e-07, 0.0, -8.000738761209521e-11, -2.4034934293269853e-11, 0.0, 0.0, 0.0, 3.857603297037909e-05]
twist: 
  twist: 
    linear: 
      x: 0.153002852956
      y: 0.0837321015272
      z: 0.0
    angular: 
      x: 0.0
      y: 0.0
      z: -0.059999990053
  covariance: [0.0007760276060452241, 1.2142277029592158e-07, 0.0, 0.0, 0.0, 1.6152869328560903e-23, 1.2142277029592165e-07, 1.3370077261994675, 0.0, 0.0, 0.0, -3.612358835208092e-18, 0.0, 0.0, 9.99870133961141e-07, -6.067817124440072e-27, -5.4018061169303774e-27, 0.0, 0.0, 0.0, -6.067817124440081e-27, 9.987038475491115e-07, -2.8333471601450083e-32, 0.0, 0.0, 0.0, -5.401806116930382e-27, -2.8330564145497127e-32, 9.987038475491115e-07, 0.0, 1.6152869328560897e-23, -3.61235883520809e-18, 0.0, 0.0, 0.0, 0.0007714996801146466]
---
header: 
  seq: 8244
  stamp: 
    secs: 1518210286
    nsecs: 912004948
  frame_id: "swarmone/map"
child_frame_id: "swarmone/base_link"
pose: 
  pose: 
    position: 
      x: 1.15229977585
      y: 6.45637244465
      z: 0.0
    orientation: 
      x: 0.0
      y: 0.0
      z: 0.655617396134
      w: 0.755093259065
  covariance: [2.2835339995264365, -0.08929700172084923, 0.0, 0.0, 0.0, -1.1970042980655993e-12, -0.08929700172084924, 1.2128053367293323, 0.0, 0.0, 0.0, -3.1573660793032647e-13, 0.0, 0.0, 6.720982000877455e-07, 7.025963136673794e-14, -1.2948361176065698e-13, 0.0, 0.0, 0.0, 7.025963136673793e-14, 6.720982165789113e-07, 2.774824662980617e-20, 0.0, 0.0, 0.0, -1.2948361176065695e-13, 2.7748246629901556e-20, 6.720982165788753e-07, 0.0, -1.197004298065599e-12, -3.157366079303265e-13, 0.0, 0.0, 0.0, 7.848603622255479e-08]
twist: 
  twist: 
    linear: 
      x: 0.257699952596
      y: 0.0843489302481
      z: 0.0
    angular: 
      x: 0.0
      y: 0.0
      z: 0.00999999445705
  covariance: [9.999999090410295e-10, 1.4435569026415565e-13, 0.0, 0.0, 0.0, -1.3621170088361909e-30, 1.4435569026415578e-13, 1.442741607445055, 0.0, 0.0, 0.0, 2.6582258438473425e-19, 0.0, 0.0, 9.411667974357437e-07, -2.8681983467014864e-24, -4.8917867366878835e-25, 0.0, 0.0, 0.0, -2.8681983467014864e-24, 6.720982000699845e-07, -4.293434287294176e-31, 0.0, 0.0, 0.0, -4.8917867366878835e-25, -4.294149251876118e-31, 6.720982000699845e-07, 0.0, -1.3621170088361902e-30, 2.658225843847342e-19, 0.0, 0.0, 0.0, 1.5507207640595733e-06]
---
header: 
  seq: 8245
  stamp: 
    secs: 1518210287
    nsecs:  12496233
  frame_id: "swarmone/map"
child_frame_id: "swarmone/base_link"
pose: 
  pose: 
    position: 
      x: 1.14771966308
      y: 6.48518947293
      z: 0.0
    orientation: 
      x: 0.0
      y: 0.0
      z: 0.734548380994
      w: 0.678556317471
  covariance: [2.59133075965308, -0.12031073939108615, 0.0, 0.0, 0.0, -8.73459032112499e-15, -0.12031073939108618, 1.2958380267816403, 0.0, 0.0, 0.0, -2.531467652545385e-15, 0.0, 0.0, 6.867900933742554e-07, 7.05808576615327e-14, -2.2429406164240502e-13, 0.0, 0.0, 0.0, 7.058085766153269e-14, 6.86790308563777e-07, 5.054642167376357e-20, 0.0, 0.0, 0.0, -2.2429406164240497e-13, 5.0546421675296376e-20, 6.867903085636322e-07, 0.0, -8.734590321124993e-15, -2.5314676525453853e-15, 0.0, 0.0, 0.0, 8.563859359116049e-08]
twist: 
  twist: 
    linear: 
      x: 0.318499976746
      y: 0.0850144222983
      z: 0.0
    angular: 
      x: 0.0
      y: 0.0
      z: 0.129999988065
  covariance: [9.999999099483778e-10, 1.3219058152980007e-13, 0.0, 0.0, 0.0, -1.2799505708488138e-37, 1.321905815298002e-13, 1.5651060094281446, 0.0, 0.0, 0.0, 2.838191967050552e-26, 0.0, 0.0, 9.457339170023642e-07, -6.014427209982289e-24, 3.8974374301322494e-25, 0.0, 0.0, 0.0, -6.01442720998229e-24, 6.867900933549913e-07, 2.0227306112361843e-31, 0.0, 0.0, 0.0, 3.897437430132247e-25, 2.0215591399685745e-31, 6.867900933549913e-07, 0.0, -1.2799505708488138e-37, 2.838191967050552e-26, 0.0, 0.0, 0.0, 1.6937719115215813e-06]
---
header: 
  seq: 8246
  stamp: 
    secs: 1518210287
    nsecs: 112316370
  frame_id: "swarmone/map"
child_frame_id: "swarmone/base_link"
pose: 
  pose: 
    position: 
      x: 1.13562418732
      y: 6.52026419097
      z: 0.0
    orientation: 
      x: 0.0
      y: 0.0
      z: 0.710352649543
      w: 0.703845944285
  covariance: [2.152234104612296, -0.07170432479971968, 0.0, 0.0, 0.0, -7.861328749780384e-12, -0.07170432479971964, 1.1728175416327227, 0.0, 0.0, 0.0, -2.7964070831095553e-12, 0.0, 0.0, 8.416718814451037e-07, 5.2361643796053466e-14, -2.0245545494789128e-13, 0.0, 0.0, 0.0, 5.236164379605345e-14, 8.416718331600756e-07, 6.695947322413624e-20, 0.0, 0.0, 0.0, -2.0245545494789128e-13, 6.69594732241212e-20, 8.41671833159834e-07, 0.0, -7.861328749780389e-12, -2.796407083109556e-12, 0.0, 0.0, 0.0, 2.4180276290894467e-07]
twist: 
  twist: 
    linear: 
      x: 0.273500027519
      y: 0.0867356675844
      z: 0.0
    angular: 
      x: 0.0
      y: 0.0
      z: -0.0399999868003
  covariance: [9.999999093814826e-10, 2.5567475706301775e-13, 0.0, 0.0, 0.0, -9.703114371422934e-29, 2.5567475706301795e-13, 1.3875626780320254, 0.0, 0.0, 0.0, 1.2500874129599391e-17, 0.0, 0.0, 9.798632907521157e-07, -4.385936389326614e-23, 3.0575588011148675e-25, 0.0, 0.0, 0.0, -4.38593638932661e-23, 8.416718814101105e-07, 6.772556604396416e-31, 0.0, 0.0, 0.0, 3.057558801114867e-25, 6.772939442690657e-31, 8.416718814101105e-07, 0.0, -9.703114371422931e-29, 1.2500874129599377e-17, 0.0, 0.0, 0.0, 4.817055297750159e-06]
---
header: 
  seq: 8247
  stamp: 
    secs: 1518210287
    nsecs: 211900473
  frame_id: "swarmone/map"
child_frame_id: "swarmone/base_link"
pose: 
  pose: 
    position: 
      x: 1.12659057619
      y: 6.54608698107
      z: 0.0
    orientation: 
      x: 0.0
      y: 0.0
      z: 0.605187030574
      w: 0.796083323544
  covariance: [2.442521576162839, -0.07679243031810976, 0.0, 0.0, 0.0, -1.8493855793273347e-14, -0.0767924303181097, 1.2523859748754722, 0.0, 0.0, 0.0, -4.476253786626949e-15, 0.0, 0.0, 6.86790071181673e-07, 7.258483049727422e-14, -2.3614355414828944e-13, 0.0, 0.0, 0.0, 7.258483049727423e-14, 6.86790167177879e-07, 5.472928746888509e-20, 0.0, 0.0, 0.0, -2.361435541482895e-13, 5.472928746924424e-20, 6.867901671777176e-07, 0.0, -1.8493855793273347e-14, -4.476253786626949e-15, 0.0, 0.0, 0.0, 8.563859357381868e-08]
twist: 
  twist: 
    linear: 
      x: 0.213000032952
      y: 0.087404646661
      z: 0.0
    angular: 
      x: 0.0
      y: 0.0
      z: 0.0599999899347
  covariance: [9.999999090283966e-10, 2.347495064040722e-13, 0.0, 0.0, 0.0, -9.157357160913274e-36, 2.347495064040723e-13, 1.5055262864979295, 0.0, 0.0, 0.0, 1.340895681005479e-24, 0.0, 0.0, 9.457339169356084e-07, -6.128270138737031e-24, -1.7871422541017067e-24, 0.0, 0.0, 0.0, -6.1282701387370315e-24, 6.867900711621648e-07, -2.3968606219353824e-30, 0.0, 0.0, 0.0, -1.787142254101707e-24, -2.396593274601243e-30, 6.867900711621648e-07, 0.0, -9.157357160913273e-36, 1.3408956810054775e-24, 0.0, 0.0, 0.0, 1.6937719115207078e-06]
---
header: 
  seq: 8248
  stamp: 
    secs: 1518210287
    nsecs: 316402435
  frame_id: "swarmone/map"
child_frame_id: "swarmone/base_link"
pose: 
  pose: 
    position: 
      x: 1.12133960429
      y: 6.5717629403
      z: 0.0
    orientation: 
      x: 0.0
      y: 0.0
      z: 0.624973506595
      w: 0.780645960763
  covariance: [2.0322137596614933, -0.08187139916273187, 0.0, 0.0, 0.0, -4.1123925945126054e-11, -0.08187139916273181, 1.1386009619841917, 0.0, 0.0, 0.0, -1.4439285287174707e-11, 0.0, 0.0, 9.974399138520775e-07, 1.526851858990748e-15, -2.767980818226246e-15, 0.0, 0.0, 0.0, 1.5268518589907483e-15, 9.974399155146403e-07, 1.6511127205407686e-21, 0.0, 0.0, 0.0, -2.767980818226246e-15, 1.651112720580471e-21, 9.974399155146382e-07, 0.0, -4.112392594512606e-11, -1.443928528717471e-11, 0.0, 0.0, 0.0, 1.9528698258893126e-05]
twist: 
  twist: 
    linear: 
      x: 0.159652429073
      y: 0.0895615068458
      z: 0.0
    angular: 
      x: 0.0
      y: 0.0
      z: 0.0500000009954
  covariance: [0.00039051476371459006, 1.496495836617118e-07, 0.0, 0.0, 0.0, 5.237546809132053e-24, 1.4964958366171182e-07, 1.3385068786116492, 0.0, 0.0, 0.0, -1.8243015697596675e-18, 0.0, 0.0, 9.997430142162624e-07, -1.2382171627596168e-26, -1.0964436891924043e-26, 0.0, 0.0, 0.0, -1.2382171627596169e-26, 9.974399137561916e-07, -5.96376418796359e-32, 0.0, 0.0, 0.0, -1.0964436891924045e-26, -5.963892846355552e-32, 9.974399137561916e-07, 0.0, 5.2375468091320494e-24, -1.8243015697596667e-18, 0.0, 0.0, 0.0, 0.00039055447442617016]
---
header: 
  seq: 8249
  stamp: 
    secs: 1518210287
    nsecs: 412238359
  frame_id: "swarmone/map"
child_frame_id: "swarmone/base_link"
pose: 
  pose: 
    position: 
      x: 1.11607013278
      y: 6.58729484534
      z: 0.0
    orientation: 
      x: 0.0
      y: 0.0
      z: 0.651834079015
      w: 0.758361611261
  covariance: [2.2886201670996837, -0.11912229789666422, 0.0, 0.0, 0.0, -6.551041139201265e-13, -0.11912229789666419, 1.2191284327685523, 0.0, 0.0, 0.0, -1.9852501187005406e-13, 0.0, 0.0, 7.044463697976609e-07, 7.425149948331501e-14, -1.3036865132040867e-13, 0.0, 0.0, 0.0, 7.425149948331501e-14, 7.044464511236485e-07, 3.275559027696186e-20, 0.0, 0.0, 0.0, -1.3036865132040862e-13, 3.2755590277410016e-20, 7.044464511236098e-07, 0.0, -6.551041139201265e-13, -1.9852501187005404e-13, 0.0, 0.0, 0.0, 9.517533675368447e-08]
twist: 
  twist: 
    linear: 
      x: 0.117700020191
      y: 0.0902478449926
      z: 0.0
    angular: 
      x: 0.0
      y: 0.0
      z: 0.050000000486
  covariance: [9.999999092219095e-10, 3.5382771183376505e-13, 0.0, 0.0, 0.0, -4.62868718055743e-31, 3.538277118337651e-13, 1.449042589080328, 0.0, 0.0, 0.0, 7.137408300830701e-20, 0.0, 0.0, 9.508238605033814e-07, -4.476956100278079e-24, -7.773145870213914e-25, 0.0, 0.0, 0.0, -4.4769561002780774e-24, 7.04446369777558e-07, -7.682674514329247e-31, 0.0, 0.0, 0.0, -7.773145870213914e-25, -7.681946202412644e-31, 7.04446369777558e-07, 0.0, -4.62868718055743e-31, 7.137408300830701e-20, 0.0, 0.0, 0.0, 1.8845067748020376e-06]
---
header: 
  seq: 8250
  stamp: 
    secs: 1518210287
    nsecs: 511976004
  frame_id: "swarmone/map"
child_frame_id: "swarmone/base_link"
pose: 
  pose: 
    position: 
      x: 1.10874622195
      y: 6.5990435049
      z: 0.0
    orientation: 
      x: 0.0
      y: 0.0
      z: 0.640385594654
      w: 0.768053572454
  covariance: [2.594493762134964, -0.15425365413384182, 0.0, 0.0, 0.0, -4.548903822589036e-15, -0.15425365413384173, 1.3025643618810343, 0.0, 0.0, 0.0, -2.531652950601038e-15, 0.0, 0.0, 6.844335806469475e-07, 7.559761163824475e-14, -9.35791617685587e-14, 0.0, 0.0, 0.0, 7.559761163824474e-14, 6.844336133416961e-07, 2.241928288120065e-20, 0.0, 0.0, 0.0, -9.35791617685587e-14, 2.241928288139694e-20, 6.844336133416863e-07, 0.0, -4.548903822589037e-15, -2.5316529506010377e-15, 0.0, 0.0, 0.0, 8.444650068069102e-08]
twist: 
  twist: 
    linear: 
      x: 0.0786000174755
      y: 0.0909658347354
      z: 0.0
    angular: 
      x: 0.0
      y: 0.0
      z: 0.0200000030065
  covariance: [9.999999092075253e-10, 3.2558535847590443e-13, 0.0, 0.0, 0.0, -4.624088876490099e-38, 3.255853584759044e-13, 1.5707890921176675, 0.0, 0.0, 0.0, 8.093451337188197e-27, 0.0, 0.0, 9.450226172369504e-07, -2.4865839350020373e-24, -5.472495366339569e-25, 0.0, 0.0, 0.0, -2.4865839350020388e-24, 6.844335806286187e-07, -3.5752454891717055e-31, 0.0, 0.0, 0.0, -5.472495366339569e-25, -3.575899457537138e-31, 6.844335806286187e-07, 0.0, -4.624088876490099e-38, 8.093451337188194e-27, 0.0, 0.0, 0.0, 1.6699300536106766e-06]
---
header: 
  seq: 8251
  stamp: 
    secs: 1518210287
    nsecs: 612590790
  frame_id: "swarmone/map"
child_frame_id: "swarmone/base_link"
pose: 
  pose: 
    position: 
      x: 1.09990138447
      y: 6.60994824729
      z: 0.0
    orientation: 
      x: 0.0
      y: 0.0
      z: 0.666871091337
      w: 0.745173099044
  covariance: [2.151239626396277, -0.1268935913639123, 0.0, 0.0, 0.0, -2.1493157983771257e-12, -0.1268935913639122, 1.1817005576528348, 0.0, 0.0, 0.0, -1.9142240791435357e-12, 0.0, 0.0, 8.956412817316051e-07, 4.0618818794385784e-14, -3.0908181069628035e-14, 0.0, 0.0, 0.0, 4.0618818794385784e-14, 8.956413254665873e-07, 1.2030587182055332e-20, 0.0, 0.0, 0.0, -3.090818106962804e-14, 1.2030587182629805e-20, 8.95641325466594e-07, 0.0, -2.149315798377126e-12, -1.914224079143536e-12, 0.0, 0.0, 0.0, 4.051194896135035e-07]
twist: 
  twist: 
    linear: 
      x: 0.0436000142348
      y: 0.0922873694371
      z: 0.0
    angular: 
      x: 0.0
      y: 0.0
      z: 0.050000000297
  covariance: [9.99999910170258e-10, 4.864575809648941e-13, 0.0, 0.0, 0.0, -6.151328127899837e-29, 4.864575809648947e-13, 1.3920207382369252, 0.0, 0.0, 0.0, 3.404800867578012e-18, 0.0, 0.0, 9.87852858169148e-07, -1.609998625798831e-23, -1.8752397593931423e-24, 0.0, 0.0, 0.0, -1.609998625798831e-23, 8.956412816936642e-07, -2.7527245962265405e-30, 0.0, 0.0, 0.0, -1.8752397593931427e-24, -2.7520660684151338e-30, 8.956412816936642e-07, 0.0, -6.151328127899834e-29, 3.4048008675780083e-18, 0.0, 0.0, 0.0, 8.083389831442308e-06]
---
header: 
  seq: 8252
  stamp: 
    secs: 1518210287
    nsecs: 712266922
  frame_id: "swarmone/map"
child_frame_id: "swarmone/base_link"
pose: 
  pose: 
    position: 
      x: 1.09108410893
      y: 6.61425972681
      z: 0.0
    orientation: 
      x: 0.0
      y: 0.0
      z: 0.651834103553
      w: 0.75836159017
  covariance: [2.4402016318118243, -0.15551979732603802, 0.0, 0.0, 0.0, -4.633533366040955e-15, -0.15551979732603805, 1.264259580836936, 0.0, 0.0, 0.0, -8.486597311232433e-15, 0.0, 0.0, 6.746420088219561e-07, 7.74837959922327e-14, -2.7266621492303415e-14, 0.0, 0.0, 0.0, 7.748379599223274e-14, 6.746420911598531e-07, 6.494289753598139e-21, 0.0, 0.0, 0.0, -2.7266621492303412e-14, 6.4942897509577925e-21, 6.746420911598693e-07, 0.0, -4.633533366040957e-15, -8.486597311232433e-15, 0.0, 0.0, 0.0, 7.967812909890477e-08]
twist: 
  twist: 
    linear: 
      x: 0.0141000108636
      y: 0.093026020968
      z: 0.0
    angular: 
      x: 0.0
      y: 0.0
      z: 0.0499999999927
  covariance: [9.99999909122642e-10, 4.470534282298907e-13, 0.0, 0.0, 0.0, -5.941659936134929e-36, 4.4705342822989084e-13, 1.5103126096096782, 0.0, 0.0, 0.0, 3.737126268888539e-25, 0.0, 0.0, 9.419806317025791e-07, -7.152780802875453e-25, -2.0003549508381159e-25, 0.0, 0.0, 0.0, -7.152780802875453e-25, 6.746420088043484e-07, -4.0970743909538e-32, 0.0, 0.0, 0.0, -2.000354950838116e-25, -4.093084845990583e-32, 6.746420088043484e-07, 0.0, -5.9416599361349244e-36, 3.7371262688885347e-25, 0.0, 0.0, 0.0, 1.5745626219700532e-06]
---
header: 
  seq: 8253
  stamp: 
    secs: 1518210287
    nsecs: 816943169
  frame_id: "swarmone/map"
child_frame_id: "swarmone/base_link"
pose: 
  pose: 
    position: 
      x: 1.08222415249
      y: 6.61816447316
      z: 0.0
    orientation: 
      x: 0.0
      y: 0.0
      z: 0.678039283511
      w: 0.735025666229
  covariance: [2.03378111032229, -0.12217530158255356, 0.0, 0.0, 0.0, -2.4754218537372297e-12, -0.12217530158255357, 1.1452690077000778, 0.0, 0.0, 0.0, -2.943496292469512e-11, 0.0, 0.0, 9.978231023001672e-07, 1.3781485311625524e-15, 7.218972566686123e-18, 0.0, 0.0, 0.0, 1.3781485311625526e-15, 9.97823103444702e-07, -4.568814333493438e-24, 0.0, 0.0, 0.0, 7.218972566686124e-18, -4.568814318183187e-24, 9.978231034447027e-07, 0.0, -2.4754218537372293e-12, -2.943496292469513e-11, 0.0, 0.0, 0.0, 2.2965511020923864e-05]
twist: 
  twist: 
    linear: 
      x: -0.000786391056269
      y: 0.09342285804
      z: 0.0
    angular: 
      x: 0.0
      y: 0.0
      z: 0.0400000010011
  covariance: [0.0004598836221364639, 2.664985704368907e-07, 0.0, 0.0, 0.0, 1.0085620769053835e-23, 2.6649857043689114e-07, 1.3404558238521966, 0.0, 0.0, 0.0, 1.4846293400750282e-20, 0.0, 0.0, 9.997816052310064e-07, 6.159817305843619e-28, -7.143522243703312e-27, 0.0, 0.0, 0.0, 6.159817305843619e-28, 9.978231022058995e-07, 2.2775857300635252e-33, 0.0, 0.0, 0.0, -7.143522243703312e-27, 2.2756017087125047e-33, 9.978231022058995e-07, 0.0, 1.0085620769053835e-23, 1.4846293400750354e-20, 0.0, 0.0, 0.0, 0.00045929055078115013]
---
header: 
  seq: 8254
  stamp: 
    secs: 1518210287
    nsecs: 912320852
  frame_id: "swarmone/map"
child_frame_id: "swarmone/base_link"
pose: 
  pose: 
    position: 
      x: 1.07330038413
      y: 6.61862998855
      z: 0.0
    orientation: 
      x: 0.0
      y: 0.0
      z: 0.677972602036
      w: 0.735087172306
