header: 
  seq: 4576
  stamp: 
    secs: 1518209920
    nsecs: 112531424
  frame_id: "swarmone/map"
child_frame_id: "swarmone/base_link"
pose: 
  pose: 
    position: 
      x: -0.202633802677
      y: 2.88508477035
      z: 0.0
    orientation: 
      x: 0.0
      y: 0.0
      z: 0.699716411797
      w: 0.71442070453
  covariance: [2.3435152806503297, -0.03916448913540212, 0.0, 0.0, 0.0, -1.7443819473173223e-14, -0.03916448913540214, 1.2285932565204702, 0.0, 0.0, 0.0, -6.116505694540851e-13, 0.0, 0.0, 7.425425179754213e-07, 1.9401264303048532e-14, 7.673853014023522e-18, 0.0, 0.0, 0.0, 1.9401264303048532e-14, 7.425425811697696e-07, -5.783268082532033e-25, 0.0, 0.0, 0.0, 7.673853014023522e-18, -5.783268292938497e-25, 7.425425811697711e-07, 0.0, -1.7443819473173223e-14, -6.116505694540851e-13, 0.0, 0.0, 0.0, 1.2020928758242313e-07]
twist: 
  twist: 
    linear: 
      x: -8.75447958348e-13
      y: 0.0245545632913
      z: 0.0
    angular: 
      x: 0.0
      y: 0.0
      z: 0.0400000002957
  covariance: [9.999999098775786e-10, 1.6368710765843625e-13, 0.0, 0.0, 0.0, -1.429509783645081e-29, 1.6368710765843602e-13, 1.4442268817299575, 0.0, 0.0, 0.0, 7.349699084071783e-21, 0.0, 0.0, 9.605395863972447e-07, 5.934093385786673e-28, -2.7998649766907264e-26, 0.0, 0.0, 0.0, 5.934093385786671e-28, 7.425425179528605e-07, 3.0688809201852203e-34, 0.0, 0.0, 0.0, -2.7998649766907264e-26, 2.7917825378811095e-34, 7.425425179528605e-07, 0.0, -1.4295097836450817e-29, 7.349699084071801e-21, 0.0, 0.0, 0.0, 2.3851857909146736e-06]
---
header: 
  seq: 4577
  stamp: 
    secs: 1518209920
    nsecs: 212400675
  frame_id: "swarmone/map"
child_frame_id: "swarmone/base_link"
pose: 
  pose: 
    position: 
      x: -0.205058586771
      y: 2.8851350085
      z: 0.0
    orientation: 
      x: 0.0
      y: 0.0
      z: 0.699716306448
      w: 0.714420807711
  covariance: [2.6537824897593265, -0.045811222744126294, 0.0, 0.0, 0.0, -1.990480306121326e-17, -0.045811222744126315, 1.3086504966436199, 0.0, 0.0, 0.0, -9.683186889949081e-16, 0.0, 0.0, 6.771464338581217e-07, 1.9992597749789512e-14, 7.26855651261075e-18, 0.0, 0.0, 0.0, 1.9992597749789516e-14, 6.771465004414136e-07, -4.5011115818433155e-25, 0.0, 0.0, 0.0, 7.268556512610751e-18, -4.501112526880162e-25, 6.771465004414149e-07, 0.0, -1.9904803061213257e-17, -9.683186889949081e-16, 0.0, 0.0, 0.0, 8.087022199692132e-08]
twist: 
  twist: 
    linear: 
      x: -7.91834432496e-13
      y: 0.0240150607124
      z: 0.0
    angular: 
      x: 0.0
      y: 0.0
      z: 0.0399999999998
  covariance: [9.999999093197172e-10, 1.5030666708447687e-13, 0.0, 0.0, 0.0, -1.31912604808345e-36, 1.5030666708447662e-13, 1.5656007733868584, 0.0, 0.0, 0.0, 7.64884289153365e-28, 0.0, 0.0, 9.427722570973546e-07, 4.985343624592647e-28, -2.3556868585542381e-26, 0.0, 0.0, 0.0, 4.985343624592644e-28, 6.771464338405418e-07, 1.6120974164069499e-34, 0.0, 0.0, 0.0, -2.3556868585542367e-26, 2.009704729409388e-34, 6.771464338405418e-07, 0.0, -1.3191260480834504e-36, 7.648842891533667e-28, 0.0, 0.0, 0.0, 1.5984044798803458e-06]
---
header: 
  seq: 4578
  stamp: 
    secs: 1518209920
    nsecs: 312249184
  frame_id: "swarmone/map"
child_frame_id: "swarmone/base_link"
pose: 
  pose: 
    position: 
      x: -0.207270401523
      y: 2.87821649759
      z: 0.0
    orientation: 
      x: 0.0
      y: 0.0
      z: 0.696135484894
      w: 0.717910430814
  covariance: [2.2028757787565594, -0.033462712738478555, 0.0, 0.0, 0.0, -6.015438754557072e-16, -0.033462712738478555, 1.1886247160006989, 0.0, 0.0, 0.0, -3.610383588177023e-14, 0.0, 0.0, 6.818813197225847e-07, 1.9401498121507658e-14, 7.928871742761519e-18, 0.0, 0.0, 0.0, 1.940149812150766e-14, 6.81881386196925e-07, -4.870829216083677e-25, 0.0, 0.0, 0.0, 7.928871742761524e-18, -4.870823219987548e-25, 6.818813861969262e-07, 0.0, -6.015438754557073e-16, -3.610383588177024e-14, 0.0, 0.0, 0.0, 8.325440778733726e-08]
twist: 
  twist: 
    linear: 
      x: -8.65073209125e-13
      y: 0.0233374064796
      z: 0.0
    angular: 
      x: 0.0
      y: 0.0
      z: 0.039999999957
  covariance: [9.999999093104646e-10, 1.6397102448155498e-13, 0.0, 0.0, 0.0, -1.7738160885999338e-30, 1.6397102448155457e-13, 1.3864406653849364, 0.0, 0.0, 0.0, 4.230981744463559e-23, 0.0, 0.0, 9.442919275734091e-07, 7.238587253929893e-28, -2.3188261107619478e-26, 0.0, 0.0, 0.0, 7.238587253929892e-28, 6.818813197045952e-07, 2.8868374585889872e-34, 0.0, 0.0, 0.0, -2.3188261107619486e-26, 2.7651900591991233e-34, 6.818813197045952e-07, 0.0, -1.7738160885999338e-30, 4.2309817444639314e-23, 0.0, 0.0, 0.0, 1.6460881957006244e-06]
---
header: 
  seq: 4579
  stamp: 
    secs: 1518209920
    nsecs: 412622213
  frame_id: "swarmone/map"
child_frame_id: "swarmone/base_link"
pose: 
  pose: 
    position: 
      x: -0.209584323136
      y: 2.87828755331
      z: 0.0
    orientation: 
      x: 0.0
      y: 0.0
      z: 0.710353488831
      w: 0.703845097238
  covariance: [2.4957075291073476, -0.040995507732049345, 0.0, 0.0, 0.0, -8.001754690130306e-18, -0.04099550773204933, 1.2691294811395333, 0.0, 0.0, 0.0, -7.750643314677812e-16, 0.0, 0.0, 6.891116511541442e-07, 1.8905945363641814e-14, 7.201220950180413e-18, 0.0, 0.0, 0.0, 1.8905945363641823e-14, 6.891117175122359e-07, -4.379292354761625e-25, 0.0, 0.0, 0.0, 7.201220950180416e-18, -4.379292469820947e-25, 6.891117175122371e-07, 0.0, -8.001754690130305e-18, -7.750643314677812e-16, 0.0, 0.0, 0.0, 8.683068648434959e-08]
twist: 
  twist: 
    linear: 
      x: -7.82777985023e-13
      y: 0.0227907565838
      z: 0.0
    angular: 
      x: 0.0
      y: 0.0
      z: 0.0400000000012
  covariance: [9.999999098358105e-10, 1.5063437091182697e-13, 0.0, 0.0, 0.0, -1.9425499176528643e-37, 1.506343709118266e-13, 1.504973441941009, 0.0, 0.0, 0.0, 4.579927596919857e-30, 0.0, 0.0, 9.464270461424265e-07, -2.0468615633029573e-28, -2.3193987707738702e-26, 0.0, 0.0, 0.0, -2.0468615633029577e-28, 6.891116511357793e-07, -8.185168715129788e-35, 0.0, 0.0, 0.0, -2.319398770773871e-26, -6.094828678593663e-35, 6.891116511357793e-07, 0.0, -1.9425499176528643e-37, 4.579927596920306e-30, 0.0, 0.0, 0.0, 1.717613769431621e-06]
---
header: 
  seq: 4580
  stamp: 
    secs: 1518209920
    nsecs: 512860537
  frame_id: "swarmone/map"
child_frame_id: "swarmone/base_link"
pose: 
  pose: 
    position: 
      x: -0.211841365477
      y: 2.87826664211
      z: 0.0
    orientation: 
      x: 0.0
      y: 0.0
      z: 0.699716380631
      w: 0.714420735055
  covariance: [2.8273528713294374, -0.04275583928600465, 0.0, 0.0, 0.0, -3.488892627144846e-18, -0.04275583928600463, 1.349280287442519, 0.0, 0.0, 0.0, -7.409136211480912e-16, 0.0, 0.0, 6.746420236587826e-07, 1.8526580309302454e-14, 6.533994769750177e-18, 0.0, 0.0, 0.0, 1.852658030930246e-14, 6.746421069225914e-07, -3.720733319678653e-25, 0.0, 0.0, 0.0, 6.533994769750178e-18, -3.7207304914937176e-25, 6.746421069225924e-07, 0.0, -3.4888926271448465e-18, -7.409136211480911e-16, 0.0, 0.0, 0.0, 7.967812910862348e-08]
twist: 
  twist: 
    linear: 
      x: -7.0844134358e-13
      y: 0.0222448401236
      z: 0.0
    angular: 
      x: 0.0
      y: 0.0
      z: 0.0499999990012
  covariance: [9.999999097115568e-10, 1.3837384520762837e-13, 0.0, 0.0, 0.0, -8.224491070398815e-44, 1.3837384520762807e-13, 1.6303482233433022, 0.0, 0.0, 0.0, 1.8899385257172203e-36, 0.0, 0.0, 9.419806317499417e-07, 4.578076513989906e-28, -2.1642244262566642e-26, 0.0, 0.0, 0.0, 4.578076513989907e-28, 6.746420236414099e-07, 1.4564899625529504e-34, 0.0, 0.0, 0.0, -2.1642244262566648e-26, 1.3991955772038845e-34, 6.746420236414099e-07, 0.0, -8.224491070398815e-44, 1.8899385257174278e-36, 0.0, 0.0, 0.0, 1.574562621970552e-06]
---
header: 
  seq: 4581
  stamp: 
    secs: 1518209920
    nsecs: 612622738
  frame_id: "swarmone/map"
child_frame_id: "swarmone/base_link"
pose: 
  pose: 
    position: 
      x: -0.214866455017
      y: 2.87253363136
      z: 0.0
    orientation: 
      x: 0.0
      y: 0.0
      z: 0.696142520112
      w: 0.717903608915
  covariance: [2.347142200908018, -0.03158439099715366, 0.0, 0.0, 0.0, -1.0237788595589849e-14, -0.03158439099715365, 1.2293893578580903, 0.0, 0.0, 0.0, -5.578092695404345e-13, 0.0, 0.0, 9.808208879602978e-07, 2.066142027552638e-15, 7.752871133102019e-19, 0.0, 0.0, 0.0, 2.0661420275526376e-15, 9.808208954066407e-07, -8.352089714850406e-26, 0.0, 0.0, 0.0, 7.7528711331020175e-19, -8.352095576648077e-26, 9.808208954066411e-07, 0.0, -1.0237788595589848e-14, -5.578092695404344e-13, 0.0, 0.0, 0.0, 2.5330053083262313e-06]
twist: 
  twist: 
    linear: 
      x: -7.57808317711e-13
      y: 0.0221842833934
      z: 0.0
    angular: 
      x: 0.0
      y: 0.0
      z: 0.0400000002813
  covariance: [9.99999909351629e-10, 1.4259090158482157e-13, 0.0, 0.0, 0.0, -1.2190626605271158e-29, 1.4259090158482107e-13, 1.4458542104639838, 0.0, 0.0, 0.0, 2.62281970593617e-21, 0.0, 0.0, 9.980311125842994e-07, 1.5585796959848313e-28, -4.998001584431929e-27, 0.0, 0.0, 0.0, 1.5585796959848313e-28, 9.808208879126958e-07, 3.84598307710835e-34, 0.0, 0.0, 0.0, -4.998001584431928e-27, -5.729244182441772e-35, 9.808208879126958e-07, 0.0, -1.2190626605271165e-29, 2.6228197059361883e-21, 0.0, 0.0, 0.0, 5.0641106201069916e-05]
---
header: 
  seq: 4582
  stamp: 
    secs: 1518209920
    nsecs: 712220430
  frame_id: "swarmone/map"
child_frame_id: "swarmone/base_link"
pose: 
  pose: 
    position: 
      x: -0.217048582936
      y: 2.8726005721
      z: 0.0
    orientation: 
      x: 0.0
      y: 0.0
      z: 0.699716352121
      w: 0.714420762978
  covariance: [2.656856785529934, -0.03908678683072107, 0.0, 0.0, 0.0, -3.4472257316192055e-16, -0.039086786830721046, 1.3092556237874753, 0.0, 0.0, 0.0, -1.1373951076412868e-14, 0.0, 0.0, 6.746420067534886e-07, 1.8035619385083364e-14, 6.277360367310316e-18, 0.0, 0.0, 0.0, 1.8035619385083367e-14, 6.746420900185424e-07, -3.4798000519208656e-25, 0.0, 0.0, 0.0, 6.277360367310317e-18, -3.479797738441586e-25, 6.746420900185434e-07, 0.0, -3.447225731619207e-16, -1.1373951076412866e-14, 0.0, 0.0, 0.0, 7.96781291075299e-08]
twist: 
  twist: 
    linear: 
      x: -6.85617513114e-13
      y: 0.0216551407058
      z: 0.0
    angular: 
      x: 0.0
      y: 0.0
      z: 0.0499999990069
  covariance: [9.999999090489911e-10, 1.3093035488534433e-13, 0.0, 0.0, 0.0, -1.5480092422010244e-36, 1.3093035488534387e-13, 1.5669804480136822, 0.0, 0.0, 0.0, 3.752979296647467e-28, 0.0, 0.0, 9.419806316959288e-07, 4.455767997683527e-28, -2.1069893401136222e-26, 0.0, 0.0, 0.0, 4.455767997683527e-28, 6.746420067359776e-07, 1.609336841514692e-34, 0.0, 0.0, 0.0, -2.1069893401136225e-26, 1.0786912374264585e-34, 6.746420067359776e-07, 0.0, -1.548009242201025e-36, 3.7529792966474914e-28, 0.0, 0.0, 0.0, 1.5745626219704005e-06]
---
header: 
  seq: 4583
  stamp: 
    secs: 1518209920
    nsecs: 813058615
  frame_id: "swarmone/map"
child_frame_id: "swarmone/base_link"
pose: 
  pose: 
    position: 
      x: -0.218368959814
      y: 2.86765941617
      z: 0.0
    orientation: 
      x: 0.0
      y: 0.0
      z: 0.696135591647
      w: 0.717910327299
  covariance: [2.2097279761093143, -0.028932516819023094, 0.0, 0.0, 0.0, -7.224055458954133e-16, -0.028932516819023073, 1.1905451693581761, 0.0, 0.0, 0.0, -4.607780405833523e-14, 0.0, 0.0, 7.424726425624045e-07, 1.6249484026749357e-14, 6.385371417767411e-18, 0.0, 0.0, 0.0, 1.6249484026749353e-14, 7.424727057115486e-07, -4.0408766691877335e-25, 0.0, 0.0, 0.0, 6.385371417767411e-18, -4.0408780301493863e-25, 7.424727057115497e-07, 0.0, -7.224055458954131e-16, -4.6077804058335243e-14, 0.0, 0.0, 0.0, 1.2020928756788728e-07]
twist: 
  twist: 
    linear: 
      x: -7.25682021595e-13
      y: 0.0205797589068
      z: 0.0
    angular: 
      x: 0.0
      y: 0.0
      z: 0.0400000009257
  covariance: [9.999999102844145e-10, 1.4284332921931585e-13, 0.0, 0.0, 0.0, -2.2513657733450397e-30, 1.4284332921931563e-13, 1.3893626689794214, 0.0, 0.0, 0.0, 4.473063919262637e-22, 0.0, 0.0, 9.605394212653514e-07, 7.294205024743508e-28, -2.335374783588024e-26, 0.0, 0.0, 0.0, 7.294205024743506e-28, 7.424726425398564e-07, 3.2265101576946448e-34, 0.0, 0.0, 0.0, -2.335374783588024e-26, 2.61263443224637e-34, 7.424726425398564e-07, 0.0, -2.2513657733450408e-30, 4.473063919262598e-22, 0.0, 0.0, 0.0, 2.3851857909164384e-06]
---
header: 
  seq: 4584
  stamp: 
    secs: 1518209920
    nsecs: 912322044
  frame_id: "swarmone/map"
child_frame_id: "swarmone/base_link"
pose: 
  pose: 
    position: 
      x: -0.220383885982
      y: 2.86772132892
      z: 0.0
    orientation: 
      x: 0.0
      y: 0.0
      z: 0.696135576979
      w: 0.717910341522
  covariance: [2.499968814806942, -0.03595390213864676, 0.0, 0.0, 0.0, -2.919136313620625e-17, -0.03595390213864672, 1.2701326482052713, 0.0, 0.0, 0.0, -9.559204427560095e-16, 0.0, 0.0, 7.393441875445884e-07, 1.590336267810175e-14, 5.714853612895282e-18, 0.0, 0.0, 0.0, 1.5903362678101755e-14, 7.393442510080268e-07, -3.486816676135344e-25, 0.0, 0.0, 0.0, 5.714853612895281e-18, -3.4868201368817986e-25, 7.393442510080279e-07, 0.0, -2.9191363136206244e-17, -9.559204427560095e-16, 0.0, 0.0, 0.0, 1.1782510174558396e-07]
twist: 
  twist: 
    linear: 
      x: -6.57296279579e-13
      y: 0.0200369263006
      z: 0.0
    angular: 
      x: 0.0
      y: 0.0
      z: 0.0399999999998
  covariance: [9.999999087315476e-10, 1.3136372567952154e-13, 0.0, 0.0, 0.0, -2.4962789546722643e-37, 1.313637256795213e-13, 1.5067133338880585, 0.0, 0.0, 0.0, 5.573405902197898e-29, 0.0, 0.0, 9.597828567577366e-07, 7.08693912674568e-28, -2.2739521013289455e-26, 0.0, 0.0, 0.0, 7.086939126745683e-28, 7.39344187522358e-07, 2.984771916250077e-34, 0.0, 0.0, 0.0, -2.2739521013289472e-26, 2.6182704341313135e-34, 7.39344187522358e-07, 0.0, -2.4962789546722656e-37, 5.573405902197847e-29, 0.0, 0.0, 0.0, 2.3375020750945713e-06]
---
header: 
  seq: 4585
  stamp: 
    secs: 1518209921
    nsecs:  12186527
  frame_id: "swarmone/map"
child_frame_id: "swarmone/base_link"
pose: 
  pose: 
    position: 
      x: -0.22235666397
      y: 2.86778196137
      z: 0.0
    orientation: 
      x: 0.0
      y: 0.0
      z: 0.699716309515
      w: 0.714420804708
  covariance: [2.8306460301955663, -0.04416057767538605, 0.0, 0.0, 0.0, -2.091378680818291e-17, -0.04416057767538602, 1.3502368980883632, 0.0, 0.0, 0.0, -7.906079399405609e-16, 0.0, 0.0, 6.844335838260204e-07, 1.619603721876901e-14, 5.453640827930521e-18, 0.0, 0.0, 0.0, 1.619603721876901e-14, 6.84433650285702e-07, -2.7990342571109527e-25, 0.0, 0.0, 0.0, 5.45364082793052e-18, -2.799033787660769e-25, 6.844336502857029e-07, 0.0, -2.0913786808182914e-17, -7.90607939940561e-16, 0.0, 0.0, 0.0, 8.444650068334672e-08]
twist: 
  twist: 
    linear: 
      x: -5.95095535722e-13
      y: 0.019490806626
      z: 0.0
    angular: 
      x: 0.0
      y: 0.0
      z: 0.0400000000003
  covariance: [9.999999093400696e-10, 1.207374254373258e-13, 0.0, 0.0, 0.0, -1.0115260101638437e-43, 1.207374254373256e-13, 1.6317019439598728, 0.0, 0.0, 0.0, 2.538476812338961e-35, 0.0, 0.0, 9.450226172465766e-07, 4.134110866566744e-28, -1.9559808446327683e-26, 0.0, 0.0, 0.0, 4.134110866566742e-28, 6.844335838079464e-07, 1.1318896759987682e-34, 0.0, 0.0, 0.0, -1.9559808446327674e-26, 1.3576976667349553e-34, 6.844335838079464e-07, 0.0, -1.0115260101638437e-43, 2.5384768123389375e-35, 0.0, 0.0, 0.0, 1.6699300536108085e-06]
---
header: 
  seq: 4586
  stamp: 
    secs: 1518209921
    nsecs: 111851215
  frame_id: "swarmone/map"
child_frame_id: "swarmone/base_link"
pose: 
  pose: 
    position: 
      x: -0.224753213048
      y: 2.86374324322
      z: 0.0
    orientation: 
      x: 0.0
      y: 0.0
      z: 0.692537235836
      w: 0.721382129652
  covariance: [2.353797638656553, -0.03270370216788825, 0.0, 0.0, 0.0, -8.862931388145849e-15, -0.03270370216788823, 1.23136856456183, 0.0, 0.0, 0.0, -4.746093655079926e-13, 0.0, 0.0, 6.695123280294271e-07, 1.6014744368439102e-14, 5.6972788856808344e-18, 0.0, 0.0, 0.0, 1.6014744368439105e-14, 6.695123946339419e-07, -2.7612105816658496e-25, 0.0, 0.0, 0.0, 5.697278885680836e-18, -2.7612129949249332e-25, 6.695123946339426e-07, 0.0, -8.862931388145849e-15, -4.746093655079928e-13, 0.0, 0.0, 0.0, 7.729394333346142e-08]
twist: 
  twist: 
    linear: 
      x: -6.20548646241e-13
      y: 0.0192190660268
      z: 0.0
    angular: 
      x: 0.0
      y: 0.0
      z: 0.0399999988206
  covariance: [9.999999092553264e-10, 1.3883196869073277e-13, 0.0, 0.0, 0.0, -1.0840874071611915e-29, 1.388319686907325e-13, 1.4487262533463818, 0.0, 0.0, 0.0, 1.7675096249123347e-21, 0.0, 0.0, 9.403298007176089e-07, 7.562338382408175e-28, -1.8366560928309907e-26, 0.0, 0.0, 0.0, 7.562338382408173e-28, 6.695123280122541e-07, 1.9357987659867036e-34, 0.0, 0.0, 0.0, -1.8366560928309904e-26, 1.9252656841636437e-34, 6.695123280122541e-07, 0.0, -1.0840874071611916e-29, 1.767509624912341e-21, 0.0, 0.0, 0.0, 1.5268789061484437e-06]
---
header: 
  seq: 4587
  stamp: 
    secs: 1518209921
    nsecs: 212312460
  frame_id: "swarmone/map"
child_frame_id: "swarmone/base_link"
pose: 
  pose: 
    position: 
      x: -0.226655188319
      y: 2.86382072618
      z: 0.0
    orientation: 
      x: 0.0
      y: 0.0
      z: 0.699716309259
      w: 0.714420804958
  covariance: [2.667097907664783, -0.04207358430275314, 0.0, 0.0, 0.0, -1.847394847365147e-17, -0.04207358430275311, 1.312000998459225, 0.0, 0.0, 0.0, -6.141092348689958e-16, 0.0, 0.0, 6.891116532652505e-07, 1.54935283526435e-14, 5.164660597283641e-18, 0.0, 0.0, 0.0, 1.54935283526435e-14, 6.891117196117621e-07, -2.573878183345327e-25, 0.0, 0.0, 0.0, 5.164660597283643e-18, -2.5738775072568942e-25, 6.891117196117627e-07, 0.0, -1.8473948473651467e-17, -6.141092348689957e-16, 0.0, 0.0, 0.0, 8.683068648607088e-08]
twist: 
  twist: 
    linear: 
      x: -5.61015085468e-13
      y: 0.0186771503423
      z: 0.0
    angular: 
      x: 0.0
      y: 0.0
      z: 0.0400000000005
  covariance: [9.99999909903661e-10, 1.2750376510177016e-13, 0.0, 0.0, 0.0, -9.8756218625605e-37, 1.2750376510176993e-13, 1.5710974693340234, 0.0, 0.0, 0.0, 1.7998895842208164e-28, 0.0, 0.0, 9.464270461487052e-07, 4.015907666364525e-28, -1.9004088594354312e-26, 0.0, 0.0, 0.0, 4.0159076663645263e-28, 6.891116532468974e-07, 1.1925013987420201e-34, 0.0, 0.0, 0.0, -1.9004088594354312e-26, 1.1147047303875136e-34, 6.891116532468974e-07, 0.0, -9.875621862560499e-37, 1.7998895842208233e-28, 0.0, 0.0, 0.0, 1.7176137694317072e-06]
---
header: 
  seq: 4588
  stamp: 
    secs: 1518209921
    nsecs: 312103510
  frame_id: "swarmone/map"
child_frame_id: "swarmone/base_link"
pose: 
  pose: 
    position: 
      x: -0.227590613236
      y: 2.86031580563
      z: 0.0
    orientation: 
      x: 0.0
      y: 0.0
      z: 0.699716313261
      w: 0.714420801038
  covariance: [2.217072850530092, -0.031012702517183018, 0.0, 0.0, 0.0, -4.935054616676745e-16, -0.031012702517183036, 1.1928786975231422, 0.0, 0.0, 0.0, -2.9730185901052193e-14, 0.0, 0.0, 6.818955394420311e-07, 1.4600789529778018e-14, 5.337373976021217e-18, 0.0, 0.0, 0.0, 1.4600789529778024e-14, 6.818956059350989e-07, -2.4660716728585706e-25, 0.0, 0.0, 0.0, 5.337373976021216e-18, -2.4660703839021875e-25, 6.818956059350996e-07, 0.0, -4.935054616676745e-16, -2.9730185901052206e-14, 0.0, 0.0, 0.0, 8.325440778621276e-08]
twist: 
  twist: 
    linear: 
      x: -5.8267687821e-13
      y: 0.0175623584859
      z: 0.0
    angular: 
      x: 0.0
      y: 0.0
      z: 0.0399999999866
  covariance: [9.999999092532005e-10, 1.4988464470455534e-13, 0.0, 0.0, 0.0, -1.5997421095847947e-30, 1.498846447045549e-13, 1.392219904447566, 0.0, 0.0, 0.0, 1.8091078827402694e-22, 0.0, 0.0, 9.442919719145484e-07, 3.695191216262231e-28, -1.7458683825479804e-26, 0.0, 0.0, 0.0, 3.6951912162622305e-28, 6.818955394240433e-07, 1.3488503748028518e-34, 0.0, 0.0, 0.0, -1.745868382547981e-26, 1.0075664927934224e-34, 6.818955394240433e-07, 0.0, -1.599742109584795e-30, 1.809107882740311e-22, 0.0, 0.0, 0.0, 1.646088195700567e-06]
---
header: 
  seq: 4589
  stamp: 
    secs: 1518209921
    nsecs: 412804604
  frame_id: "swarmone/map"
child_frame_id: "swarmone/base_link"
pose: 
  pose: 
    position: 
      x: -0.229330592977
      y: 2.86035186297
      z: 0.0
    orientation: 
      x: 0.0
      y: 0.0
      z: 0.699716316668
      w: 0.714420797702
  covariance: [2.512760484884849, -0.03684195487295379, 0.0, 0.0, 0.0, -1.1737670387492544e-17, -0.03684195487295381, 1.2735741584909537, 0.0, 0.0, 0.0, -5.714065478830908e-16, 0.0, 0.0, 6.844336045245873e-07, 1.412825048815694e-14, 4.8742483538468095e-18, 0.0, 0.0, 0.0, 1.412825048815694e-14, 6.844336709840595e-07, -2.182284226313399e-25, 0.0, 0.0, 0.0, 4.8742483538468095e-18, -2.1822834009173273e-25, 6.844336709840601e-07, 0.0, -1.1737670387492544e-17, -5.714065478830908e-16, 0.0, 0.0, 0.0, 8.444650069981866e-08]
twist: 
  twist: 
    linear: 
      x: -5.27077664351e-13
      y: 0.01700238941
      z: 0.0
    angular: 
      x: 0.0
      y: 0.0
      z: 0.0399999999999
  covariance: [9.999999101570476e-10, 1.3780684707938128e-13, 0.0, 0.0, 0.0, -1.7189061339190703e-37, 1.378068470793809e-13, 1.5114753220105503, 0.0, 0.0, 0.0, 2.1503027579869794e-29, 0.0, 0.0, 9.450226173094562e-07, 3.6077678176899847e-28, -1.7062480598324058e-26, 0.0, 0.0, 0.0, 3.6077678176899833e-28, 6.844336045065533e-07, 9.10929465191937e-35, 0.0, 0.0, 0.0, -1.7062480598324052e-26, 9.542527939037613e-35, 6.844336045065533e-07, 0.0, -1.7189061339190705e-37, 2.15030275798703e-29, 0.0, 0.0, 0.0, 1.6699300536116335e-06]
---
header: 
  seq: 4590
  stamp: 
    secs: 1518209921
    nsecs: 511723995
  frame_id: "swarmone/map"
child_frame_id: "swarmone/base_link"
pose: 
  pose: 
    position: 
      x: -0.230984896992
      y: 2.86038616841
      z: 0.0
    orientation: 
      x: 0.0
      y: 0.0
      z: 0.699716309855
      w: 0.714420804375
  covariance: [2.841745926438513, -0.043368643137985545, 0.0, 0.0, 0.0, -1.1291614032787273e-17, -0.043368643137985566, 1.352859000438866, 0.0, 0.0, 0.0, -5.490740264284903e-16, 0.0, 0.0, 6.796125684301077e-07, 1.368945555161703e-14, 4.337622276864716e-18, 0.0, 0.0, 0.0, 1.3689455551617027e-14, 6.796126349784693e-07, -1.853396010764895e-25, 0.0, 0.0, 0.0, 4.337622276864715e-18, -1.853396812647062e-25, 6.796126349784699e-07, 0.0, -1.1291614032787273e-17, -5.490740264284904e-16, 0.0, 0.0, 0.0, 8.206231487303052e-08]
twist: 
  twist: 
    linear: 
      x: -4.77620682804e-13
      y: 0.0164523277336
      z: 0.0
    angular: 
      x: 0.0
      y: 0.0
      z: 0.0399999999999
  covariance: [9.999999083931988e-10, 1.2685596860607408e-13, 0.0, 0.0, 0.0, -6.81361953047893e-44, 1.2685596860607373e-13, 1.6355038539456561, 0.0, 0.0, 0.0, 9.412187423516055e-36, 0.0, 0.0, 9.435425710523927e-07, 3.4348023952496856e-28, -1.626612131435202e-26, 0.0, 0.0, 0.0, 3.4348023952496856e-28, 6.796125684124048e-07, 7.935844938482709e-35, 0.0, 0.0, 0.0, -1.626612131435202e-26, 8.6984569877056e-35, 6.796125684124048e-07, 0.0, -6.813619530478935e-44, 9.412187423516282e-36, 0.0, 0.0, 0.0, 1.6222463377895333e-06]
---
header: 
  seq: 4591
  stamp: 
    secs: 1518209921
    nsecs: 612206459
  frame_id: "swarmone/map"
child_frame_id: "swarmone/base_link"
pose: 
  pose: 
    position: 
      x: -0.233238437458
      y: 2.85756782874
      z: 0.0
    orientation: 
      x: 0.0
      y: 0.0
      z: 0.699716376424
      w: 0.714420739176
  covariance: [2.364714698606398, -0.03220481805320849, 0.0, 0.0, 0.0, -7.557953532364766e-15, -0.03220481805320852, 1.2344629320350582, 0.0, 0.0, 0.0, -4.0699242264683913e-13, 0.0, 0.0, 6.844311885454052e-07, 1.3513670915803146e-14, 4.5205482703022536e-18, 0.0, 0.0, 0.0, 1.3513670915803146e-14, 6.844312716204828e-07, -1.9361198565136144e-25, 0.0, 0.0, 0.0, 4.5205482703022536e-18, -1.9361213577668778e-25, 6.844312716204834e-07, 0.0, -7.557953532364764e-15, -4.069924226468391e-13, 0.0, 0.0, 0.0, 8.44465007209229e-08]
twist: 
  twist: 
    linear: 
      x: -4.89356841826e-13
      y: 0.0162626920805
      z: 0.0
    angular: 
      x: 0.0
      y: 0.0
      z: 0.049999998794
  covariance: [9.999999100614238e-10, 1.4308689709012686e-13, 0.0, 0.0, 0.0, -9.401340046450534e-30, 1.4308689709012653e-13, 1.4520699977183993, 0.0, 0.0, 0.0, 1.729929876215372e-21, 0.0, 0.0, 9.450226099733826e-07, 3.449179203698316e-28, -1.6320565681881748e-26, 0.0, 0.0, 0.0, 3.449179203698317e-28, 6.844311885272358e-07, 8.073841126724195e-35, 0.0, 0.0, 0.0, -1.6320565681881754e-26, 9.878686732911087e-35, 6.844311885272358e-07, 0.0, -9.401340046450537e-30, 1.7299298762153697e-21, 0.0, 0.0, 0.0, 1.6699300536101769e-06]
---
header: 
  seq: 4592
  stamp: 
    secs: 1518209921
    nsecs: 711734295
  frame_id: "swarmone/map"
child_frame_id: "swarmone/base_link"
pose: 
  pose: 
    position: 
      x: -0.234829649149
      y: 2.8576008167
      z: 0.0
    orientation: 
      x: 0.0
      y: 0.0
      z: 0.699716310569
      w: 0.714420803675
  covariance: [2.676310735022879, -0.03820745144701782, 0.0, 0.0, 0.0, -1.0809672405106941e-17, -0.038207451447017836, 1.3142195270089108, 0.0, 0.0, 0.0, -5.255779737302882e-16, 0.0, 0.0, 6.796125842908647e-07, 1.3079606534961221e-14, 4.0469195967652325e-18, 0.0, 0.0, 0.0, 1.3079606534961218e-14, 6.796126508395879e-07, -1.6521433076480497e-25, 0.0, 0.0, 0.0, 4.046919596765232e-18, -1.6521467642151867e-25, 6.796126508395885e-07, 0.0, -1.0809672405106942e-17, -5.255779737302881e-16, 0.0, 0.0, 0.0, 8.206231488539049e-08]
twist: 
  twist: 
    linear: 
      x: -4.42764092026e-13
      y: 0.0157193931208
      z: 0.0
    angular: 
      x: 0.0
      y: 0.0
      z: 0.0400000010046
  covariance: [9.999999089786454e-10, 1.3156097269587725e-13, 0.0, 0.0, 0.0, -8.659833615246861e-37, 1.31560972695877e-13, 1.5734351560278428, 0.0, 0.0, 0.0, 1.7835293075119201e-28, 0.0, 0.0, 9.435425711016539e-07, 3.280629456283601e-28, -1.554149725767815e-26, 0.0, 0.0, 0.0, 3.2806294562835995e-28, 6.796125842731621e-07, 7.035481487295762e-35, 0.0, 0.0, 0.0, -1.554149725767814e-26, 7.810398284586516e-35, 6.796125842731621e-07, 0.0, -8.659833615246863e-37, 1.783529307511917e-28, 0.0, 0.0, 0.0, 1.6222463377901513e-06]
---
header: 
  seq: 4593
  stamp: 
    secs: 1518209921
    nsecs: 812781572
  frame_id: "swarmone/map"
child_frame_id: "swarmone/base_link"
pose: 
  pose: 
    position: 
      x: -0.238179294196
      y: 2.85536165248
      z: 0.0
    orientation: 
      x: 0.0
      y: 0.0
      z: 0.699716323481
      w: 0.714420791029
  covariance: [2.229022770296211, -0.028447201976975305, 0.0, 0.0, 0.0, -5.427121211566708e-16, -0.028447201976975308, 1.196395280779154, 0.0, 0.0, 0.0, -3.269684041657677e-14, 0.0, 0.0, 6.889952854638622e-07, 1.348837879874047e-14, 4.164585916348528e-18, 0.0, 0.0, 0.0, 1.3488378798740473e-14, 6.889953517939213e-07, -1.8156227296731598e-25, 0.0, 0.0, 0.0, 4.16458591634853e-18, -1.8156196582177751e-25, 6.889953517939218e-07, 0.0, -5.427121211566708e-16, -3.2696840416576766e-14, 0.0, 0.0, 0.0, 8.683068649764044e-08]
twist: 
  twist: 
    linear: 
      x: -4.49569031057e-13
      y: 0.0162641698584
      z: 0.0
    angular: 
      x: 0.0
      y: 0.0
      z: 0.039999999984
  covariance: [9.999999104872024e-10, 1.4619206262378774e-13, 0.0, 0.0, 0.0, -1.4974523834592576e-30, 1.4619206262378756e-13, 1.3958201376383952, 0.0, 0.0, 0.0, 3.234576492616918e-22, 0.0, 0.0, 9.464266983689056e-07, 3.4855495105572946e-28, -1.6511388154105175e-26, 0.0, 0.0, 0.0, 3.4855495105572946e-28, 6.889952854453837e-07, 9.077556470006532e-35, 0.0, 0.0, 0.0, -1.6511388154105172e-26, 9.068715753226118e-35, 6.889952854453837e-07, 0.0, -1.4974523834592571e-30, 3.2345764926169134e-22, 0.0, 0.0, 0.0, 1.7176137694322777e-06]
---
header: 
  seq: 4594
  stamp: 
    secs: 1518209921
    nsecs: 911768436
  frame_id: "swarmone/map"
child_frame_id: "swarmone/base_link"
pose: 
  pose: 
    position: 
      x: -0.23976367067
      y: 2.85539450898
      z: 0.0
    orientation: 
      x: 0.0
      y: 0.0
      z: 0.699716309855
      w: 0.714420804375
  covariance: [2.520644002212644, -0.033935250529805894, 0.0, 0.0, 0.0, -1.0981794311030755e-17, -0.033935250529805894, 1.2757061246717452, 0.0, 0.0, 0.0, -5.333363937182632e-16, 0.0, 0.0, 6.796125701997723e-07, 1.3108873662309306e-14, 3.701535997862819e-18, 0.0, 0.0, 0.0, 1.310887366230931e-14, 6.796126367481522e-07, -1.5145268040863677e-25, 0.0, 0.0, 0.0, 3.701535997862819e-18, -1.5145270217503245e-25, 6.796126367481529e-07, 0.0, -1.0981794311030754e-17, -5.333363937182631e-16, 0.0, 0.0, 0.0, 8.206231487442029e-08]
twist: 
  twist: 
    linear: 
      x: -4.07318051866e-13
      y: 0.0157545691584
      z: 0.0
    angular: 
      x: 0.0
      y: 0.0
      z: 0.0399999999999
  covariance: [9.9999990845271e-10, 1.3461256290668196e-13, 0.0, 0.0, 0.0, -1.606427530802641e-37, 1.3461256290668179e-13, 1.5131669999432473, 0.0, 0.0, 0.0, 3.895076133516499e-29, 0.0, 0.0, 9.435425710578854e-07, 3.283758749146834e-28, -1.557627883372889e-26, 0.0, 0.0, 0.0, 3.2837587491468347e-28, 6.796125701820661e-07, 9.92779152844446e-35, 0.0, 0.0, 0.0, -1.5576278833728895e-26, 5.841455726233622e-35, 6.796125701820661e-07, 0.0, -1.6064275308026414e-37, 3.8950761335164944e-29, 0.0, 0.0, 0.0, 1.6222463377896026e-06]
---
header: 
  seq: 4595
  stamp: 
    secs: 1518209922
    nsecs:  12817383
  frame_id: "swarmone/map"
child_frame_id: "swarmone/base_link"
pose: 
  pose: 
    position: 
      x: -0.241329032618
      y: 2.85542698713
      z: 0.0
    orientation: 
      x: 0.0
      y: 0.0
      z: 0.696135484808
      w: 0.717910430897
  covariance: [2.8578753327055315, -0.04035007374216394, 0.0, 0.0, 0.0, -1.2902478742303386e-17, -0.040350073742163935, 1.35668743886639, 0.0, 0.0, 0.0, -5.047015783116798e-16, 0.0, 0.0, 6.820413913674731e-07, 1.266815377576583e-14, 3.4219812640348095e-18, 0.0, 0.0, 0.0, 1.2668153775765836e-14, 6.820414578573777e-07, -1.3634071576142585e-25, 0.0, 0.0, 0.0, 3.42198126403481e-18, -1.363403196498488e-25, 6.820414578573781e-07, 0.0, -1.2902478742303387e-17, -5.047015783116799e-16, 0.0, 0.0, 0.0, 8.325440781113887e-08]
twist: 
  twist: 
    linear: 
      x: -3.68360285105e-13
      y: 0.0152343524264
      z: 0.0
    angular: 
      x: 0.0
      y: 0.0
      z: 0.0399999999995
  covariance: [9.99999910503106e-10, 1.23731505364961e-13, 0.0, 0.0, 0.0, -5.42448752628911e-44, 1.237315053649609e-13, 1.6400092198292642, 0.0, 0.0, 0.0, 1.4792064841597957e-35, 0.0, 0.0, 9.442924230587745e-07, 4.715249081318868e-28, -1.5172851580085534e-26, 0.0, 0.0, 0.0, 4.715249081318868e-28, 6.820413913496075e-07, 1.031671768987177e-34, 0.0, 0.0, 0.0, -1.517285158008553e-26, 1.0111765831221316e-34, 6.820413913496075e-07, 0.0, -5.424487526289113e-44, 1.4792064841597935e-35, 0.0, 0.0, 0.0, 1.6460881957018192e-06]
---
header: 
  seq: 4596
  stamp: 
    secs: 1518209922
    nsecs: 112589598
  frame_id: "swarmone/map"
child_frame_id: "swarmone/base_link"
pose: 
  pose: 
    position: 
      x: -0.243471767967
      y: 2.8519211089
      z: 0.0
    orientation: 
      x: 0.0
      y: 0.0
      z: 0.699716299342
      w: 0.714420814671
  covariance: [2.373758336561409, -0.031423749650849375, 0.0, 0.0, 0.0, -1.0733807896002419e-14, -0.031423749650849375, 1.2371973411045432, 0.0, 0.0, 0.0, -3.75140757620026e-13, 0.0, 0.0, 6.771438929199551e-07, 1.2570491710583052e-14, 3.717552451664149e-18, 0.0, 0.0, 0.0, 1.2570491710583052e-14, 6.77143959504193e-07, -1.4476335183020805e-25, 0.0, 0.0, 0.0, 3.717552451664151e-18, -1.4476299392831568e-25, 6.771439595041935e-07, 0.0, -1.0733807896002417e-14, -3.75140757620026e-13, 0.0, 0.0, 0.0, 8.087022202007773e-08]
twist: 
  twist: 
    linear: 
      x: -4.04817399695e-13
      y: 0.0150995430743
      z: 0.0
    angular: 
      x: 0.0
      y: 0.0
      z: 0.0400000002967
  covariance: [9.99999909359412e-10, 1.3670374742002325e-13, 0.0, 0.0, 0.0, -8.767670016916896e-30, 1.367037474200232e-13, 1.4542221337728807, 0.0, 0.0, 0.0, 7.21972801432268e-21, 0.0, 0.0, 9.427722491104464e-07, 3.1246319198706908e-28, -1.4811999046712414e-26, 0.0, 0.0, 0.0, 3.124631919870691e-28, 6.771438929022805e-07, 5.513620540673549e-35, 0.0, 0.0, 0.0, -1.481199904671242e-26, 8.621835361080443e-35, 6.771438929022805e-07, 0.0, -8.7676700169169e-30, 7.21972801432268e-21, 0.0, 0.0, 0.0, 1.5984044798790094e-06]
---
header: 
  seq: 4597
  stamp: 
    secs: 1518209922
    nsecs: 212227821
  frame_id: "swarmone/map"
child_frame_id: "swarmone/base_link"
pose: 
  pose: 
    position: 
      x: -0.244950904462
      y: 2.85195178434
      z: 0.0
    orientation: 
      x: 0.0
      y: 0.0
      z: 0.699716309855
      w: 0.714420804375
  covariance: [2.6865621850130768, -0.037384373790442224, 0.0, 0.0, 0.0, -9.837695526856563e-18, -0.03738437379044221, 1.3170400459472191, 0.0, 0.0, 0.0, -4.774133588373638e-16, 0.0, 0.0, 6.796125871457727e-07, 1.2145683611449076e-14, 3.3515483520189838e-18, 0.0, 0.0, 0.0, 1.2145683611449074e-14, 6.796126536941135e-07, -1.270563514566413e-25, 0.0, 0.0, 0.0, 3.3515483520189838e-18, -1.270565462199732e-25, 6.796126536941139e-07, 0.0, -9.837695526856563e-18, -4.774133588373638e-16, 0.0, 0.0, 0.0, 8.206231488759946e-08]
twist: 
  twist: 
    linear: 
      x: -3.66240630894e-13
      y: 0.0145969851695
      z: 0.0
    angular: 
      x: 0.0
      y: 0.0
      z: 0.0399999999999
  covariance: [9.999999090893915e-10, 1.2567664616804008e-13, 0.0, 0.0, 0.0, -8.062722708516259e-37, 1.2567664616804e-13, 1.575819950902264, 0.0, 0.0, 0.0, 7.520294402277346e-28, 0.0, 0.0, 9.435425711105266e-07, 3.0415524841663106e-28, -1.4431788814588994e-26, 0.0, 0.0, 0.0, 3.041552484166309e-28, 6.796125871280764e-07, 8.198156063690892e-35, 0.0, 0.0, 0.0, -1.4431788814588992e-26, 2.6034844630129954e-35, 6.796125871280764e-07, 0.0, -8.062722708516262e-37, 7.520294402277347e-28, 0.0, 0.0, 0.0, 1.6222463377902618e-06]
---
header: 
  seq: 4598
  stamp: 
    secs: 1518209922
    nsecs: 312395573
  frame_id: "swarmone/map"
child_frame_id: "swarmone/base_link"
pose: 
  pose: 
    position: 
      x: -0.248269855442
      y: 2.8491114356
      z: 0.0
    orientation: 
      x: 0.0
      y: 0.0
      z: 0.699716773155
      w: 0.71442035061
  covariance: [2.232564701344636, -0.02782097269204841, 0.0, 0.0, 0.0, -2.711663578360102e-16, -0.027820972692048408, 1.1977459919634137, 0.0, 0.0, 0.0, -1.614776413038986e-14, 0.0, 0.0, 8.427992975741565e-07, 9.124360859705014e-15, 2.604540882159441e-18, 0.0, 0.0, 0.0, 9.124360859705014e-15, 8.42799345451547e-07, -1.515607207385453e-25, 0.0, 0.0, 0.0, 2.6045408821594413e-18, -1.5156067977159037e-25, 8.427993454515474e-07, 0.0, -2.7116635783601027e-16, -1.6147764130389867e-14, 0.0, 0.0, 0.0, 2.4418694868873436e-07]
twist: 
  twist: 
    linear: 
      x: -3.9335968412e-13
      y: 0.0152421238714
      z: 0.0
    angular: 
      x: 0.0
      y: 0.0
      z: 0.0399999999919
  covariance: [9.99999909626311e-10, 1.3874421459998335e-13, 0.0, 0.0, 0.0, -7.150960047936863e-31, 1.3874421459998325e-13, 1.395934307165489, 0.0, 0.0, 0.0, 1.6732258349722836e-22, 0.0, 0.0, 9.80054706923237e-07, 3.5242798147696183e-28, -1.6687920615833983e-26, 0.0, 0.0, 0.0, 3.5242798147696183e-28, 8.427992975423359e-07, 1.8890349397577336e-34, 0.0, 0.0, 0.0, -1.6687920615833983e-26, 1.3051894596159484e-34, 8.427992975423359e-07, 0.0, -7.150960047936862e-31, 1.673225834972286e-22, 0.0, 0.0, 0.0, 4.864739013572008e-06]
---
header: 
  seq: 4599
  stamp: 
    secs: 1518209922
    nsecs: 412074089
  frame_id: "swarmone/map"
child_frame_id: "swarmone/base_link"
pose: 
  pose: 
    position: 
      x: -0.249765405155
      y: 2.84914246493
      z: 0.0
    orientation: 
      x: 0.0
      y: 0.0
      z: 0.696135484903
      w: 0.717910430805
  covariance: [2.526481784269778, -0.03330827991180327, 0.0, 0.0, 0.0, -2.2553229369787237e-17, -0.033308279911803254, 1.2776094861354093, 0.0, 0.0, 0.0, -9.75243374488193e-16, 0.0, 0.0, 6.820413570180632e-07, 1.2283574752973013e-14, 3.2595555711890716e-18, 0.0, 0.0, 0.0, 1.228357475297301e-14, 6.820414235086067e-07, -1.2592706102263924e-25, 0.0, 0.0, 0.0, 3.2595555711890708e-18, -1.2592709667902906e-25, 6.820414235086071e-07, 0.0, -2.2553229369787237e-17, -9.752433744881932e-16, 0.0, 0.0, 0.0, 8.32544077847093e-08]
twist: 
  twist: 
    linear: 
      x: -3.56187079106e-13
      y: 0.0147717991877
      z: 0.0
    angular: 
      x: 0.0
      y: 0.0
      z: 0.0399999999986
  covariance: [9.999999091485837e-10, 1.2766170417690278e-13, 0.0, 0.0, 0.0, -1.2722592694078137e-37, 1.2766170417690273e-13, 1.5141055902554386, 0.0, 0.0, 0.0, 3.34519753071085e-29, 0.0, 0.0, 9.442924229531878e-07, 4.571465472722387e-28, -1.471252971251034e-26, 0.0, 0.0, 0.0, 4.571465472722384e-28, 6.820413570001047e-07, 1.1762338854435757e-34, 0.0, 0.0, 0.0, -1.4712529712510327e-26, 9.020188626226666e-35, 6.820413570001047e-07, 0.0, -1.2722592694078137e-37, 3.3451975307108546e-29, 0.0, 0.0, 0.0, 1.6460881957004912e-06]
---
header: 
  seq: 4600
  stamp: 
    secs: 1518209922
    nsecs: 512231112
  frame_id: "swarmone/map"
child_frame_id: "swarmone/base_link"
pose: 
  pose: 
    position: 
      x: -0.251220551133
      y: 2.8491872199
      z: 0.0
    orientation: 
      x: 0.0
      y: 0.0
      z: 0.696135464011
      w: 0.717910451063
  covariance: [2.860870661341524, -0.04137266859622678, 0.0, 0.0, 0.0, -1.4189219535589577e-17, -0.041372668596226764, 1.3579356847016357, 0.0, 0.0, 0.0, -4.633637368050358e-16, 0.0, 0.0, 6.720984436694841e-07, 1.1912749039747286e-14, 2.971536130646827e-18, 0.0, 0.0, 0.0, 1.1912749039747281e-14, 6.720985102836167e-07, -1.0795658070988568e-25, 0.0, 0.0, 0.0, 2.9715361306468276e-18, -1.0795678414772068e-25, 6.720985102836171e-07, 0.0, -1.4189219535589577e-17, -4.633637368050358e-16, 0.0, 0.0, 0.0, 7.84860362114763e-08]
twist: 
  twist: 
    linear: 
      x: -3.22386591876e-13
      y: 0.0142992166372
      z: 0.0
    angular: 
      x: 0.0
      y: 0.0
      z: 0.0399999999999
  covariance: [9.99999909631301e-10, 1.173923502915927e-13, 0.0, 0.0, 0.0, -4.95991870165661e-44, 1.1739235029159264e-13, 1.6398248762075043, 0.0, 0.0, 0.0, 1.465791335596654e-35, 0.0, 0.0, 9.411667982203906e-07, 4.282713995098652e-28, -1.379042022699768e-26, 0.0, 0.0, 0.0, 4.28271399509865e-28, 6.72098443652291e-07, 8.050538607347417e-35, 0.0, 0.0, 0.0, -1.379042022699768e-26, 9.395406072531401e-35, 6.72098443652291e-07, 0.0, -4.959918701656609e-44, 1.4657913355966557e-35, 0.0, 0.0, 0.0, 1.550720764060314e-06]
---
header: 
  seq: 4601
  stamp: 
    secs: 1518209922
    nsecs: 611704350
  frame_id: "swarmone/map"
child_frame_id: "swarmone/base_link"
pose: 
  pose: 
    position: 
      x: -0.25550916855
      y: 2.84694306292
      z: 0.0
    orientation: 
      x: 0.0
      y: 0.0
      z: 0.699716299327
      w: 0.714420814686
  covariance: [2.378373769239951, -0.03221071133099876, 0.0, 0.0, 0.0, -1.1013123906337662e-14, -0.03221071133099876, 1.2389211974670487, 0.0, 0.0, 0.0, -3.8255266229731353e-13, 0.0, 0.0, 6.771441778526025e-07, 1.2965215078702804e-14, 3.102004102508365e-18, 0.0, 0.0, 0.0, 1.2965215078702801e-14, 6.771442444368586e-07, -1.2458329514683359e-25, 0.0, 0.0, 0.0, 3.1020041025083644e-18, -1.2458351476056744e-25, 6.771442444368593e-07, 0.0, -1.1013123906337662e-14, -3.8255266229731343e-13, 0.0, 0.0, 0.0, 8.08702220169669e-08]
twist: 
  twist: 
    linear: 
      x: -3.38883207351e-13
      y: 0.015573685408
      z: 0.0
    angular: 
      x: 0.0
      y: 0.0
      z: 0.0400000002952
  covariance: [9.999999090668076e-10, 1.3281053553986157e-13, 0.0, 0.0, 0.0, -7.15624213443892e-30, 1.3281053553986157e-13, 1.455708224137148, 0.0, 0.0, 0.0, 5.659748442914124e-21, 0.0, 0.0, 9.427722500061478e-07, 3.214126140365381e-28, -1.527716004685318e-26, 0.0, 0.0, 0.0, 3.2141261403653795e-28, 6.771441778349275e-07, 8.746964583372442e-35, 0.0, 0.0, 0.0, -1.5277160046853192e-26, 7.118761503651032e-35, 6.771441778349275e-07, 0.0, -7.156242134438919e-30, 5.659748442914122e-21, 0.0, 0.0, 0.0, 1.5984044798787264e-06]
---
header: 
  seq: 4602
  stamp: 
    secs: 1518209922
    nsecs: 712431908
  frame_id: "swarmone/map"
child_frame_id: "swarmone/base_link"
pose: 
  pose: 
    position: 
      x: -0.25705606767
      y: 2.84697516014
      z: 0.0
    orientation: 
      x: 0.0
      y: 0.0
      z: 0.699716309855
      w: 0.714420804375
  covariance: [2.6952370307093614, -0.038340855729058355, 0.0, 0.0, 0.0, -1.0210899826074157e-17, -0.03834085572905837, 1.3196412172052707, 0.0, 0.0, 0.0, -4.946246898196957e-16, 0.0, 0.0, 6.796126150016182e-07, 1.260369838942095e-14, 2.8365696591162277e-18, 0.0, 0.0, 0.0, 1.2603698389420949e-14, 6.796126815499681e-07, -1.1158842414170195e-25, 0.0, 0.0, 0.0, 2.836569659116227e-18, -1.11588290100262e-25, 6.796126815499685e-07, 0.0, -1.0210899826074156e-17, -4.946246898196956e-16, 0.0, 0.0, 0.0, 8.206231490930724e-08]
twist: 
  twist: 
    linear: 
      x: -3.06300084766e-13
      y: 0.0151474456534
      z: 0.0
    angular: 
      x: 0.0
      y: 0.0
      z: 0.0399999999999
  covariance: [9.99999910165683e-10, 1.219658878988437e-13, 0.0, 0.0, 0.0, -6.504261156762121e-37, 1.2196588789884374e-13, 1.5787598875782858, 0.0, 0.0, 0.0, 5.829034976700439e-28, 0.0, 0.0, 9.435425711970428e-07, 3.1486312782607913e-28, -1.4976039116413016e-26, 0.0, 0.0, 0.0, 3.148631278260792e-28, 6.796126149839216e-07, 6.079256315182904e-35, 0.0, 0.0, 0.0, -1.4976039116413016e-26, 8.37166823999887e-35, 6.796126149839216e-07, 0.0, -6.504261156762117e-37, 5.829034976700437e-28, 0.0, 0.0, 0.0, 1.6222463377913473e-06]
---
header: 
  seq: 4603
  stamp: 
    secs: 1518209922
    nsecs: 812222719
  frame_id: "swarmone/map"
child_frame_id: "swarmone/base_link"
pose: 
  pose: 
    position: 
      x: -0.259601565691
      y: 2.84501700538
      z: 0.0
    orientation: 
      x: 0.0
      y: 0.0
      z: 0.696135481475
      w: 0.71791043413
  covariance: [2.243185528133313, -0.028563454838234317, 0.0, 0.0, 0.0, -1.1114146775800566e-15, -0.028563454838234338, 1.2012173282169158, 0.0, 0.0, 0.0, -6.604603845866732e-14, 0.0, 0.0, 6.795578947787281e-07, 1.2785449893341656e-14, 2.931704771483434e-18, 0.0, 0.0, 0.0, 1.278544989334166e-14, 6.795579613066506e-07, -1.1727067377520675e-25, 0.0, 0.0, 0.0, 2.9317047714834334e-18, -1.1727044817053749e-25, 6.795579613066511e-07, 0.0, -1.1114146775800566e-15, -6.604603845866733e-14, 0.0, 0.0, 0.0, 8.206231489070349e-08]
twist: 
  twist: 
    linear: 
      x: -3.19810255616e-13
      y: 0.0153667931839
      z: 0.0
    angular: 
      x: 0.0
      y: 0.0
      z: 0.0399999998799
  covariance: [9.99999909255546e-10, 1.360340323054477e-13, 0.0, 0.0, 0.0, -2.998346421239207e-30, 1.360340323054478e-13, 1.4004116764820564, 0.0, 0.0, 0.0, 6.272622991891365e-22, 0.0, 0.0, 9.435424007712686e-07, 4.710854882840972e-28, -1.517926079512538e-26, 0.0, 0.0, 0.0, 4.710854882840974e-28, 6.795578947608952e-07, 8.959605708603432e-35, 0.0, 0.0, 0.0, -1.5179260795125386e-26, 1.189354667079458e-34, 6.795578947608952e-07, 0.0, -2.9983464212392082e-30, 6.27262299189136e-22, 0.0, 0.0, 0.0, 1.622246337790379e-06]
---
header: 
  seq: 4604
  stamp: 
    secs: 1518209922
    nsecs: 912730455
  frame_id: "swarmone/map"
child_frame_id: "swarmone/base_link"
pose: 
  pose: 
    position: 
      x: -0.261124868005
      y: 2.84506385453
      z: 0.0
    orientation: 
      x: 0.0
      y: 0.0
      z: 0.699716306153
      w: 0.714420808
  covariance: [2.5409546127780502, -0.03575630277182222, 0.0, 0.0, 0.0, -1.2701908100325302e-17, -0.035756302771822235, 1.28180426740139, 0.0, 0.0, 0.0, -4.948791211911338e-16, 0.0, 0.0, 6.82041377897819e-07, 1.2439730491557967e-14, 2.6713432570354428e-18, 0.0, 0.0, 0.0, 1.2439730491557965e-14, 6.820414444048768e-07, -1.0451256082389062e-25, 0.0, 0.0, 0.0, 2.671343257035442e-18, -1.0451267973560083e-25, 6.820414444048773e-07, 0.0, -1.27019081003253e-17, -4.948791211911336e-16, 0.0, 0.0, 0.0, 8.325440780048119e-08]
twist: 
  twist: 
    linear: 
      x: -2.89285960536e-13
      y: 0.0149596675472
      z: 0.0
    angular: 
      x: 0.0
      y: 0.0
      z: 0.0400000000002
  covariance: [9.999999099647235e-10, 1.2500730817607026e-13, 0.0, 0.0, 0.0, -2.9027943435415717e-37, 1.2500730817607034e-13, 1.5198753592276046, 0.0, 0.0, 0.0, 6.811305299733986e-29, 0.0, 0.0, 9.442924230174192e-07, 3.131701357160135e-28, -1.4903157715144504e-26, 0.0, 0.0, 0.0, 3.131701357160133e-28, 6.820413778799537e-07, 5.287574054540358e-35, 0.0, 0.0, 0.0, -1.4903157715144498e-26, 8.522105108680677e-35, 6.820413778799537e-07, 0.0, -2.9027943435415713e-37, 6.811305299733982e-29, 0.0, 0.0, 0.0, 1.6460881957012864e-06]
---
header: 
  seq: 4605
  stamp: 
    secs: 1518209923
    nsecs:  11688471
  frame_id: "swarmone/map"
child_frame_id: "swarmone/base_link"
pose: 
  pose: 
    position: 
      x: -0.262585098618
      y: 2.8450941696
      z: 0.0
    orientation: 
      x: 0.0
      y: 0.0
      z: 0.699716306448
      w: 0.714420807711
  covariance: [2.872950770571176, -0.04225116263833387, 0.0, 0.0, 0.0, -9.875838745107522e-18, -0.04225116263833389, 1.3611173730039028, 0.0, 0.0, 0.0, -4.781674105143328e-16, 0.0, 0.0, 6.771464098132758e-07, 1.2120234762279915e-14, 2.382804500890477e-18, 0.0, 0.0, 0.0, 1.2120234762279915e-14, 6.771464763963244e-07, -8.945305980237149e-26, 0.0, 0.0, 0.0, 2.3828045008904767e-18, -8.945331482980915e-26, 6.771464763963247e-07, 0.0, -9.875838745107523e-18, -4.781674105143327e-16, 0.0, 0.0, 0.0, 8.08702219783032e-08]
twist: 
  twist: 
    linear: 
      x: -2.62139515959e-13
      y: 0.0145588192882
      z: 0.0
    angular: 
      x: 0.0
      y: 0.0
      z: 0.0399999999999
  covariance: [9.999999084296678e-10, 1.1502274154946217e-13, 0.0, 0.0, 0.0, -6.4547587339003695e-44, 1.1502274154946227e-13, 1.644389673201207, 0.0, 0.0, 0.0, 1.6950626750229923e-35, 0.0, 0.0, 9.427722570218391e-07, 2.9984305496049928e-28, -1.4280970439731766e-26, 0.0, 0.0, 0.0, 2.9984305496049937e-28, 6.771464097957436e-07, 6.946820419607246e-35, 0.0, 0.0, 0.0, -1.4280970439731766e-26, 5.719627115638326e-35, 6.771464097957436e-07, 0.0, -6.454758733900367e-44, 1.6950626750229907e-35, 0.0, 0.0, 0.0, 1.5984044798794164e-06]
---
header: 
  seq: 4606
  stamp: 
    secs: 1518209923
    nsecs: 111852407
  frame_id: "swarmone/map"
child_frame_id: "swarmone/base_link"
pose: 
  pose: 
    position: 
      x: -0.263799474082
      y: 2.84338545225
      z: 0.0
    orientation: 
      x: 0.0
      y: 0.0
      z: 0.699716306411
      w: 0.714420807747
  covariance: [2.3891317426931895, -0.03149047561927164, 0.0, 0.0, 0.0, -6.518440217410457e-15, -0.03149047561927165, 1.2421488639275886, 0.0, 0.0, 0.0, -3.4900485671334297e-13, 0.0, 0.0, 6.771439402908059e-07, 1.166262747926442e-14, 2.5044910035926842e-18, 0.0, 0.0, 0.0, 1.1662627479264418e-14, 6.771440068750475e-07, -9.048277747194782e-26, 0.0, 0.0, 0.0, 2.5044910035926842e-18, -9.04827044045234e-26, 6.771440068750479e-07, 0.0, -6.518440217410457e-15, -3.490048567133429e-13, 0.0, 0.0, 0.0, 8.08702220282675e-08]
twist: 
  twist: 
    linear: 
      x: -2.71563816712e-13
      y: 0.0140090308425
      z: 0.0
    angular: 
      x: 0.0
      y: 0.0
      z: 0.0399999998023
  covariance: [9.999999097460035e-10, 1.3042042097093653e-13, 0.0, 0.0, 0.0, -8.035116087698722e-30, 1.304204209709366e-13, 1.459243077483589, 0.0, 0.0, 0.0, 1.697027701540941e-21, 0.0, 0.0, 9.427722492593611e-07, 2.8878142706163284e-28, -1.3742273462351724e-26, 0.0, 0.0, 0.0, 2.8878142706163284e-28, 6.771439402731316e-07, 7.749330334637637e-35, 0.0, 0.0, 0.0, -1.374227346235172e-26, 4.099417662865371e-35, 6.771439402731316e-07, 0.0, -8.035116087698723e-30, 1.697027701540937e-21, 0.0, 0.0, 0.0, 1.5984044798793967e-06]
---
header: 
  seq: 4607
  stamp: 
    secs: 1518209923
    nsecs: 211794376
  frame_id: "swarmone/map"
child_frame_id: "swarmone/base_link"
pose: 
  pose: 
    position: 
      x: -0.265178830142
      y: 2.84341408122
      z: 0.0
    orientation: 
      x: 0.0
      y: 0.0
      z: 0.699717158103
      w: 0.714419973584
  covariance: [2.7045366472380965, -0.037509474337545076, 0.0, 0.0, 0.0, -2.580300426730422e-17, -0.037509474337545104, 1.3222359460581843, 0.0, 0.0, 0.0, -1.2515493052187278e-15, 0.0, 0.0, 8.895984510507283e-07, 6.263927471275512e-15, 1.2476232147055706e-18, 0.0, 0.0, 0.0, 6.2639274712755104e-15, 8.895984878869808e-07, -7.078724019274728e-26, 0.0, 0.0, 0.0, 1.2476232147055708e-18, -7.078740065017089e-26, 8.895984878869812e-07, 0.0, -2.580300426730422e-17, -1.2515493052187278e-15, 0.0, 0.0, 0.0, 3.7889344587940515e-07]
twist: 
  twist: 
    linear: 
      x: -2.45620075487e-13
      y: 0.0136000556831
      z: 0.0
    angular: 
      x: 0.0
      y: 0.0
      z: 0.0399999999999
  covariance: [9.999999093895286e-10, 1.1980656893098916e-13, 0.0, 0.0, 0.0, -7.368684620617092e-37, 1.1980656893098931e-13, 1.5815042242513369, 0.0, 0.0, 0.0, 1.7432530975067863e-28, 0.0, 0.0, 9.87026245023681e-07, 2.689472980132581e-28, -1.2807881124455147e-26, 0.0, 0.0, 0.0, 2.6894729801325796e-28, 8.895984510139276e-07, 2.0451037326646716e-34, 0.0, 0.0, 0.0, -1.2807881124455145e-26, 5.795840762770464e-35, 8.895984510139276e-07, 0.0, -7.368684620617094e-37, 1.743253097506782e-28, 0.0, 0.0, 0.0, 7.558868957419414e-06]
---
header: 
  seq: 4608
  stamp: 
    secs: 1518209923
    nsecs: 311937094
  frame_id: "swarmone/map"
child_frame_id: "swarmone/base_link"
pose: 
  pose: 
    position: 
      x: -0.265465936768
      y: 2.84193311226
      z: 0.0
    orientation: 
      x: 0.0
      y: 0.0
      z: 0.699716326887
      w: 0.714420787692
  covariance: [2.2508205851398095, -0.028004823361029822, 0.0, 0.0, 0.0, -6.330854653136931e-16, -0.028004823361029815, 1.2037340684762226, 0.0, 0.0, 0.0, -3.7634497277493515e-14, 0.0, 0.0, 6.913226228377678e-07, 1.0384754220694289e-14, 2.322861744658773e-18, 0.0, 0.0, 0.0, 1.0384754220694287e-14, 6.913226891080377e-07, -7.841522373827571e-26, 0.0, 0.0, 0.0, 2.322861744658773e-18, -7.841513425501683e-26, 6.913226891080382e-07, 0.0, -6.330854653136929e-16, -3.76344972774935e-14, 0.0, 0.0, 0.0, 8.802277937668599e-08]
twist: 
  twist: 
    linear: 
      x: -2.53471846868e-13
      y: 0.0125331372139
      z: 0.0
    angular: 
      x: 0.0
      y: 0.0
      z: 0.0399999999761
  covariance: [9.99999909600608e-10, 1.3417515064752017e-13, 0.0, 0.0, 0.0, -8.755846391953012e-30, 1.341751506475206e-13, 1.4025015284535125, 0.0, 0.0, 0.0, 2.0506912461422616e-21, 0.0, 0.0, 9.471024666805995e-07, 2.6944679842277633e-28, -1.2815835781728066e-26, 0.0, 0.0, 0.0, 2.694467984227763e-28, 6.913226228191259e-07, 3.762855699768605e-35, 0.0, 0.0, 0.0, -1.2815835781728062e-26, 7.818710782106973e-35, 6.913226228191259e-07, 0.0, -8.755846391953015e-30, 2.05069124614223e-21, 0.0, 0.0, 0.0, 1.7414556273415892e-06]
---
header: 
  seq: 4609
  stamp: 
    secs: 1518209923
    nsecs: 412310362
  frame_id: "swarmone/map"
child_frame_id: "swarmone/base_link"
pose: 
  pose: 
    position: 
      x: -0.2667021045
      y: 2.84195878273
      z: 0.0
    orientation: 
      x: 0.0
      y: 0.0
      z: 0.685288936733
      w: 0.728271290929
  covariance: [2.5489601922433254, -0.03358404579269992, 0.0, 0.0, 0.0, -1.6368833851068414e-17, -0.03358404579269992, 1.2841556078899024, 0.0, 0.0, 0.0, -4.127116073072766e-16, 0.0, 0.0, 6.796126060118852e-07, 1.0071016485844609e-14, 2.1157136658178006e-18, 0.0, 0.0, 0.0, 1.0071016485844606e-14, 6.796126724517028e-07, -6.650531555997367e-26, 0.0, 0.0, 0.0, 2.1157136658177998e-18, -6.650547937101327e-26, 6.796126724517031e-07, 0.0, -1.6368833851068414e-17, -4.1271160730727666e-16, 0.0, 0.0, 0.0, 8.206231490233292e-08]
twist: 
  twist: 
    linear: 
      x: -2.29337028358e-13
      y: 0.0121035909874
      z: 0.0
    angular: 
      x: 0.0
      y: 0.0
      z: 0.0399999999985
  covariance: [9.999999098324904e-10, 1.2332104185508363e-13, 0.0, 0.0, 0.0, -8.8114276924579e-37, 1.2332104185508403e-13, 1.5219054364405664, 0.0, 0.0, 0.0, 2.3192057409519076e-28, 0.0, 0.0, 9.435425711691111e-07, 7.297719565220901e-28, -1.1947032933543428e-26, 0.0, 0.0, 0.0, 7.2977195652209e-28, 6.796126059941785e-07, 1.5396548035049342e-34, 0.0, 0.0, 0.0, -1.1947032933543426e-26, 1.0076617692800938e-34, 6.796126059941785e-07, 0.0, -8.8114276924579e-37, 2.3192057409518717e-28, 0.0, 0.0, 0.0, 1.6222463377909983e-06]
---
header: 
  seq: 4610
  stamp: 
    secs: 1518209923
    nsecs: 512200832
  frame_id: "swarmone/map"
child_frame_id: "swarmone/base_link"
pose: 
  pose: 
    position: 
      x: -0.267887598898
      y: 2.84203088313
      z: 0.0
    orientation: 
      x: 0.0
      y: 0.0
      z: 0.699716288061
      w: 0.71442082572
  covariance: [2.88442805675795, -0.046956555149238285, 0.0, 0.0, 0.0, -1.5849409732178662e-17, -0.046956555149238285, 1.3644753748064455, 0.0, 0.0, 0.0, -3.89570051833484e-16, 0.0, 0.0, 6.844335844596919e-07, 9.702345355970542e-15, 1.9032333827340995e-18, 0.0, 0.0, 0.0, 9.702345355970542e-15, 6.844336509191485e-07, -5.85141890751944e-26, 0.0, 0.0, 0.0, 1.9032333827341003e-18, -5.851400511624975e-26, 6.844336509191489e-07, 0.0, -1.5849409732178665e-17, -3.8957005183348405e-16, 0.0, 0.0, 0.0, 8.444650068369575e-08]
twist: 
  twist: 
    linear: 
      x: -2.07633113092e-13
      y: 0.0116761108401
      z: 0.0
    angular: 
      x: 0.0
      y: 0.0
      z: 0.0400000000012
  covariance: [9.99999909364362e-10, 1.1338164375059702e-13, 0.0, 0.0, 0.0, -2.3501568752262898e-43, 1.1338164375059735e-13, 1.6477235071237442, 0.0, 0.0, 0.0, 6.94464002681606e-35, 0.0, 0.0, 9.450226172485445e-07, 2.4599136219045855e-28, -1.1717408351883369e-26, 0.0, 0.0, 0.0, 2.459913621904584e-28, 6.844335844416621e-07, 5.22712775140424e-35, 0.0, 0.0, 0.0, -1.1717408351883362e-26, 2.676899349908785e-35, 6.844335844416621e-07, 0.0, -2.3501568752262906e-43, 6.944640026815951e-35, 0.0, 0.0, 0.0, 1.6699300536108274e-06]
---
header: 
  seq: 4611
  stamp: 
    secs: 1518209923
    nsecs: 612203598
  frame_id: "swarmone/map"
child_frame_id: "swarmone/base_link"
pose: 
  pose: 
    position: 
      x: -0.267410507109
      y: 2.84073622493
      z: 0.0
    orientation: 
      x: 0.0
      y: 0.0
      z: 0.699716408609
      w: 0.714420707653
  covariance: [2.399957093110591, -0.034804549563810995, 0.0, 0.0, 0.0, -4.7853988991314265e-15, -0.03480454956381099, 1.2456961533465636, 0.0, 0.0, 0.0, -2.559077424277745e-13, 0.0, 0.0, 7.377126124779579e-07, 8.157947581467099e-15, 1.8742285928110235e-18, 0.0, 0.0, 0.0, 8.157947581467096e-15, 7.37712676098157e-07, -5.829894677822175e-26, 0.0, 0.0, 0.0, 1.8742285928110243e-18, -5.829897964898253e-26, 7.377126760981571e-07, 0.0, -4.785398899131425e-15, -2.559077424277745e-13, 0.0, 0.0, 0.0, 1.166330088910748e-07]
twist: 
  twist: 
    linear: 
      x: -2.13072901404e-13
      y: 0.0102557012016
      z: 0.0
    angular: 
      x: 0.0
      y: 0.0
      z: 0.0399999998028
  covariance: [9.999999095883526e-10, 1.3925200759704662e-13, 0.0, 0.0, 0.0, -6.566138519294187e-30, 1.39252007597047e-13, 1.4627579559705144, 0.0, 0.0, 0.0, 5.410779955337721e-22, 0.0, 0.0, 9.593934969405996e-07, 2.4421299889079334e-28, -1.1612978102718404e-26, 0.0, 0.0, 0.0, 2.4421299889079316e-28, 7.377126124557998e-07, 2.4989173211861364e-35, 0.0, 0.0, 0.0, -1.1612978102718404e-26, 7.021010513680923e-35, 7.377126124557998e-07, 0.0, -6.566138519294188e-30, 5.4107799553376595e-22, 0.0, 0.0, 0.0, 2.3136602171839213e-06]
---
header: 
  seq: 4612
  stamp: 
    secs: 1518209923
    nsecs: 712047338
  frame_id: "swarmone/map"
child_frame_id: "swarmone/base_link"
pose: 
  pose: 
    position: 
      x: -0.268411538315
      y: 2.84075700212
      z: 0.0
    orientation: 
      x: 0.0
      y: 0.0
      z: 0.69613548147
      w: 0.717910434134
  covariance: [2.7161641357517246, -0.041154893377587744, 0.0, 0.0, 0.0, -9.705677968763384e-18, -0.04115489337758774, 1.3257180967824425, 0.0, 0.0, 0.0, -3.931361740799024e-16, 0.0, 0.0, 6.796125924632899e-07, 8.154773788471311e-15, 1.767658939579394e-18, 0.0, 0.0, 0.0, 8.154773788471313e-15, 6.796126589947024e-07, -4.4992240859414324e-26, 0.0, 0.0, 0.0, 1.767658939579394e-18, -4.499233543835224e-26, 6.796126589947026e-07, 0.0, -9.705677968763386e-18, -3.931361740799025e-16, 0.0, 0.0, 0.0, 8.206231489190323e-08]
twist: 
  twist: 
    linear: 
      x: -1.9273815857e-13
      y: 0.00980058041749
      z: 0.0
    angular: 
      x: 0.0
      y: 0.0
      z: 0.0399999999994
  covariance: [9.999999092924612e-10, 1.2796052661964742e-13, 0.0, 0.0, 0.0, -6.0582620672951676e-37, 1.2796052661964775e-13, 1.5850830603531707, 0.0, 0.0, 0.0, 5.385525438321785e-29, 0.0, 0.0, 9.435425711269949e-07, 3.005316176416154e-28, -9.687253609965874e-27, 0.0, 0.0, 0.0, 3.005316176416153e-28, 6.796125924455522e-07, 4.904107132276728e-35, 0.0, 0.0, 0.0, -9.68725360996587e-27, 3.0362770033484764e-35, 6.796125924455522e-07, 0.0, -6.058262067295173e-37, 5.385525438321722e-29, 0.0, 0.0, 0.0, 1.6222463377904757e-06]
---
header: 
  seq: 4613
  stamp: 
    secs: 1518209923
    nsecs: 811971188
  frame_id: "swarmone/map"
child_frame_id: "swarmone/base_link"
pose: 
  pose: 
    position: 
      x: -0.267905695168
      y: 2.83809467557
      z: 0.0
    orientation: 
      x: 0.0
      y: 0.0
      z: 0.696135470858
      w: 0.717910444425
  covariance: [2.260424368424959, -0.031726187160797704, 0.0, 0.0, 0.0, -5.240260764733278e-16, -0.031726187160797704, 1.207117120134066, 0.0, 0.0, 0.0, -1.9658926326198676e-14, 0.0, 0.0, 6.770390822625081e-07, 7.016171421343842e-15, 2.1138029092287535e-18, 0.0, 0.0, 0.0, 7.016171421343843e-15, 6.770391488221608e-07, -4.614906577041608e-26, 0.0, 0.0, 0.0, 2.1138029092287535e-18, -4.614948538052418e-26, 6.77039148822161e-07, 0.0, -5.240260764733277e-16, -1.9658926326198676e-14, 0.0, 0.0, 0.0, 8.087022199783438e-08]
twist: 
  twist: 
    linear: 
      x: -2.30147060789e-13
      y: 0.00842867199852
      z: 0.0
    angular: 
      x: 0.0
      y: 0.0
      z: 0.0399999999815
  covariance: [9.999999093839792e-10, 1.5023295907181326e-13, 0.0, 0.0, 0.0, -1.0546186594633579e-30, 1.5023295907181357e-13, 1.405518353276847, 0.0, 0.0, 0.0, 6.81785139743552e-22, 0.0, 0.0, 9.427719179348439e-07, 2.5682182151344593e-28, -8.256137181602418e-27, 0.0, 0.0, 0.0, 2.568218215134458e-28, 6.770390822448496e-07, 3.657067945596634e-35, 0.0, 0.0, 0.0, -8.256137181602418e-27, 2.9245927794398545e-35, 6.770390822448496e-07, 0.0, -1.0546186594633579e-30, 6.817851397435512e-22, 0.0, 0.0, 0.0, 1.5984044798803822e-06]
---
header: 
  seq: 4614
  stamp: 
    secs: 1518209923
    nsecs: 912749767
  frame_id: "swarmone/map"
child_frame_id: "swarmone/base_link"
pose: 
  pose: 
    position: 
      x: -0.268730256546
      y: 2.8381200244
      z: 0.0
    orientation: 
      x: 0.0
      y: 0.0
      z: 0.696135477704
      w: 0.717910437786
  covariance: [2.5607334819400687, -0.039280052277053404, 0.0, 0.0, 0.0, -8.043464047928569e-18, -0.039280052277053425, 1.2879407265088643, 0.0, 0.0, 0.0, -2.6295567251731898e-16, 0.0, 0.0, 6.82041384656027e-07, 6.604928682251253e-15, 1.9279226451598684e-18, 0.0, 0.0, 0.0, 6.6049286822512505e-15, 6.820414511459215e-07, -4.004872038702136e-26, 0.0, 0.0, 0.0, 1.9279226451598684e-18, -4.004876197479408e-26, 6.820414511459218e-07, 0.0, -8.043464047928569e-18, -2.62955672517319e-16, 0.0, 0.0, 0.0, 8.325440780582338e-08]
twist: 
  twist: 
    linear: 
      x: -2.08163041468e-13
      y: 0.00794287587457
      z: 0.0
    angular: 
      x: 0.0
      y: 0.0
      z: 0.0399999999999
  covariance: [9.999999102306617e-10, 1.380720786363339e-13, 0.0, 0.0, 0.0, -1.0771145277150739e-37, 1.3807207863633414e-13, 1.5255765338127445, 0.0, 0.0, 0.0, 7.872979326530354e-29, 0.0, 0.0, 9.442924230381707e-07, 2.4601257848333997e-28, -7.91082783963433e-27, 0.0, 0.0, 0.0, 2.460125784833399e-28, 6.820413846381656e-07, 1.1725782101581666e-35, 0.0, 0.0, 0.0, -7.910827839634328e-27, 4.625385620678051e-35, 6.820413846381656e-07, 0.0, -1.0771145277150739e-37, 7.872979326530345e-29, 0.0, 0.0, 0.0, 1.6460881957015534e-06]
---
header: 
  seq: 4615
  stamp: 
    secs: 1518209924
    nsecs:  12767315
  frame_id: "swarmone/map"
child_frame_id: "swarmone/base_link"
pose: 
  pose: 
    position: 
      x: -0.269500209163
      y: 2.83814370158
      z: 0.0
