header: 
  seq: 5407
  stamp: 
    secs: 1518210003
    nsecs: 212018728
  frame_id: "swarmone/map"
child_frame_id: "swarmone/base_link"
pose: 
  pose: 
    position: 
      x: 0.621706074951
      y: 4.16914402371
      z: 0.0
    orientation: 
      x: 0.0
      y: 0.0
      z: 0.6668698725
      w: 0.745174189806
  covariance: [2.5807778871672933, -0.1669712524528664, 0.0, 0.0, 0.0, -2.9550161088971093e-16, -0.16697125245286643, 1.3034804284840058, 0.0, 0.0, 0.0, -2.6537855654026347e-15, 0.0, 0.0, 6.746420176110735e-07, 2.5651799350384026e-14, -4.3809536538163005e-18, 0.0, 0.0, 0.0, 2.5651799350384026e-14, 6.746420838286059e-07, 3.45504289875294e-25, 0.0, 0.0, 0.0, -4.380953653816301e-18, 3.455044196906384e-25, 6.74642083828608e-07, 0.0, -2.95501610889711e-16, -2.653785565402635e-15, 0.0, 0.0, 0.0, 7.967812910531764e-08]
twist: 
  twist: 
    linear: 
      x: 4.76091817981e-13
      y: 0.0308000165698
      z: 0.0
    angular: 
      x: 0.0
      y: 0.0
      z: 0.0399999999994
  covariance: [9.999999094564028e-10, 5.652112225763706e-13, 0.0, 0.0, 0.0, -1.8096779883100108e-36, 5.65211222576372e-13, 1.550344338198667, 0.0, 0.0, 0.0, 3.75642078406174e-27, 0.0, 0.0, 9.419806317305448e-07, 3.309049661179916e-27, -2.979006179070567e-26, 0.0, 0.0, 0.0, 3.309049661179915e-27, 6.74642017593588e-07, 1.5062564278764796e-33, 0.0, 0.0, 0.0, -2.979006179070568e-26, 1.4320325681005505e-33, 6.74642017593588e-07, 0.0, -1.8096779883100118e-36, 3.756420784061743e-27, 0.0, 0.0, 0.0, 1.5745626219703757e-06]
---
header: 
  seq: 5408
  stamp: 
    secs: 1518210003
    nsecs: 313810110
  frame_id: "swarmone/map"
child_frame_id: "swarmone/base_link"
pose: 
  pose: 
    position: 
      x: 0.618380178112
      y: 4.17624302548
      z: 0.0
    orientation: 
      x: 0.0
      y: 0.0
      z: 0.663152615923
      w: 0.74848420691
  covariance: [2.1508450257199794, -0.12626944222903014, 0.0, 0.0, 0.0, -2.3513023090267195e-13, -0.12626944222903014, 1.1829164691396403, 0.0, 0.0, 0.0, -1.921320522960966e-12, 0.0, 0.0, 9.891092104763236e-07, 2.272219168116516e-15, -1.4215920432905e-20, 0.0, 0.0, 0.0, 2.2722191681165163e-15, 9.891092176210364e-07, 3.005545948194615e-27, 0.0, 0.0, 0.0, -1.4215920432904998e-20, 3.0054261944761286e-27, 9.891092176210368e-07, 0.0, -2.3513023090267205e-13, -1.9213205229609655e-12, 0.0, 0.0, 0.0, 4.586982646603754e-06]
twist: 
  twist: 
    linear: 
      x: 5.19115023516e-08
      y: 0.0317234726623
      z: 0.0
    angular: 
      x: 0.0
      y: 0.0
      z: 0.0499999990084
  covariance: [9.023207909295931e-05, 5.7923488454627906e-08, 0.0, 0.0, 0.0, 1.2333501765999828e-25, 5.7923488454628006e-08, 1.3756942282469466, 0.0, 0.0, 0.0, -3.0786406244570534e-21, 0.0, 0.0, 9.988930738430744e-07, 1.390913710091312e-27, -1.1459298989311068e-26, 0.0, 0.0, 0.0, 1.3909137100913127e-27, 9.891092103850482e-07, 1.667014020233744e-33, 0.0, 0.0, 0.0, -1.1459298989311071e-26, 1.649949076175217e-33, 9.891092103850482e-07, 0.0, 1.2333501765999828e-25, -3.0786406244570617e-21, 0.0, 0.0, 0.0, 9.172062738027198e-05]
---
header: 
  seq: 5409
  stamp: 
    secs: 1518210003
    nsecs: 411686182
  frame_id: "swarmone/map"
child_frame_id: "swarmone/base_link"
pose: 
  pose: 
    position: 
      x: 0.615266600207
      y: 4.1766207962
      z: 0.0
    orientation: 
      x: 0.0
      y: 0.0
      z: 0.666869919895
      w: 0.74517414739
  covariance: [2.4294871287794635, -0.15440384289645845, 0.0, 0.0, 0.0, -3.560805011838633e-15, -0.15440384289645842, 1.26396920334225, 0.0, 0.0, 0.0, -2.936459388983365e-14, 0.0, 0.0, 6.720983812072593e-07, 2.6964432432043918e-14, -4.7412252839689024e-18, 0.0, 0.0, 0.0, 2.6964432432043924e-14, 6.720984640056939e-07, 3.9007437899077046e-25, 0.0, 0.0, 0.0, -4.741225283968903e-18, 3.9007474309918806e-25, 6.720984640056961e-07, 0.0, -3.560805011838633e-15, -2.9364593889833644e-14, 0.0, 0.0, 0.0, 7.848603618707158e-08]
twist: 
  twist: 
    linear: 
      x: 5.21879286781e-13
      y: 0.0323660140784
      z: 0.0
    angular: 
      x: 0.0
      y: 0.0
      z: 0.0500000000093
  covariance: [9.999999082513099e-10, 5.91294324870368e-13, 0.0, 0.0, 0.0, -1.1743118170420696e-32, 5.91294324870369e-13, 1.490583075626051, 0.0, 0.0, 0.0, 2.96703298993444e-23, 0.0, 0.0, 9.411667980189926e-07, 3.4477841439004246e-27, -3.1040443861620096e-26, 0.0, 0.0, 0.0, 3.447784143900425e-27, 6.720983811899063e-07, 1.5486008021526277e-33, 0.0, 0.0, 0.0, -3.1040443861620096e-26, 1.624427647918616e-33, 6.720983811899063e-07, 0.0, -1.1743118170420685e-32, 2.967032989934451e-23, 0.0, 0.0, 0.0, 1.5507207640589173e-06]
---
header: 
  seq: 5410
  stamp: 
    secs: 1518210003
    nsecs: 512311935
  frame_id: "swarmone/map"
child_frame_id: "swarmone/base_link"
pose: 
  pose: 
    position: 
      x: 0.611996694412
      y: 4.17698467819
      z: 0.0
    orientation: 
      x: 0.0
      y: 0.0
      z: 0.670587381901
      w: 0.741830548869
  covariance: [2.7542804183647, -0.18613116286799763, 0.0, 0.0, 0.0, -1.0836880760401083e-16, -0.1861311628679976, 1.3475365305008706, 0.0, 0.0, 0.0, -1.0192627762387195e-15, 0.0, 0.0, 6.720984561692018e-07, 2.75144997081949e-14, -4.376644483011083e-18, 0.0, 0.0, 0.0, 2.7514499708194897e-14, 6.72098522476964e-07, 3.6733106199687315e-25, 0.0, 0.0, 0.0, -4.3766444830110824e-18, 3.673304852129597e-25, 6.720985224769663e-07, 0.0, -1.0836880760401082e-16, -1.0192627762387193e-15, 0.0, 0.0, 0.0, 7.848603622075512e-08]
twist: 
  twist: 
    linear: 
      x: 4.72145691379e-13
      y: 0.0330266072845
      z: 0.0
    angular: 
      x: 0.0
      y: 0.0
      z: 0.0400000009939
  covariance: [9.999999100921221e-10, 5.432935462577174e-13, 0.0, 0.0, 0.0, -1.41599532524971e-39, 5.432935462577184e-13, 1.6156341370391287, 0.0, 0.0, 0.0, 4.041670296546934e-30, 0.0, 0.0, 9.411667982606471e-07, 3.201538487601864e-27, -3.1705342187035164e-26, 0.0, 0.0, 0.0, 3.201538487601864e-27, 6.720984561520061e-07, 1.5190665672242288e-33, 0.0, 0.0, 0.0, -3.1705342187035153e-26, 1.4392694619286804e-33, 6.720984561520061e-07, 0.0, -1.4159953252497093e-39, 4.041670296546951e-30, 0.0, 0.0, 0.0, 1.5507207640607782e-06]
---
header: 
  seq: 5411
  stamp: 
    secs: 1518210003
    nsecs: 612380266
  frame_id: "swarmone/map"
child_frame_id: "swarmone/base_link"
pose: 
  pose: 
    position: 
      x: 0.608408183333
      y: 4.18314352491
      z: 0.0
    orientation: 
      x: 0.0
      y: 0.0
      z: 0.666869879829
      w: 0.745174183246
  covariance: [2.2896493093170385, -0.1395406137779342, 0.0, 0.0, 0.0, -8.246520115939364e-14, -0.13954061377793417, 1.2245154748562612, 0.0, 0.0, 0.0, -8.315447524936846e-13, 0.0, 0.0, 6.746391205942119e-07, 2.8301764397789556e-14, -5.028184874484157e-18, 0.0, 0.0, 0.0, 2.8301764397789556e-14, 6.746391868121185e-07, 4.375855334777208e-25, 0.0, 0.0, 0.0, -5.028184874484157e-18, 4.375856577426017e-25, 6.746391868121209e-07, 0.0, -8.246520115939361e-14, -8.315447524936844e-13, 0.0, 0.0, 0.0, 7.967812912762346e-08]
twist: 
  twist: 
    linear: 
      x: 5.4528154927e-13
      y: 0.0339817643038
      z: 0.0
    angular: 
      x: 0.0
      y: 0.0
      z: 0.039999999309
  covariance: [9.99999909648061e-10, 6.191072081512725e-13, 0.0, 0.0, 0.0, -1.9918747976886968e-29, 6.191072081512734e-13, 1.4329525391824416, 0.0, 0.0, 0.0, 2.4196799720389464e-20, 0.0, 0.0, 9.419806225142527e-07, 3.650673835229684e-27, -3.286770089491638e-26, 0.0, 0.0, 0.0, 3.650673835229684e-27, 6.746391205766917e-07, 1.7460974310086567e-33, 0.0, 0.0, 0.0, -3.2867700894916365e-26, 1.820894347656493e-33, 6.746391205766917e-07, 0.0, -1.9918747976886966e-29, 2.419679972038946e-20, 0.0, 0.0, 0.0, 1.5745626219691484e-06]
---
header: 
  seq: 5412
  stamp: 
    secs: 1518210003
    nsecs: 712237120
  frame_id: "swarmone/map"
child_frame_id: "swarmone/base_link"
pose: 
  pose: 
    position: 
      x: 0.605002659978
      y: 4.18352251865
      z: 0.0
    orientation: 
      x: 0.0
      y: 0.0
      z: 0.666869904479
      w: 0.745174161186
  covariance: [2.593152994383633, -0.16883746503648958, 0.0, 0.0, 0.0, -1.2925721061628838e-16, -0.16883746503648953, 1.3071889085492996, 0.0, 0.0, 0.0, -1.1607549876205285e-15, 0.0, 0.0, 6.958743197718341e-07, 2.86506531010396e-14, -4.498768385506098e-18, 0.0, 0.0, 0.0, 2.86506531010396e-14, 6.958743855173849e-07, 4.238784691053167e-25, 0.0, 0.0, 0.0, -4.498768385506098e-18, 4.238786628772354e-25, 6.958743855173875e-07, 0.0, -1.2925721061628838e-16, -1.1607549876205283e-15, 0.0, 0.0, 0.0, 9.040696516056659e-08]
twist: 
  twist: 
    linear: 
      x: 4.93174144033e-13
      y: 0.0346474327079
      z: 0.0
    angular: 
      x: 0.0
      y: 0.0
      z: 0.0399999999999
  covariance: [9.999999093078772e-10, 5.686801305308974e-13, 0.0, 0.0, 0.0, -1.826841269248217e-36, 5.686801305308981e-13, 1.553653997412171, 0.0, 0.0, 0.0, 2.4931656724121528e-27, 0.0, 0.0, 9.484041159028727e-07, 3.967573065642919e-27, -3.5713998352443373e-26, 0.0, 0.0, 0.0, 3.967573065642919e-27, 6.958743197529816e-07, 2.1640439227366603e-33, 0.0, 0.0, 0.0, -3.5713998352443396e-26, 2.228480876227745e-33, 6.958743197529816e-07, 0.0, -1.826841269248216e-36, 2.4931656724121524e-27, 0.0, 0.0, 0.0, 1.7891393431615733e-06]
---
header: 
  seq: 5413
  stamp: 
    secs: 1518210003
    nsecs: 813143492
  frame_id: "swarmone/map"
child_frame_id: "swarmone/base_link"
pose: 
  pose: 
    position: 
      x: 0.601497668463
      y: 4.19049768188
      z: 0.0
    orientation: 
      x: 0.0
      y: 0.0
      z: 0.663139564714
      w: 0.748495770002
  covariance: [2.157649462101418, -0.12731655159631292, 0.0, 0.0, 0.0, -7.915034707991479e-14, -0.1273165515963129, 1.1854280521865026, 0.0, 0.0, 0.0, -6.464147083646132e-13, 0.0, 0.0, 9.63640030785144e-07, 8.26204696158666e-15, -1.708393926531868e-20, 0.0, 0.0, 0.0, 8.262046961586658e-15, 9.636400493387432e-07, 4.390994725164596e-27, 0.0, 0.0, 0.0, -1.7083939265318682e-20, 4.390959239112211e-27, 9.63640049338745e-07, 0.0, -7.915034707991478e-14, -6.464147083646132e-13, 0.0, 0.0, 0.0, 1.3742911233931338e-06]
twist: 
  twist: 
    linear: 
      x: 1.51899277524e-08
      y: 0.0354698544187
      z: 0.0
    angular: 
      x: 0.0
      y: 0.0
      z: 0.0399999999995
  covariance: [2.5828707490838335e-05, 1.6724883996873938e-08, 0.0, 0.0, 0.0, 1.1172782932164475e-26, 1.6724883996873954e-08, 1.3771902595875327, 0.0, 0.0, 0.0, -9.796201524716204e-22, 0.0, 0.0, 9.961560876519737e-07, 4.88717789099537e-27, -4.0262259943660423e-26, 0.0, 0.0, 0.0, 4.887177890995372e-27, 9.636400307005125e-07, 6.232565338239853e-33, 0.0, 0.0, 0.0, -4.026225994366043e-26, 6.212384500404462e-33, 9.636400307005125e-07, 0.0, 1.1172782932164468e-26, -9.796201524716225e-22, 0.0, 0.0, 0.0, 2.746682031240065e-05]
---
header: 
  seq: 5414
  stamp: 
    secs: 1518210003
    nsecs: 911760330
  frame_id: "swarmone/map"
child_frame_id: "swarmone/base_link"
pose: 
  pose: 
    position: 
      x: 0.597992756337
      y: 4.19092315521
      z: 0.0
    orientation: 
      x: 0.0
      y: 0.0
      z: 0.666869872073
      w: 0.745174190188
  covariance: [2.439123005716602, -0.15579788044417736, 0.0, 0.0, 0.0, -1.2476022644087943e-15, -0.15579788044417728, 1.2671153635465147, 0.0, 0.0, 0.0, -1.0319959752734809e-14, 0.0, 0.0, 6.796125605441988e-07, 3.006558492736989e-14, -4.841811309474707e-18, 0.0, 0.0, 0.0, 3.006558492736989e-14, 6.796126266999411e-07, 4.545355004985087e-25, 0.0, 0.0, 0.0, -4.841811309474707e-18, 4.5453449589505e-25, 6.79612626699944e-07, 0.0, -1.247602264408794e-15, -1.0319959752734805e-14, 0.0, 0.0, 0.0, 8.20623148731414e-08]
twist: 
  twist: 
    linear: 
      x: 5.33103711695e-13
      y: 0.0361334232792
      z: 0.0
    angular: 
      x: 0.0
      y: 0.0
      z: 0.0400000000033
  covariance: [9.999999083453158e-10, 5.96090627712676e-13, 0.0, 0.0, 0.0, -1.1904723349531445e-33, 5.960906277126764e-13, 1.4930438263316101, 0.0, 0.0, 0.0, 2.9811347374695262e-24, 0.0, 0.0, 9.435425710276752e-07, 3.945389178425475e-27, -3.5515643241231136e-26, 0.0, 0.0, 0.0, 3.9453891784254765e-27, 6.796125605263487e-07, 1.992465132618536e-33, 0.0, 0.0, 0.0, -3.551564324123115e-26, 2.1911731044456856e-33, 6.796125605263487e-07, 0.0, -1.1904723349531443e-33, 2.981134737469532e-24, 0.0, 0.0, 0.0, 1.6222463377894876e-06]
---
header: 
  seq: 5415
  stamp: 
    secs: 1518210004
    nsecs:  12383938
  frame_id: "swarmone/map"
child_frame_id: "swarmone/base_link"
pose: 
  pose: 
    position: 
      x: 0.594345331637
      y: 4.19132904907
      z: 0.0
    orientation: 
      x: 0.0
      y: 0.0
      z: 0.666869819201
      w: 0.745174237504
  covariance: [2.764849898434953, -0.18767750441367834, 0.0, 0.0, 0.0, -1.322921442755655e-16, -0.18767750441367823, 1.3507033330571139, 0.0, 0.0, 0.0, -1.1879394224393982e-15, 0.0, 0.0, 6.796126123701293e-07, 3.062869211838083e-14, -4.4649491358317544e-18, 0.0, 0.0, 0.0, 3.0628692118380835e-14, 6.796126619857904e-07, 4.269257773512835e-25, 0.0, 0.0, 0.0, -4.4649491358317544e-18, 4.269262069135926e-25, 6.796126619857931e-07, 0.0, -1.3229214427556547e-16, -1.1879394224393984e-15, 0.0, 0.0, 0.0, 8.206231490726171e-08]
twist: 
  twist: 
    linear: 
      x: 4.82295467805e-13
      y: 0.0368104957499
      z: 0.0
    angular: 
      x: 0.0
      y: 0.0
      z: 0.0300000009937
  covariance: [9.999999100911947e-10, 5.47694616180695e-13, 0.0, 0.0, 0.0, -2.337744063316517e-40, 5.476946161806954e-13, 1.6182174137175487, 0.0, 0.0, 0.0, 6.612766716072441e-31, 0.0, 0.0, 9.435425711888678e-07, 4.019662361649176e-27, -3.617917317176293e-26, 0.0, 0.0, 0.0, 4.019662361649174e-27, 6.796126123524159e-07, 2.174947606146919e-33, 0.0, 0.0, 0.0, -3.617917317176292e-26, 2.170207678341986e-33, 6.796126123524159e-07, 0.0, -2.3377440633165156e-40, 6.612766716072452e-31, 0.0, 0.0, 0.0, 1.622246337791245e-06]
---
header: 
  seq: 5416
  stamp: 
    secs: 1518210004
    nsecs: 112045050
  frame_id: "swarmone/map"
child_frame_id: "swarmone/base_link"
pose: 
  pose: 
    position: 
      x: 0.591006653379
      y: 4.19897258991
      z: 0.0
    orientation: 
      x: 0.0
      y: 0.0
      z: 0.666869871914
      w: 0.74517419033
  covariance: [2.2947621923981965, -0.14168931251827474, 0.0, 0.0, 0.0, -1.0017496757344079e-13, -0.14168931251827466, 1.2267916107210268, 0.0, 0.0, 0.0, -9.122334394760434e-13, 0.0, 0.0, 6.746391312594758e-07, 3.118260172650452e-14, -5.372676056501891e-18, 0.0, 0.0, 0.0, 3.118260172650451e-14, 6.746391974762721e-07, 5.151391019831624e-25, 0.0, 0.0, 0.0, -5.37267605650189e-18, 5.151395725920954e-25, 6.74639197476275e-07, 0.0, -1.001749675734408e-13, -9.122334394760432e-13, 0.0, 0.0, 0.0, 7.967812911966153e-08]
twist: 
  twist: 
    linear: 
      x: 5.85240212513e-13
      y: 0.0374407642205
      z: 0.0
    angular: 
      x: 0.0
      y: 0.0
      z: 0.0399999988367
  covariance: [9.999999092446671e-10, 6.246883692360451e-13, 0.0, 0.0, 0.0, -2.304229684684182e-29, 6.246883692360452e-13, 1.4339967026030638, 0.0, 0.0, 0.0, 4.007229301631699e-20, 0.0, 0.0, 9.419806225481864e-07, 4.022478586086179e-27, -3.6213284537945315e-26, 0.0, 0.0, 0.0, 4.022478586086177e-27, 6.746391312419522e-07, 2.3568841412511922e-33, 0.0, 0.0, 0.0, -3.62132845379453e-26, 2.0675317923901776e-33, 6.746391312419522e-07, 0.0, -2.304229684684183e-29, 4.0072293016317133e-20, 0.0, 0.0, 0.0, 1.5745626219687446e-06]
---
header: 
  seq: 5417
  stamp: 
    secs: 1518210004
    nsecs: 212677956
  frame_id: "swarmone/map"
child_frame_id: "swarmone/base_link"
pose: 
  pose: 
    position: 
      x: 0.587228081886
      y: 4.19939309763
      z: 0.0
    orientation: 
      x: 0.0
      y: 0.0
      z: 0.666870224273
      w: 0.745173874997
  covariance: [2.601160883581271, -0.17144409178059072, 0.0, 0.0, 0.0, -2.3283550282826487e-16, -0.1714440917805907, 1.3101523823772134, 0.0, 0.0, 0.0, -2.0903780748243453e-15, 0.0, 0.0, 8.15969493994428e-07, 2.53919591581355e-14, -3.9217812037589664e-18, 0.0, 0.0, 0.0, 2.5391959158135496e-14, 8.159695469553513e-07, 5.411441758171586e-25, 0.0, 0.0, 0.0, -3.921781203758965e-18, 5.41143548841342e-25, 8.159695469553547e-07, 0.0, -2.3283550282826487e-16, -2.0903780748243453e-15, 0.0, 0.0, 0.0, 1.9769532577251974e-07]
twist: 
  twist: 
    linear: 
      x: 5.28931158787e-13
      y: 0.0381189865424
      z: 0.0
    angular: 
      x: 0.0
      y: 0.0
      z: 0.0399999999999
  covariance: [9.999999100739544e-10, 5.734498559136717e-13, 0.0, 0.0, 0.0, -2.0960403212024295e-36, 5.734498559136716e-13, 1.5557120280391645, 0.0, 0.0, 0.0, 4.112817933015054e-27, 0.0, 0.0, 9.755136400079722e-07, 4.8874201530590024e-27, -4.399293822330508e-26, 0.0, 0.0, 0.0, 4.887420153059003e-27, 8.159694939652977e-07, 5.209101261738181e-33, 0.0, 0.0, 0.0, -4.3992938223305083e-26, 4.865773615176206e-33, 8.159694939652977e-07, 0.0, -2.0960403212024288e-36, 4.112817933015069e-27, 0.0, 0.0, 0.0, 3.934906555076387e-06]
---
header: 
  seq: 5418
  stamp: 
    secs: 1518210004
    nsecs: 313907385
  frame_id: "swarmone/map"
child_frame_id: "swarmone/base_link"
pose: 
  pose: 
    position: 
      x: 0.584059467295
      y: 4.20760418782
      z: 0.0
    orientation: 
      x: 0.0
      y: 0.0
      z: 0.666893838944
      w: 0.745152741107
  covariance: [2.1629410097855555, -0.12902702349525474, 0.0, 0.0, 0.0, -4.892503191208038e-13, -0.12902702349525466, 1.1877441961696027, 0.0, 0.0, 0.0, -4.29277101558432e-12, 0.0, 0.0, 9.938448901969042e-07, 1.6016077729730702e-15, -1.3143883873300513e-20, 0.0, 0.0, 0.0, 1.60160777297307e-15, 9.938448934529348e-07, 3.437641962040605e-27, 0.0, 0.0, 0.0, -1.3143883873300508e-20, 3.4376515164881384e-27, 9.93844893452935e-07, 0.0, -4.892503191208038e-13, -4.292771015584321e-12, 0.0, 0.0, 0.0, 8.120348841745036e-06]
twist: 
  twist: 
    linear: 
      x: 1.04266520679e-07
      y: 0.0385475680355
      z: 0.0
    angular: 
      x: 0.0
      y: 0.0
      z: 0.0399999999997
  covariance: [0.00016106096479305096, 1.0493264223244051e-07, 0.0, 0.0, 0.0, 4.701310907753375e-25, 1.049326422324405e-07, 1.3784955880773604, 0.0, 0.0, 0.0, -4.795605351370496e-21, 0.0, 0.0, 9.993788193569226e-07, 9.139104916751013e-28, -8.215579785574596e-27, 0.0, 0.0, 0.0, 9.13910491675101e-28, 9.938448901042224e-07, 1.3691835092624875e-33, 0.0, 0.0, 0.0, -8.215579785574596e-27, 1.3771470348755337e-33, 9.938448901042224e-07, 0.0, 4.701310907753374e-25, -4.795605351370513e-21, 0.0, 0.0, 0.0, 0.0001623878942259739]
---
header: 
  seq: 5419
  stamp: 
    secs: 1518210004
    nsecs: 411894560
  frame_id: "swarmone/map"
child_frame_id: "swarmone/base_link"
pose: 
  pose: 
    position: 
      x: 0.580273549338
      y: 4.20802551184
      z: 0.0
    orientation: 
      x: 0.0
      y: 0.0
      z: 0.666869876044
      w: 0.745174186633
  covariance: [2.443268017289504, -0.15602393431206169, 0.0, 0.0, 0.0, -6.917751727021991e-15, -0.15602393431206155, 1.268698065827903, 0.0, 0.0, 0.0, -6.216897855703688e-14, 0.0, 0.0, 6.771463838055749e-07, 3.263692275613651e-14, -5.378868892415375e-18, 0.0, 0.0, 0.0, 3.26369227561365e-14, 6.771464499959565e-07, 5.43950643223189e-25, 0.0, 0.0, 0.0, -5.378868892415374e-18, 5.439505359935042e-25, 6.771464499959598e-07, 0.0, -6.917751727021991e-15, -6.216897855703688e-14, 0.0, 0.0, 0.0, 8.087022199732117e-08]
twist: 
  twist: 
    linear: 
      x: 5.87188978674e-13
      y: 0.0392032245958
      z: 0.0
    angular: 
      x: 0.0
      y: 0.0
      z: 0.0399999999873
  covariance: [9.99999909080817e-10, 6.000212290471312e-13, 0.0, 0.0, 0.0, -4.562515819309008e-32, 6.000212290471308e-13, 1.4936563955302897, 0.0, 0.0, 0.0, 8.426240577586868e-23, 0.0, 0.0, 9.427722569398449e-07, 4.246855853759855e-27, -3.823068095898263e-26, 0.0, 0.0, 0.0, 4.246855853759855e-27, 6.771463837878791e-07, 2.5770347474124887e-33, 0.0, 0.0, 0.0, -3.823068095898264e-26, 2.2414141402863147e-33, 6.771463837878791e-07, 0.0, -4.562515819309008e-32, 8.426240577586894e-23, 0.0, 0.0, 0.0, 1.5984044798800571e-06]
---
header: 
  seq: 5420
  stamp: 
    secs: 1518210004
    nsecs: 512178659
  frame_id: "swarmone/map"
child_frame_id: "swarmone/base_link"
pose: 
  pose: 
    position: 
      x: 0.576332770658
      y: 4.20846406494
      z: 0.0
    orientation: 
      x: 0.0
      y: 0.0
      z: 0.663135692252
      w: 0.748499200842
  covariance: [2.7680766995687796, -0.18779808337098214, 0.0, 0.0, 0.0, -1.4760402376260808e-16, -0.187798083370982, 1.3520020901503569, 0.0, 0.0, 0.0, -1.2678721003043724e-15, 0.0, 0.0, 6.771464446357636e-07, 3.319523225051255e-14, -4.904633796800574e-18, 0.0, 0.0, 0.0, 3.319523225051255e-14, 6.771465107478728e-07, 5.0438230633539095e-25, 0.0, 0.0, 0.0, -4.904633796800575e-18, 5.043826564190206e-25, 6.771465107478762e-07, 0.0, -1.4760402376260806e-16, -1.2678721003043722e-15, 0.0, 0.0, 0.0, 8.087022200501636e-08]
twist: 
  twist: 
    linear: 
      x: 5.31402951699e-13
      y: 0.0398742511085
      z: 0.0
    angular: 
      x: 0.0
      y: 0.0
      z: 0.0399999999996
  covariance: [9.999999097565507e-10, 5.514268856156883e-13, 0.0, 0.0, 0.0, -4.9409214990496665e-39, 5.514268856156882e-13, 1.6184235159170637, 0.0, 0.0, 0.0, 1.028018460150548e-29, 0.0, 0.0, 9.427722571312769e-07, 4.708551203685594e-27, -3.883731327324296e-26, 0.0, 0.0, 0.0, 4.708551203685593e-27, 6.771464446182177e-07, 2.6990529454202982e-33, 0.0, 0.0, 0.0, -3.8837313273242946e-26, 2.753976192805154e-33, 6.771464446182177e-07, 0.0, -4.940921499049667e-39, 1.0280184601505514e-29, 0.0, 0.0, 0.0, 1.5984044798807521e-06]
---
header: 
  seq: 5421
  stamp: 
    secs: 1518210004
    nsecs: 616268635
  frame_id: "swarmone/map"
child_frame_id: "swarmone/base_link"
pose: 
  pose: 
    position: 
      x: 0.573422714
      y: 4.21721835695
      z: 0.0
    orientation: 
      x: 0.0
      y: 0.0
      z: 0.666908764765
      w: 0.745139382585
  covariance: [2.299268739004626, -0.14304063558187877, 0.0, 0.0, 0.0, -1.1855727028598452e-13, -0.14304063558187866, 1.2288273165139827, 0.0, 0.0, 0.0, -1.0025687926599482e-12, 0.0, 0.0, 9.95273444095989e-07, 9.38394381270962e-16, -1.8615762249701224e-19, 0.0, 0.0, 0.0, 9.383943812709619e-16, 9.952734464277362e-07, 3.6959209124087196e-26, 0.0, 0.0, 0.0, -1.8615762249701226e-19, 3.6959141453885106e-26, 9.95273446427736e-07, 0.0, -1.1855727028598455e-13, -1.0025687926599482e-12, 0.0, 0.0, 0.0, 1.0504530504783531e-05]
twist: 
  twist: 
    linear: 
      x: 6.53066120808e-13
      y: 0.0399990627412
      z: 0.0
    angular: 
      x: 0.0
      y: 0.0
      z: 0.0499999992785
  covariance: [9.999999134476279e-10, 6.261243223071568e-13, 0.0, 0.0, 0.0, -2.933797486795722e-29, 6.261243223071561e-13, 1.4331883713490225, 0.0, 0.0, 0.0, 6.59037027956625e-20, 0.0, 0.0, 9.995243092473085e-07, 2.5679947767409056e-28, -2.312486813097707e-27, 0.0, 0.0, 0.0, 2.5679947767409056e-28, 9.952734440465123e-07, 3.5629364012473436e-34, 0.0, 0.0, 0.0, -2.3124868130977066e-27, 6.515732542185873e-34, 9.952734440465123e-07, 0.0, -2.9337974867957217e-29, 6.590370279566275e-20, 0.0, 0.0, 0.0, 0.00021007161004628762]
---
header: 
  seq: 5422
  stamp: 
    secs: 1518210004
    nsecs: 712228298
  frame_id: "swarmone/map"
child_frame_id: "swarmone/base_link"
pose: 
  pose: 
    position: 
      x: 0.569577876374
      y: 4.21764539249
      z: 0.0
    orientation: 
      x: 0.0
      y: 0.0
      z: 0.670587385244
      w: 0.741830545847
  covariance: [2.5905717651576157, -0.17140018553400552, 0.0, 0.0, 0.0, -9.191200935392287e-15, -0.1714001855340053, 1.3083242716653725, 0.0, 0.0, 0.0, -8.269338850765228e-14, 0.0, 0.0, 6.746419060182244e-07, 3.383729611693282e-14, -5.212848679047688e-18, 0.0, 0.0, 0.0, 3.383729611693282e-14, 6.74641972307137e-07, 5.424090455366101e-25, 0.0, 0.0, 0.0, -5.212848679047689e-18, 5.4240901942861775e-25, 6.746419723071405e-07, 0.0, -9.191200935392287e-15, -8.269338850765231e-14, 0.0, 0.0, 0.0, 7.967812907172832e-08]
twist: 
  twist: 
    linear: 
      x: 5.92618388715e-13
      y: 0.0406281528164
      z: 0.0
    angular: 
      x: 0.0
      y: 0.0
      z: 0.0400000010413
  covariance: [9.99999905277346e-10, 5.766131770414067e-13, 0.0, 0.0, 0.0, -7.465850455821452e-36, 5.766131770414063e-13, 1.5490005813186414, 0.0, 0.0, 0.0, 1.8865207510742134e-26, 0.0, 0.0, 9.419806313754934e-07, 3.972563978360135e-27, -3.933876211011979e-26, 0.0, 0.0, 0.0, 3.972563978360137e-27, 6.746419060006937e-07, 2.1951871385873088e-33, 0.0, 0.0, 0.0, -3.9338762110119793e-26, 2.4080433810110826e-33, 6.746419060006937e-07, 0.0, -7.465850455821454e-36, 1.88652075107422e-26, 0.0, 0.0, 0.0, 1.5745626219683096e-06]
---
header: 
  seq: 5423
  stamp: 
    secs: 1518210004
    nsecs: 813754559
  frame_id: "swarmone/map"
child_frame_id: "swarmone/base_link"
pose: 
  pose: 
    position: 
      x: 0.568974141261
      y: 4.22472905224
      z: 0.0
    orientation: 
      x: 0.0
      y: 0.0
      z: 0.666886171491
      w: 0.745159603222
  covariance: [2.1629792157092265, -0.1285808195122231, 0.0, 0.0, 0.0, -6.286479821911964e-13, -0.128580819512223, 1.1882367007146677, 0.0, 0.0, 0.0, -5.5202206500670384e-12, 0.0, 0.0, 9.908905041392713e-07, 2.8593499769344224e-15, -1.603252931505381e-20, 0.0, 0.0, 0.0, 2.8593499769344232e-15, 9.908905096258522e-07, 5.084506047445251e-27, 0.0, 0.0, 0.0, -1.6032529315053815e-20, 5.0843929612774286e-27, 9.90890509625853e-07, 0.0, -6.286479821911964e-13, -5.520220650067037e-12, 0.0, 0.0, 0.0, 5.5454274213768176e-06]
twist: 
  twist: 
    linear: 
      x: 7.42961674683e-08
      y: 0.0392539616465
      z: 0.0
    angular: 
      x: 0.0
      y: 0.0
      z: 0.0399999999996
  covariance: [0.00010812662552805922, 6.999717987825671e-08, 0.0, 0.0, 0.0, 4.231592621752599e-25, 6.999717987825662e-08, 1.3769897368443593, 0.0, 0.0, 0.0, -6.543100562526067e-21, 0.0, 0.0, 9.990757883273983e-07, 2.024719654905494e-27, -1.8200689774310438e-26, 0.0, 0.0, 0.0, 2.0247196549054946e-27, 9.908905040450723e-07, 4.351782908690866e-33, 0.0, 0.0, 0.0, -1.8200689774310444e-26, 4.350005494827455e-33, 9.908905040450723e-07, 0.0, 4.231592621752599e-25, -6.543100562526088e-21, 0.0, 0.0, 0.0, 0.00011088948114003716]
---
header: 
  seq: 5424
  stamp: 
    secs: 1518210004
    nsecs: 912176371
  frame_id: "swarmone/map"
child_frame_id: "swarmone/base_link"
pose: 
  pose: 
    position: 
      x: 0.565105589064
      y: 4.2251600238
      z: 0.0
    orientation: 
      x: 0.0
      y: 0.0
      z: 0.663135692288
      w: 0.748499200811
  covariance: [2.444220127647814, -0.1556251398524665, 0.0, 0.0, 0.0, -4.86583501241397e-15, -0.15562513985246645, 1.269537052863678, 0.0, 0.0, 0.0, -4.3661466424490504e-14, 0.0, 0.0, 6.771463955490664e-07, 3.317041749680187e-14, -5.700732336768987e-18, 0.0, 0.0, 0.0, 3.317041749680186e-14, 6.771464616624892e-07, 5.859145527432784e-25, 0.0, 0.0, 0.0, -5.700732336768986e-18, 5.85913663686843e-25, 6.771464616624926e-07, 0.0, -4.86583501241397e-15, -4.3661466424490504e-14, 0.0, 0.0, 0.0, 8.087022199381612e-08]
twist: 
  twist: 
    linear: 
      x: 6.22995203501e-13
      y: 0.0398440498665
      z: 0.0
    angular: 
      x: 0.0
      y: 0.0
      z: 0.0399999999692
  covariance: [9.999999089815466e-10, 5.959187860969033e-13, 0.0, 0.0, 0.0, -3.9624195493287455e-32, 5.959187860969026e-13, 1.4925740548478263, 0.0, 0.0, 0.0, 7.432015751333367e-23, 0.0, 0.0, 9.427722569767552e-07, 4.704331324272525e-27, -3.8810513208489166e-26, 0.0, 0.0, 0.0, 4.70433132427252e-27, 6.771463955313707e-07, 2.688106493602862e-33, 0.0, 0.0, 0.0, -3.8810513208489154e-26, 2.797433647239649e-33, 6.771463955313707e-07, 0.0, -3.9624195493287455e-32, 7.432015751333387e-23, 0.0, 0.0, 0.0, 1.5984044798799788e-06]
---
header: 
  seq: 5425
  stamp: 
    secs: 1518210005
    nsecs:  12262583
  frame_id: "swarmone/map"
child_frame_id: "swarmone/base_link"
pose: 
  pose: 
    position: 
      x: 0.561117014265
      y: 4.2256443013
      z: 0.0
    orientation: 
      x: 0.0
      y: 0.0
      z: 0.666869872161
      w: 0.745174190108
  covariance: [2.76766167943358, -0.188932980623236, 0.0, 0.0, 0.0, -1.5088616025534232e-16, -0.1889329806232359, 1.3529545850262328, 0.0, 0.0, 0.0, -1.2961802722262785e-15, 0.0, 0.0, 6.796125986749118e-07, 3.365210808101142e-14, -5.190458036301113e-18, 0.0, 0.0, 0.0, 3.3652108081011414e-14, 6.796126648294735e-07, 5.452885864369045e-25, 0.0, 0.0, 0.0, -5.190458036301115e-18, 5.452904551804774e-25, 6.796126648294771e-07, 0.0, -1.5088616025534232e-16, -1.2961802722262785e-15, 0.0, 0.0, 0.0, 8.206231489658399e-08]
twist: 
  twist: 
    linear: 
      x: 5.63919562292e-13
      y: 0.040444117671
      z: 0.0
    angular: 
      x: 0.0
      y: 0.0
      z: 0.0400000000002
  covariance: [9.999999095602605e-10, 5.476691085537901e-13, 0.0, 0.0, 0.0, -4.627743248340143e-39, 5.476691085537894e-13, 1.617011506367059, 0.0, 0.0, 0.0, 9.778424598116247e-30, 0.0, 0.0, 9.435425711463344e-07, 4.4160933948111636e-27, -3.975050603509383e-26, 0.0, 0.0, 0.0, 4.416093394811162e-27, 6.79612598657197e-07, 2.6343514032463235e-33, 0.0, 0.0, 0.0, -3.975050603509383e-26, 2.6510699451849504e-33, 6.79612598657197e-07, 0.0, -4.6277432483401444e-39, 9.778424598116276e-30, 0.0, 0.0, 0.0, 1.6222463377907111e-06]
---
header: 
  seq: 5426
  stamp: 
    secs: 1518210005
    nsecs: 111771584
  frame_id: "swarmone/map"
child_frame_id: "swarmone/base_link"
pose: 
  pose: 
    position: 
      x: 0.560354259214
      y: 4.23339846511
      z: 0.0
    orientation: 
      x: 0.0
      y: 0.0
      z: 0.670587381127
      w: 0.741830549568
  covariance: [2.302127419522976, -0.14299060424609872, 0.0, 0.0, 0.0, -1.0439412999666665e-13, -0.14299060424609866, 1.2301630111521067, 0.0, 0.0, 0.0, -9.551040822077224e-13, 0.0, 0.0, 6.720955126311974e-07, 3.266987993655848e-14, -6.112805180099998e-18, 0.0, 0.0, 0.0, 3.266987993655848e-14, 6.720955789399145e-07, 6.093333815260086e-25, 0.0, 0.0, 0.0, -6.112805180099996e-18, 6.093335597942187e-25, 6.720955789399179e-07, 0.0, -1.043941299966666e-13, -9.551040822077229e-13, 0.0, 0.0, 0.0, 7.848603622115868e-08]
twist: 
  twist: 
    linear: 
      x: 6.66823452907e-13
      y: 0.0392144160293
      z: 0.0
    angular: 
      x: 0.0
      y: 0.0
      z: 0.0400000002972
  covariance: [9.999999090905696e-10, 6.204225154869607e-13, 0.0, 0.0, 0.0, -2.4825492998803245e-29, 6.204225154869601e-13, 1.4356702095636562, 0.0, 0.0, 0.0, 4.2685205607910953e-20, 0.0, 0.0, 9.411667887804534e-07, 3.8005407959702474e-27, -3.764767557584098e-26, 0.0, 0.0, 0.0, 3.800540795970243e-27, 6.720955126138402e-07, 2.249289865976465e-33, 0.0, 0.0, 0.0, -3.7647675575840957e-26, 1.9869517910785668e-33, 6.720955126138402e-07, 0.0, -2.482549299880324e-29, 4.268520560791099e-20, 0.0, 0.0, 0.0, 1.5507207640584366e-06]
---
header: 
  seq: 5427
  stamp: 
    secs: 1518210005
    nsecs: 212503910
  frame_id: "swarmone/map"
child_frame_id: "swarmone/base_link"
pose: 
  pose: 
    position: 
      x: 0.556396374902
      y: 4.2337989161
      z: 0.0
    orientation: 
      x: 0.0
      y: 0.0
      z: 0.670587463699
      w: 0.741830474926
  covariance: [2.6096313112207676, -0.17129670551576054, 0.0, 0.0, 0.0, -1.2856813653018335e-16, -0.1712967055157605, 1.3133541632620895, 0.0, 0.0, 0.0, -1.2694328071857881e-15, 0.0, 0.0, 6.820413835031461e-07, 3.306981503994578e-14, -5.580898656540754e-18, 0.0, 0.0, 0.0, 3.306981503994579e-14, 6.820414662331169e-07, 5.805376281272193e-25, 0.0, 0.0, 0.0, -5.580898656540753e-18, 5.805372165694817e-25, 6.820414662331203e-07, 0.0, -1.2856813653018333e-16, -1.2694328071857881e-15, 0.0, 0.0, 0.0, 8.325440780490083e-08]
twist: 
  twist: 
    linear: 
      x: 6.02624415179e-13
      y: 0.0397689721468
      z: 0.0
    angular: 
      x: 0.0
      y: 0.0
      z: 0.0499999990071
  covariance: [9.999999101693202e-10, 5.693796897679187e-13, 0.0, 0.0, 0.0, -2.2549724273250062e-36, 5.693796897679185e-13, 1.5576082910506543, 0.0, 0.0, 0.0, 4.374233442932796e-27, 0.0, 0.0, 9.442924230346345e-07, 3.980868467332375e-27, -3.94268119054247e-26, 0.0, 0.0, 0.0, 3.9808684673323726e-27, 6.820413834852689e-07, 2.2970288541997e-33, 0.0, 0.0, 0.0, -3.9426811905424706e-26, 2.3920316168947095e-33, 6.820413834852689e-07, 0.0, -2.2549724273250066e-36, 4.3742334429328e-27, 0.0, 0.0, 0.0, 1.6460881957015075e-06]
---
header: 
  seq: 5428
  stamp: 
    secs: 1518210005
    nsecs: 312612295
  frame_id: "swarmone/map"
child_frame_id: "swarmone/base_link"
pose: 
  pose: 
    position: 
      x: 0.557480044004
      y: 4.24021464378
      z: 0.0
    orientation: 
      x: 0.0
      y: 0.0
      z: 0.666871591592
      w: 0.745172651355
  covariance: [2.173107528152733, -0.12811310317329122, 0.0, 0.0, 0.0, -4.0029490798966653e-14, -0.12811310317329122, 1.1914257769174257, 0.0, 0.0, 0.0, -3.5210041518819883e-13, 0.0, 0.0, 8.960759101250185e-07, 2.619122766438558e-14, -6.328939672784113e-20, 0.0, 0.0, 0.0, 2.6191227664385584e-14, 8.960759746689716e-07, 2.2405246301090988e-26, 0.0, 0.0, 0.0, -6.328939672784111e-20, 2.2406404931203912e-26, 8.960759746689782e-07, 0.0, -4.002949079896664e-14, -3.521004151881988e-13, 0.0, 0.0, 0.0, 5.231367021832072e-07]
twist: 
  twist: 
    linear: 
      x: 5.40849509617e-09
      y: 0.0373067818776
      z: 0.0
    angular: 
      x: 0.0
      y: 0.0
      z: 0.0499999999995
  covariance: [7.869460811820909e-06, 5.025771759224858e-09, 0.0, 0.0, 0.0, 1.7144864234395666e-27, 5.025771759224851e-09, 1.3818449251387714, 0.0, 0.0, 0.0, -3.9117530004282884e-22, 0.0, 0.0, 9.875994266789142e-07, 1.4403944980835547e-26, -1.2947813236106753e-25, 0.0, 0.0, 0.0, 1.4403944980835555e-26, 8.960759100567989e-07, 2.067418401675603e-32, 0.0, 0.0, 0.0, -1.2947813236106753e-25, 2.0698960427266503e-32, 8.960759100567989e-07, 0.0, 1.714486423439567e-27, -3.9117530004282997e-22, 0.0, 0.0, 0.0, 1.0443733764548459e-05]
---
header: 
  seq: 5429
  stamp: 
    secs: 1518210005
    nsecs: 412031174
  frame_id: "swarmone/map"
child_frame_id: "swarmone/base_link"
pose: 
  pose: 
    position: 
      x: 0.553770891609
      y: 4.24062744528
      z: 0.0
    orientation: 
      x: 0.0
      y: 0.0
      z: 0.666869873244
      w: 0.74517418914
  covariance: [2.4586986310420644, -0.15545748860671993, 0.0, 0.0, 0.0, -4.999777989763806e-16, -0.1554574886067199, 1.2735360961942495, 0.0, 0.0, 0.0, -4.490072199625992e-15, 0.0, 0.0, 6.746420019515922e-07, 3.1457271078981775e-14, -5.6978538535122004e-18, 0.0, 0.0, 0.0, 3.1457271078981775e-14, 6.746420681696449e-07, 5.510919288431976e-25, 0.0, 0.0, 0.0, -5.6978538535122e-18, 5.51090700776851e-25, 6.74642068169648e-07, 0.0, -4.999777989763807e-16, -4.490072199625992e-15, 0.0, 0.0, 0.0, 7.96781290942905e-08]
twist: 
  twist: 
    linear: 
      x: 6.2253297508e-13
      y: 0.0377705795611
      z: 0.0
    angular: 
      x: 0.0
      y: 0.0
      z: 0.0400000010039
  covariance: [9.999999089703794e-10, 5.873714984113831e-13, 0.0, 0.0, 0.0, -2.4181137864831966e-34, 5.87371498411383e-13, 1.4989407815860853, 0.0, 0.0, 0.0, 4.665537350956583e-25, 0.0, 0.0, 9.419806316807261e-07, 4.0575669662893345e-27, -3.653211680500184e-26, 0.0, 0.0, 0.0, 4.057566966289337e-27, 6.746420019340968e-07, 2.22342537967198e-33, 0.0, 0.0, 0.0, -3.653211680500185e-26, 2.181915228605743e-33, 6.746420019340968e-07, 0.0, -2.418113786483196e-34, 4.665537350956597e-25, 0.0, 0.0, 0.0, 1.5745626219698177e-06]
---
header: 
  seq: 5430
  stamp: 
    secs: 1518210005
    nsecs: 511769772
  frame_id: "swarmone/map"
child_frame_id: "swarmone/base_link"
pose: 
  pose: 
    position: 
      x: 0.550003763829
      y: 4.2410467082
      z: 0.0
    orientation: 
      x: 0.0
      y: 0.0
      z: 0.655617752978
      w: 0.755092949232
  covariance: [2.783199359530734, -0.18702845077175956, 0.0, 0.0, 0.0, -1.553697386426388e-16, -0.1870284507717595, 1.3563620263838192, 0.0, 0.0, 0.0, -1.2245518168631932e-15, 0.0, 0.0, 6.820413585027629e-07, 3.179496891162513e-14, -5.166605748794522e-18, 0.0, 0.0, 0.0, 3.179496891162513e-14, 6.820414408319495e-07, 5.167323079447751e-25, 0.0, 0.0, 0.0, -5.166605748794522e-18, 5.167358401332955e-25, 6.820414408319526e-07, 0.0, -1.553697386426388e-16, -1.2245518168631932e-15, 0.0, 0.0, 0.0, 8.325440778512457e-08]
twist: 
  twist: 
    linear: 
      x: 5.63672552238e-13
      y: 0.0382358693794
      z: 0.0
    angular: 
      x: 0.0
      y: 0.0
      z: 0.0499999989963
  covariance: [9.999999092175577e-10, 5.399118915138376e-13, 0.0, 0.0, 0.0, -8.819439338750977e-41, 5.399118915138372e-13, 1.6233201997359445, 0.0, 0.0, 0.0, 1.9172998264645106e-31, 0.0, 0.0, 9.442924229578748e-07, 5.3405028068341614e-27, -3.772346218759935e-26, 0.0, 0.0, 0.0, 5.340502806834161e-27, 6.820413584848853e-07, 2.9685859707629142e-33, 0.0, 0.0, 0.0, -3.7723462187599345e-26, 3.108046020354855e-33, 6.820413584848853e-07, 0.0, -8.819439338750973e-41, 1.917299826464516e-31, 0.0, 0.0, 0.0, 1.6460881957005185e-06]
---
header: 
  seq: 5431
  stamp: 
    secs: 1518210005
    nsecs: 611734390
  frame_id: "swarmone/map"
child_frame_id: "swarmone/base_link"
pose: 
  pose: 
    position: 
      x: 0.550275213083
      y: 4.24677520142
      z: 0.0
    orientation: 
      x: 0.0
      y: 0.0
      z: 0.670587380922
      w: 0.741830549754
  covariance: [2.311488052614332, -0.14537721844925322, 0.0, 0.0, 0.0, -1.2329792491622956e-13, -0.14537721844925314, 1.2335523960008368, 0.0, 0.0, 0.0, -8.85813606634083e-13, 0.0, 0.0, 6.867873944585747e-07, 3.0162529842750076e-14, -5.7502294440098044e-18, 0.0, 0.0, 0.0, 3.016252984275007e-14, 6.867874605435753e-07, 5.540708182644191e-25, 0.0, 0.0, 0.0, -5.750229444009803e-18, 5.540704972577471e-25, 6.867874605435783e-07, 0.0, -1.2329792491622956e-13, -8.85813606634083e-13, 0.0, 0.0, 0.0, 8.563859360312827e-08]
twist: 
  twist: 
    linear: 
      x: 6.26220872676e-13
      y: 0.0363278462841
      z: 0.0
    angular: 
      x: 0.0
      y: 0.0
      z: 0.0400000027401
  covariance: [9.99999909545714e-10, 6.097167539133657e-13, 0.0, 0.0, 0.0, -2.419266714018555e-29, 6.097167539133657e-13, 1.4398410995264423, 0.0, 0.0, 0.0, 8.318139735659873e-20, 0.0, 0.0, 9.457339088971361e-07, 3.6882269139309395e-27, -3.6536628292168334e-26, 0.0, 0.0, 0.0, 3.68822691393094e-27, 6.86787394440228e-07, 2.1635733741035647e-33, 0.0, 0.0, 0.0, -3.6536628292168334e-26, 1.9386374629122117e-33, 6.86787394440228e-07, 0.0, -2.4192667140185553e-29, 8.318139735659883e-20, 0.0, 0.0, 0.0, 1.6937719115198267e-06]
---
header: 
  seq: 5432
  stamp: 
    secs: 1518210005
    nsecs: 712789536
  frame_id: "swarmone/map"
child_frame_id: "swarmone/base_link"
pose: 
  pose: 
    position: 
      x: 0.546602352519
      y: 4.24714684554
      z: 0.0
    orientation: 
      x: 0.0
      y: 0.0
      z: 0.66313578883
      w: 0.748499115278
  covariance: [2.621202566464018, -0.17406554859886333, 0.0, 0.0, 0.0, -1.6047432314641968e-16, -0.17406554859886328, 1.317056716606631, 0.0, 0.0, 0.0, -1.423967947768709e-15, 0.0, 0.0, 7.292486841517046e-07, 2.953159555382748e-14, -5.083656388357937e-18, 0.0, 0.0, 0.0, 2.9531595553827483e-14, 7.292487479958425e-07, 5.545452974802268e-25, 0.0, 0.0, 0.0, -5.083656388357937e-18, 5.545445348758357e-25, 7.292487479958457e-07, 0.0, -1.604743231464197e-16, -1.423967947768709e-15, 0.0, 0.0, 0.0, 1.1067254440805994e-07]
twist: 
  twist: 
    linear: 
      x: 5.6573792773e-13
      y: 0.036733542138
      z: 0.0
    angular: 
      x: 0.0
      y: 0.0
      z: 0.0399999999992
  covariance: [9.999999104849939e-10, 5.593199080069121e-13, 0.0, 0.0, 0.0, -2.1921789853959628e-36, 5.59319908006912e-13, 1.5624263726891594, 0.0, 0.0, 0.0, 8.543893717539307e-27, 0.0, 0.0, 9.57327883688731e-07, 4.937824764759503e-27, -4.0736491409612797e-26, 0.0, 0.0, 0.0, 4.937824764759502e-27, 7.292486841303007e-07, 3.5177731880088004e-33, 0.0, 0.0, 0.0, -4.073649140961279e-26, 3.297945497672921e-33, 7.292486841303007e-07, 0.0, -2.192178985395962e-36, 8.543893717539314e-27, 0.0, 0.0, 0.0, 2.1944509276354144e-06]
---
header: 
  seq: 5433
  stamp: 
    secs: 1518210005
    nsecs: 814717293
  frame_id: "swarmone/map"
child_frame_id: "swarmone/base_link"
pose: 
  pose: 
    position: 
      x: 0.543733990036
      y: 4.25407815526
      z: 0.0
    orientation: 
      x: 0.0
      y: 0.0
      z: 0.666904154269
      w: 0.74514350901
  covariance: [2.179502637963048, -0.1320910745135423, 0.0, 0.0, 0.0, -5.442074313468381e-13, -0.13209107451354218, 1.1944489491032095, 0.0, 0.0, 0.0, -4.764144376693503e-12, 0.0, 0.0, 9.946057077400546e-07, 1.3502142148064125e-15, -1.5557634761032548e-20, 0.0, 0.0, 0.0, 1.3502142148064129e-15, 9.94605711327031e-07, 3.908249596283456e-27, 0.0, 0.0, 0.0, -1.5557634761032545e-20, 3.908264289589336e-27, 9.946057113270316e-07, 0.0, -5.442074313468381e-13, -4.764144376693503e-12, 0.0, 0.0, 0.0, 9.267143549316588e-06]
twist: 
  twist: 
    linear: 
      x: 1.20070181073e-07
      y: 0.0367580999285
      z: 0.0
    angular: 
      x: 0.0
      y: 0.0
      z: 0.0499999990012
  covariance: [0.00018405558470620741, 1.1665855633812227e-07, 0.0, 0.0, 0.0, 6.218168237382547e-25, 1.1665855633812236e-07, 1.3846652641542123, 0.0, 0.0, 0.0, -5.29103905438789e-21, 0.0, 0.0, 9.99456213996687e-07, 7.763843283101046e-28, -6.979558365687078e-27, 0.0, 0.0, 0.0, 7.763843283101053e-28, 9.946057076470968e-07, 1.1300831191121633e-33, 0.0, 0.0, 0.0, -6.979558365687081e-27, 1.1281358995313904e-33, 9.946057076470968e-07, 0.0, 6.218168237382551e-25, -5.291039054387884e-21, 0.0, 0.0, 0.0, 0.00018532376153554463]
---
header: 
  seq: 5434
  stamp: 
    secs: 1518210005
    nsecs: 912775993
  frame_id: "swarmone/map"
child_frame_id: "swarmone/base_link"
pose: 
  pose: 
    position: 
      x: 0.540132896668
      y: 4.25447891621
      z: 0.0
    orientation: 
      x: 0.0
      y: 0.0
      z: 0.666869880325
      w: 0.745174182802
  covariance: [2.4616449253345323, -0.15944485544052167, 0.0, 0.0, 0.0, -7.473769880489673e-15, -0.15944485544052162, 1.2755174455901825, 0.0, 0.0, 0.0, -6.717924980240359e-14, 0.0, 0.0, 6.79612545740626e-07, 3.0905717738249545e-14, -5.435073893206699e-18, 0.0, 0.0, 0.0, 3.090571773824955e-14, 6.796126118970247e-07, 5.24510646629032e-25, 0.0, 0.0, 0.0, -5.435073893206698e-18, 5.245108971049443e-25, 6.796126118970277e-07, 0.0, -7.473769880489671e-15, -6.717924980240354e-14, 0.0, 0.0, 0.0, 8.206231489970017e-08]
twist: 
  twist: 
    linear: 
      x: 5.91669214606e-13
      y: 0.0371430464635
      z: 0.0
    angular: 
      x: 0.0
      y: 0.0
      z: 0.040000000983
  covariance: [9.999999093825087e-10, 5.834674142679887e-13, 0.0, 0.0, 0.0, -5.723150905472171e-32, 5.834674142679888e-13, 1.5002636080512104, 0.0, 0.0, 0.0, 1.0126128413272222e-22, 0.0, 0.0, 9.435425709816694e-07, 4.055135643938454e-27, -3.6508476625103874e-26, 0.0, 0.0, 0.0, 4.0551356439384554e-27, 6.796125457227661e-07, 2.3370358231292508e-33, 0.0, 0.0, 0.0, -3.650847662510389e-26, 2.1412659040361156e-33, 6.796125457227661e-07, 0.0, -5.723150905472171e-32, 1.0126128413272219e-22, 0.0, 0.0, 0.0, 1.6222463377905142e-06]
---
header: 
  seq: 5435
  stamp: 
    secs: 1518210006
    nsecs:  11743307
  frame_id: "swarmone/map"
child_frame_id: "swarmone/base_link"
pose: 
  pose: 
    position: 
      x: 0.536460393608
      y: 4.2548875937
      z: 0.0
    orientation: 
      x: 0.0
      y: 0.0
      z: 0.67058738811
      w: 0.741830543256
  covariance: [2.783728007099169, -0.19114216706961878, 0.0, 0.0, 0.0, -1.2822680495588488e-16, -0.19114216706961873, 1.357783980236334, 0.0, 0.0, 0.0, -1.205524634115057e-15, 0.0, 0.0, 6.771464100600714e-07, 3.124496233786771e-14, -4.8766066782258435e-18, 0.0, 0.0, 0.0, 3.1244962337867716e-14, 6.771464763194546e-07, 4.720337694163169e-25, 0.0, 0.0, 0.0, -4.876606678225845e-18, 4.720341005975812e-25, 6.771464763194577e-07, 0.0, -1.2822680495588485e-16, -1.2055246341150573e-15, 0.0, 0.0, 0.0, 8.087022197848726e-08]
twist: 
  twist: 
    linear: 
      x: 5.36124145634e-13
      y: 0.0375315605642
      z: 0.0
    angular: 
      x: 0.0
      y: 0.0
      z: 0.0400000000002
  covariance: [9.999999084419247e-10, 5.365659926767068e-13, 0.0, 0.0, 0.0, -6.174175441000841e-39, 5.365659926767069e-13, 1.6237163541488668, 0.0, 0.0, 0.0, 1.2280689021268866e-29, 0.0, 0.0, 9.427722570226166e-07, 3.6996265894756235e-27, -3.6636893538799723e-26, 0.0, 0.0, 0.0, 3.699626589475622e-27, 6.771464100425258e-07, 1.9134437940334632e-33, 0.0, 0.0, 0.0, -3.6636893538799723e-26, 2.0671936874939772e-33, 6.771464100425258e-07, 0.0, -6.174175441000844e-39, 1.2280689021268859e-29, 0.0, 0.0, 0.0, 1.5984044798794257e-06]
---
header: 
  seq: 5436
  stamp: 
    secs: 1518210006
    nsecs: 112482548
  frame_id: "swarmone/map"
child_frame_id: "swarmone/base_link"
pose: 
  pose: 
    position: 
      x: 0.533528392818
      y: 4.26084500985
      z: 0.0
    orientation: 
      x: 0.0
      y: 0.0
      z: 0.670587413259
      w: 0.741830520522
  covariance: [2.310558887584154, -0.14281179666627786, 0.0, 0.0, 0.0, -9.181252269505948e-14, -0.1428117966662778, 1.2330219301059595, 0.0, 0.0, 0.0, -9.261437395512836e-13, 0.0, 0.0, 6.891089863969748e-07, 3.113943515309199e-14, -5.549308905428961e-18, 0.0, 0.0, 0.0, 3.1139435153091984e-14, 6.891090524218832e-07, 5.560603220499679e-25, 0.0, 0.0, 0.0, -5.549308905428962e-18, 5.560594797767204e-25, 6.891090524218864e-07, 0.0, -9.181252269505946e-14, -9.261437395512838e-13, 0.0, 0.0, 0.0, 8.683068651374714e-08]
twist: 
  twist: 
    linear: 
      x: 5.99803956401e-13
      y: 0.0375379872806
      z: 0.0
    angular: 
      x: 0.0
      y: 0.0
      z: 0.0399999998013
  covariance: [9.9999991030596e-10, 6.083820641040119e-13, 0.0, 0.0, 0.0, -2.348900819833345e-29, 6.083820641040119e-13, 1.4392918236876464, 0.0, 0.0, 0.0, 2.711177389523412e-20, 0.0, 0.0, 9.464270382259855e-07, 3.837493887051975e-27, -3.8010407024432263e-26, 0.0, 0.0, 0.0, 3.837493887051976e-27, 6.891089863784652e-07, 2.217953412066299e-33, 0.0, 0.0, 0.0, -3.801040702443227e-26, 2.2616309103212624e-33, 6.891089863784652e-07, 0.0, -2.3489008198333444e-29, 2.7111773895234214e-20, 0.0, 0.0, 0.0, 1.7176137694307442e-06]
---
header: 
  seq: 5437
  stamp: 
    secs: 1518210006
    nsecs: 212641239
  frame_id: "swarmone/map"
child_frame_id: "swarmone/base_link"
pose: 
  pose: 
    position: 
      x: 0.529768603357
      y: 4.26122540763
      z: 0.0
    orientation: 
      x: 0.0
      y: 0.0
      z: 0.670587395606
      w: 0.74183053648
  covariance: [2.617093506512103, -0.17094556909378786, 0.0, 0.0, 0.0, -1.2720357919648415e-16, -0.17094556909378777, 1.315728944656671, 0.0, 0.0, 0.0, -1.2562807663559174e-15, 0.0, 0.0, 6.771464413850653e-07, 3.1569957847100505e-14, -4.996467034602051e-18, 0.0, 0.0, 0.0, 3.15699578471005e-14, 6.771465076444964e-07, 4.886608922309017e-25, 0.0, 0.0, 0.0, -4.9964670346020496e-18, 4.8866061112439795e-25, 6.771465076444994e-07, 0.0, -1.2720357919648418e-16, -1.2562807663559176e-15, 0.0, 0.0, 0.0, 8.087022200254782e-08]
twist: 
  twist: 
    linear: 
      x: 5.42322203347e-13
      y: 0.0379219279679
      z: 0.0
    angular: 
      x: 0.0
      y: 0.0
      z: 0.0399999999999
  covariance: [9.999999096060925e-10, 5.584413111391749e-13, 0.0, 0.0, 0.0, -2.1493250979473545e-36, 5.584413111391754e-13, 1.5607182061092362, 0.0, 0.0, 0.0, 2.7859192616093384e-27, 0.0, 0.0, 9.427722571210516e-07, 3.7380514769169704e-27, -3.701804894330543e-26, 0.0, 0.0, 0.0, 3.73805147691697e-27, 6.771464413675116e-07, 1.9582987633265492e-33, 0.0, 0.0, 0.0, -3.70180489433054e-26, 2.0825077684994622e-33, 6.771464413675116e-07, 0.0, -2.1493250979473542e-36, 2.7859192616093484e-27, 0.0, 0.0, 0.0, 1.5984044798806285e-06]
---
header: 
  seq: 5438
  stamp: 
    secs: 1518210006
    nsecs: 313369513
  frame_id: "swarmone/map"
child_frame_id: "swarmone/base_link"
pose: 
  pose: 
    position: 
      x: 0.526767189138
      y: 4.26641899836
      z: 0.0
    orientation: 
      x: 0.0
      y: 0.0
      z: 0.666884200387
      w: 0.745161367272
  covariance: [2.1727240843242557, -0.1273150759899186, 0.0, 0.0, 0.0, -2.4901205631445864e-13, -0.12731507598991854, 1.1917018308259735, 0.0, 0.0, 0.0, -2.191470000631558e-12, 0.0, 0.0, 9.871927397935666e-07, 3.3238732777715972e-15, -1.6398929453298525e-20, 0.0, 0.0, 0.0, 3.3238732777715972e-15, 9.871927483923529e-07, 4.33409558954261e-27, 0.0, 0.0, 0.0, -1.6398929453298537e-20, 4.334029339501383e-27, 9.871927483923537e-07, 0.0, -2.4901205631445864e-13, -2.1914700006315574e-12, 0.0, 0.0, 0.0, 3.907489432801647e-06]
twist: 
  twist: 
    linear: 
      x: 4.55285394457e-08
      y: 0.0379085379317
      z: 0.0
    angular: 
      x: 0.0
      y: 0.0
      z: 0.0499999989992
  covariance: [7.645135445070764e-05, 4.808675112007298e-08, 0.0, 0.0, 0.0, 1.1854820191291959e-25, 4.808675112007295e-08, 1.3821260657864225, 0.0, 0.0, 0.0, -2.7214027364641284e-21, 0.0, 0.0, 9.986942446216074e-07, 1.938666528885601e-27, -1.7427029157073572e-26, 0.0, 0.0, 0.0, 1.938666528885602e-27, 9.871927397023043e-07, 2.953824261510426e-33, 0.0, 0.0, 0.0, -1.7427029157073578e-26, 2.965588125969974e-33, 9.871927397023043e-07, 0.0, 1.1854820191291959e-25, -2.7214027364641337e-21, 0.0, 0.0, 0.0, 7.8130768371482e-05]
---
header: 
  seq: 5439
  stamp: 
    secs: 1518210006
    nsecs: 412366867
  frame_id: "swarmone/map"
child_frame_id: "swarmone/base_link"
pose: 
  pose: 
    position: 
      x: 0.523019188431
      y: 4.2668360989
      z: 0.0
    orientation: 
      x: 0.0
      y: 0.0
      z: 0.666869873234
      w: 0.745174189148
  covariance: [2.456806665593187, -0.15443766734276718, 0.0, 0.0, 0.0, -3.3293415994125734e-15, -0.1544376673427671, 1.2734449257826952, 0.0, 0.0, 0.0, -2.991468560455957e-14, 0.0, 0.0, 6.746419906415695e-07, 3.188007884053109e-14, -4.954251867109947e-18, 0.0, 0.0, 0.0, 3.188007884053109e-14, 6.746420568600755e-07, 4.856783018269475e-25, 0.0, 0.0, 0.0, -4.95425186710995e-18, 4.85678264609047e-25, 6.746420568600787e-07, 0.0, -3.329341599412573e-15, -2.991468560455957e-14, 0.0, 0.0, 0.0, 7.967812910206715e-08]
twist: 
  twist: 
    linear: 
      x: 5.39643771665e-13
      y: 0.0382781229336
      z: 0.0
    angular: 
      x: 0.0
      y: 0.0
      z: 0.0400000009946
  covariance: [9.999999092388793e-10, 5.786270735661693e-13, 0.0, 0.0, 0.0, -1.1251674201313526e-32, 5.786270735661689e-13, 1.498720027165625, 0.0, 0.0, 0.0, 2.2109461914044383e-23, 0.0, 0.0, 9.419806316446741e-07, 4.1131637831541836e-27, -3.7024003826865144e-26, 0.0, 0.0, 0.0, 4.1131637831541836e-27, 6.746419906240433e-07, 2.259313848515834e-33, 0.0, 0.0, 0.0, -3.702400382686514e-26, 2.214461696295439e-33, 6.746419906240433e-07, 0.0, -1.1251674201313525e-32, 2.2109461914044415e-23, 0.0, 0.0, 0.0, 1.5745626219700738e-06]
---
header: 
  seq: 5440
  stamp: 
    secs: 1518210006
    nsecs: 512291193
  frame_id: "swarmone/map"
child_frame_id: "swarmone/base_link"
pose: 
  pose: 
    position: 
      x: 0.519199213634
      y: 4.26726117601
      z: 0.0
    orientation: 
      x: 0.0
      y: 0.0
      z: 0.670587384645
      w: 0.741830546389
  covariance: [2.781553147653865, -0.18595519277974154, 0.0, 0.0, 0.0, -1.2909535452748153e-16, -0.18595519277974146, 1.3564046364552367, 0.0, 0.0, 0.0, -1.2142401459542864e-15, 0.0, 0.0, 6.746420153580232e-07, 3.2190451683295e-14, -4.4929330520140455e-18, 0.0, 0.0, 0.0, 3.219045168329501e-14, 6.746420816450248e-07, 4.446161150400607e-25, 0.0, 0.0, 0.0, -4.492933052014046e-18, 4.4461561818273335e-25, 6.74642081645028e-07, 0.0, -1.2909535452748153e-16, -1.2142401459542864e-15, 0.0, 0.0, 0.0, 7.967812910231958e-08]
twist: 
  twist: 
    linear: 
      x: 4.88539823491e-13
      y: 0.038651169134
      z: 0.0
    angular: 
      x: 0.0
      y: 0.0
      z: 0.0400000000002
  covariance: [9.999999094012059e-10, 5.317458140490158e-13, 0.0, 0.0, 0.0, -1.4333231630971317e-39, 5.317458140490154e-13, 1.623317537778136, 0.0, 0.0, 0.0, 3.17490373167603e-30, 0.0, 0.0, 9.419806317235518e-07, 3.779524373900236e-27, -3.742192877503158e-26, 0.0, 0.0, 0.0, 3.779524373900232e-27, 6.746420153406497e-07, 1.904286520703843e-33, 0.0, 0.0, 0.0, -3.7421928775031563e-26, 2.27099528838598e-33, 6.746420153406497e-07, 0.0, -1.433323163097132e-39, 3.1749037316760344e-30, 0.0, 0.0, 0.0, 1.5745626219702368e-06]
---
header: 
  seq: 5441
  stamp: 
    secs: 1518210006
    nsecs: 612746239
  frame_id: "swarmone/map"
child_frame_id: "swarmone/base_link"
pose: 
  pose: 
    position: 
      x: 0.518654533288
      y: 4.27146973606
      z: 0.0
    orientation: 
      x: 0.0
      y: 0.0
      z: 0.666869956377
      w: 0.745174114743
  covariance: [2.3081413607388295, -0.13919668932455703, 0.0, 0.0, 0.0, -9.060190037298093e-14, -0.13919668932455706, 1.2317419279826303, 0.0, 0.0, 0.0, -9.13605053057125e-13, 0.0, 0.0, 6.844309411462152e-07, 3.080640099025637e-14, -4.868277601794025e-18, 0.0, 0.0, 0.0, 3.080640099025637e-14, 6.84431023729656e-07, 4.754691267306611e-25, 0.0, 0.0, 0.0, -4.8682776017940264e-18, 4.754690119385855e-25, 6.84431023729659e-07, 0.0, -9.060190037298093e-14, -9.13605053057125e-13, 0.0, 0.0, 0.0, 8.444650071798535e-08]
twist: 
  twist: 
    linear: 
      x: 5.26802426077e-13
      y: 0.0370733637658
      z: 0.0
    angular: 
      x: 0.0
      y: 0.0
      z: 0.0499999983
  covariance: [9.999999100305232e-10, 6.027689736596129e-13, 0.0, 0.0, 0.0, -2.3384021975881085e-29, 6.027689736596129e-13, 1.439099802560863, 0.0, 0.0, 0.0, 3.01022780987599e-20, 0.0, 0.0, 9.450226092220815e-07, 4.1088073085926615e-27, -3.698564430816299e-26, 0.0, 0.0, 0.0, 4.1088073085926615e-27, 6.844309411280304e-07, 2.449865875024608e-33, 0.0, 0.0, 0.0, -3.6985644308162987e-26, 2.2557368076496955e-33, 6.844309411280304e-07, 0.0, -2.3384021975881094e-29, 3.010227809875992e-20, 0.0, 0.0, 0.0, 1.6699300536101508e-06]
---
header: 
  seq: 5442
  stamp: 
    secs: 1518210006
    nsecs: 712747812
  frame_id: "swarmone/map"
child_frame_id: "swarmone/base_link"
pose: 
  pose: 
    position: 
      x: 0.514954001833
      y: 4.27188154632
      z: 0.0
    orientation: 
      x: 0.0
      y: 0.0
      z: 0.666869922991
      w: 0.74517414462
  covariance: [2.6135713258563813, -0.16851862734669992, 0.0, 0.0, 0.0, -1.4870050721430033e-16, -0.16851862734669995, 1.3145129618160893, 0.0, 0.0, 0.0, -1.3355042709169693e-15, 0.0, 0.0, 7.065145233854839e-07, 3.07149202157846e-14, -4.324071387930578e-18, 0.0, 0.0, 0.0, 3.071492021578461e-14, 7.065145886930693e-07, 4.526246145531998e-25, 0.0, 0.0, 0.0, -4.324071387930579e-18, 4.526254505903441e-25, 7.065145886930725e-07, 0.0, -1.487005072143003e-16, -1.335504270916969e-15, 0.0, 0.0, 0.0, 9.636742964104736e-08]
twist: 
  twist: 
    linear: 
      x: 4.76398028014e-13
      y: 0.0373929804291
      z: 0.0
    angular: 
      x: 0.0
      y: 0.0
      z: 0.0400000009998
  covariance: [9.99999909451299e-10, 5.534580214304747e-13, 0.0, 0.0, 0.0, -2.1427531204621766e-36, 5.534580214304747e-13, 1.5603301625553234, 0.0, 0.0, 0.0, 3.1033080496035568e-27, 0.0, 0.0, 9.513937450571104e-07, 4.400178057344066e-27, -3.960222204690638e-26, 0.0, 0.0, 0.0, 4.400178057344066e-27, 7.065145233658389e-07, 2.7271906212164617e-33, 0.0, 0.0, 0.0, -3.960222204690639e-26, 2.820916550209217e-33, 7.065145233658389e-07, 0.0, -2.1427531204621766e-36, 3.1033080496035582e-27, 0.0, 0.0, 0.0, 1.9083486327124994e-06]
---
header: 
  seq: 5443
  stamp: 
    secs: 1518210006
    nsecs: 814494848
  frame_id: "swarmone/map"
child_frame_id: "swarmone/base_link"
pose: 
  pose: 
    position: 
      x: 0.513685997383
      y: 4.27563643076
      z: 0.0
    orientation: 
      x: 0.0
      y: 0.0
      z: 0.666898980358
      w: 0.745148139632
  covariance: [2.171229642065398, -0.126905850636633, 0.0, 0.0, 0.0, -5.501025923287179e-13, -0.12690585063663307, 1.1912715470120785, 0.0, 0.0, 0.0, -4.842649893808913e-12, 0.0, 0.0, 9.949246230926286e-07, 1.2716209202790224e-15, -1.2508397380806916e-20, 0.0, 0.0, 0.0, 1.2716209202790224e-15, 9.949246257464809e-07, 3.144322014572086e-27, 0.0, 0.0, 0.0, -1.2508397380806913e-20, 3.1443298198550318e-27, 9.949246257464809e-07, 0.0, -5.50102592328718e-13, -4.842649893808912e-12, 0.0, 0.0, 0.0, 9.845308956584557e-06]
twist: 
  twist: 
    linear: 
      x: 9.9451536696e-08
      y: 0.0362229255935
      z: 0.0
    angular: 
      x: 0.0
      y: 0.0
      z: 0.0399999999998
  covariance: [0.00019576042635718134, 1.234286692972528e-07, 0.0, 0.0, 0.0, 6.752542044575229e-25, 1.2342866929725288e-07, 1.3825126613954726, 0.0, 0.0, 0.0, -6.038594517807475e-21, 0.0, 0.0, 9.994886328632547e-07, 7.133321592302972e-28, -6.41260027906432e-27, 0.0, 0.0, 0.0, 7.133321592302969e-28, 9.949246229998938e-07, 1.0186334091109817e-33, 0.0, 0.0, 0.0, -6.412600279064319e-27, 1.0195604056263171e-33, 9.949246229998938e-07, 0.0, 6.752542044575229e-25, -6.0385945178074626e-21, 0.0, 0.0, 0.0, 0.00019688706262197014]
---
header: 
  seq: 5444
  stamp: 
    secs: 1518210006
    nsecs: 912618399
  frame_id: "swarmone/map"
child_frame_id: "swarmone/base_link"
pose: 
  pose: 
    position: 
      x: 0.510140178269
      y: 4.27603101456
      z: 0.0
    orientation: 
      x: 0.0
      y: 0.0
      z: 0.666869883149
      w: 0.745174180275
  covariance: [2.452546606793595, -0.15374676484347397, 0.0, 0.0, 0.0, -7.798891428444877e-15, -0.15374676484347405, 1.272288056680261, 0.0, 0.0, 0.0, -7.010491587975758e-14, 0.0, 0.0, 6.820413168739909e-07, 3.034827605697323e-14, -4.238631696969768e-18, 0.0, 0.0, 0.0, 3.0348276056973225e-14, 6.820413829887949e-07, 4.0473673510960623e-25, 0.0, 0.0, 0.0, -4.238631696969767e-18, 4.0473656369961917e-25, 6.820413829887979e-07, 0.0, -7.798891428444877e-15, -7.010491587975759e-14, 0.0, 0.0, 0.0, 8.325440779923041e-08]
twist: 
  twist: 
    linear: 
      x: 4.6074405955e-13
      y: 0.0364957460346
      z: 0.0
    angular: 
      x: 0.0
      y: 0.0
      z: 0.0399999999846
  covariance: [9.999999095618717e-10, 5.805649870313167e-13, 0.0, 0.0, 0.0, -6.167986576607133e-32, 5.805649870313173e-13, 1.498078445043279, 0.0, 0.0, 0.0, 1.2149616387038787e-22, 0.0, 0.0, 9.44292422829809e-07, 4.01614648234145e-27, -3.614552645934547e-26, 0.0, 0.0, 0.0, 4.0161464823414486e-27, 6.820413168559668e-07, 2.2116134198955657e-33, 0.0, 0.0, 0.0, -3.614552645934547e-26, 2.1335511954777774e-33, 6.820413168559668e-07, 0.0, -6.167986576607133e-32, 1.2149616387038766e-22, 0.0, 0.0, 0.0, 1.6460881957008497e-06]
---
header: 
  seq: 5445
  stamp: 
    secs: 1518210007
    nsecs:  12485743
  frame_id: "swarmone/map"
child_frame_id: "swarmone/base_link"
pose: 
  pose: 
    position: 
      x: 0.506504022982
      y: 4.27643562573
      z: 0.0
    orientation: 
      x: 0.0
      y: 0.0
      z: 0.670587391715
      w: 0.741830539997
  covariance: [2.7766524262389134, -0.1851881775618311, 0.0, 0.0, 0.0, -1.2755287510195793e-16, -0.18518817756183117, 1.3551931041702894, 0.0, 0.0, 0.0, -1.199423990264194e-15, 0.0, 0.0, 6.796125930564543e-07, 3.0597871178196745e-14, -3.830515965955361e-18, 0.0, 0.0, 0.0, 3.059787117819675e-14, 6.796126592813291e-07, 3.659048562191912e-25, 0.0, 0.0, 0.0, -3.8305159659553615e-18, 3.659052421519573e-25, 6.796126592813319e-07, 0.0, -1.2755287510195795e-16, -1.1994239902641936e-15, 0.0, 0.0, 0.0, 8.206231489221607e-08]
twist: 
  twist: 
    linear: 
      x: 4.17139027889e-13
      y: 0.0367734153879
      z: 0.0
    angular: 
      x: 0.0
      y: 0.0
      z: 0.0400000000002
  covariance: [9.999999093433181e-10, 5.336721141605534e-13, 0.0, 0.0, 0.0, -6.544881719867323e-39, 5.336721141605539e-13, 1.6225741763384796, 0.0, 0.0, 0.0, 1.4529981113502712e-29, 0.0, 0.0, 9.435425711288805e-07, 3.6547228728336194e-27, -3.61810393205789e-26, 0.0, 0.0, 0.0, 3.654722872833618e-27, 6.796125930387391e-07, 1.8483388683382667e-33, 0.0, 0.0, 0.0, -3.6181039320578904e-26, 2.0935522153622613e-33, 6.796125930387391e-07, 0.0, -6.544881719867326e-39, 1.4529981113502693e-29, 0.0, 0.0, 0.0, 1.6222463377904926e-06]
---
header: 
  seq: 5446
  stamp: 
    secs: 1518210007
    nsecs: 112242699
  frame_id: "swarmone/map"
child_frame_id: "swarmone/base_link"
pose: 
  pose: 
    position: 
      x: 0.507309239966
      y: 4.2794063215
      z: 0.0
    orientation: 
      x: 0.0
      y: 0.0
      z: 0.663135696021
      w: 0.748499197503
