header: 
  seq: 1902
  stamp: 
    secs: 1518209652
    nsecs: 712610483
  frame_id: "swarmone/map"
child_frame_id: "swarmone/base_link"
pose: 
  pose: 
    position: 
      x: 0.447579594729
      y: 1.68567589363
      z: 0.0
    orientation: 
      x: 0.0
      y: 0.0
      z: 0.659384982695
      w: 0.751805456615
  covariance: [2.910717934309277, -0.2304187256801925, 0.0, 0.0, 0.0, 2.383694705813104e-16, -0.23041872568019256, 1.4101990904874495, 0.0, 0.0, 0.0, 1.883037363606064e-15, 0.0, 0.0, 6.771464495806435e-07, -4.9509947559079164e-14, 6.903754257468046e-18, 0.0, 0.0, 0.0, -4.9509947559079164e-14, 6.771465321165674e-07, 1.0589301237391068e-24, 0.0, 0.0, 0.0, 6.903754257468046e-18, 1.0589282986580344e-24, 6.77146532116575e-07, 0.0, 2.383694705813104e-16, 1.883037363606064e-15, 0.0, 0.0, 0.0, 8.087022200880603e-08]
twist: 
  twist: 
    linear: 
      x: -7.46520693976e-13
      y: -0.0594714874089
      z: 0.0
    angular: 
      x: 0.0
      y: 0.0
      z: 0.0499999990043
  covariance: [9.999999099139716e-10, 6.148472372387666e-13, 0.0, 0.0, 0.0, 2.6657747800423688e-36, 6.148472372387669e-13, 1.6616744345601038, 0.0, 0.0, 0.0, -6.398095689965416e-27, 0.0, 0.0, 9.427722571468186e-07, -7.60207115660124e-27, 5.785182139651518e-26, 0.0, 0.0, 0.0, -7.602071156601238e-27, 6.771464495630743e-07, 6.625549373995359e-33, 0.0, 0.0, 0.0, 5.785182139651516e-26, 6.380938338896344e-33, 6.771464495630743e-07, 0.0, 2.665774780042367e-36, -6.398095689965427e-27, 0.0, 0.0, 0.0, 1.5984044798809416e-06]
---
header: 
  seq: 1903
  stamp: 
    secs: 1518209652
    nsecs: 812125921
  frame_id: "swarmone/map"
child_frame_id: "swarmone/base_link"
pose: 
  pose: 
    position: 
      x: 0.454166719767
      y: 1.67742174217
      z: 0.0
    orientation: 
      x: 0.0
      y: 0.0
      z: 0.655617676459
      w: 0.755093015671
  covariance: [2.428220890276168, -0.17516187791337756, 0.0, 0.0, 0.0, 3.978409923716219e-14, -0.17516187791337762, 1.2847605170582441, 0.0, 0.0, 0.0, 3.13305234023247e-13, 0.0, 0.0, 6.819981044558239e-07, -5.021567434390542e-14, 7.541370549154386e-18, 0.0, 0.0, 0.0, -5.0215674343905435e-14, 6.819981703250872e-07, 1.1938565132443617e-24, 0.0, 0.0, 0.0, 7.541370549154387e-18, 1.1938585168585628e-24, 6.819981703250952e-07, 0.0, 3.978409923716217e-14, 3.1330523402324703e-13, 0.0, 0.0, 0.0, 8.325440778069114e-08]
twist: 
  twist: 
    linear: 
      x: -8.25003622682e-13
      y: -0.0603914626036
      z: 0.0
    angular: 
      x: 0.0
      y: 0.0
      z: 0.0400000008484
  covariance: [9.999999089774258e-10, 6.9396715308918e-13, 0.0, 0.0, 0.0, 1.3027048043710018e-29, 6.939671530891801e-13, 1.475840950659124, 0.0, 0.0, 0.0, -2.6876329907232014e-20, 0.0, 0.0, 9.442922898576387e-07, -8.430926221848385e-27, 5.954844293746178e-26, 0.0, 0.0, 0.0, -8.430926221848389e-27, 6.81998104437777e-07, 7.958463196599658e-33, 0.0, 0.0, 0.0, 5.954844293746181e-26, 7.726274907213015e-33, 6.81998104437777e-07, 0.0, 1.302704804371002e-29, -2.687632990723202e-20, 0.0, 0.0, 0.0, 1.6460881957002392e-06]
---
header: 
  seq: 1904
  stamp: 
    secs: 1518209652
    nsecs: 912602425
  frame_id: "swarmone/map"
child_frame_id: "swarmone/base_link"
pose: 
  pose: 
    position: 
      x: 0.460189984893
      y: 1.67656789511
      z: 0.0
    orientation: 
      x: 0.0
      y: 0.0
      z: 0.65938544183
      w: 0.751805053922
  covariance: [2.7427710436705497, -0.2128137070937962, 0.0, 0.0, 0.0, 5.497221624369542e-16, -0.21281370709379624, 1.369526308192027, 0.0, 0.0, 0.0, 4.097838639274887e-15, 0.0, 0.0, 8.496199087251658e-07, -3.534465818833643e-14, 4.832670926447816e-18, 0.0, 0.0, 0.0, -3.534465818833644e-14, 8.496199549068275e-07, 1.1359104612530068e-24, 0.0, 0.0, 0.0, 4.832670926447818e-18, 1.1359100454309598e-24, 8.496199549068359e-07, 0.0, 5.497221624369541e-16, 4.0978386392748875e-15, 0.0, 0.0, 0.0, 2.5849206344120363e-07]
twist: 
  twist: 
    linear: 
      x: -7.46263292522e-13
      y: -0.0607012699787
      z: 0.0
    angular: 
      x: 0.0
      y: 0.0
      z: 0.0400000000002
  covariance: [9.999999099290702e-10, 6.372638587060931e-13, 0.0, 0.0, 0.0, 1.2471855831930958e-36, 6.372638587060932e-13, 1.5992909627107637, 0.0, 0.0, 0.0, -2.901400405073784e-27, 0.0, 0.0, 9.811315096297665e-07, -8.662213562647619e-27, 6.591869164863643e-26, 0.0, 0.0, 0.0, -8.662213562647623e-27, 8.496199086925685e-07, 1.683616697655934e-32, 0.0, 0.0, 0.0, 6.591869164863644e-26, 1.528709057346024e-32, 8.496199086925685e-07, 0.0, 1.2471855831930961e-36, -2.9014004050737846e-27, 0.0, 0.0, 0.0, 5.15084130849419e-06]
---
header: 
  seq: 1905
  stamp: 
    secs: 1518209653
    nsecs:  12025595
  frame_id: "swarmone/map"
child_frame_id: "swarmone/base_link"
pose: 
  pose: 
    position: 
      x: 0.466188631639
      y: 1.67577859966
      z: 0.0
    orientation: 
      x: 0.0
      y: 0.0
      z: 0.655617664946
      w: 0.755093025667
  covariance: [3.0948445198927517, -0.25382984566077116, 0.0, 0.0, 0.0, 5.450855043009983e-16, -0.2538298456607712, 1.4537926695198837, 0.0, 0.0, 0.0, 4.067725620510248e-15, 0.0, 0.0, 6.74642002054071e-07, -5.0810398020167536e-14, 6.184005740836983e-18, 0.0, 0.0, 0.0, -5.081039802016756e-14, 6.746420680206348e-07, 9.661547132896348e-25, 0.0, 0.0, 0.0, 6.184005740836985e-18, 9.661551158172764e-25, 6.746420680206426e-07, 0.0, 5.450855043009983e-16, 4.067725620510247e-15, 0.0, 0.0, 0.0, 7.967812909309681e-08]
twist: 
  twist: 
    linear: 
      x: -6.75964882349e-13
      y: -0.0610078303258
      z: 0.0
    angular: 
      x: 0.0
      y: 0.0
      z: 0.0399999999986
  covariance: [9.99999908894078e-10, 5.857755781800455e-13, 0.0, 0.0, 0.0, 5.351124056793929e-43, 5.857755781800454e-13, 1.7285005287494937, 0.0, 0.0, 0.0, -1.4009546741224707e-33, 0.0, 0.0, 9.41980631681091e-07, -8.324327220357038e-27, 5.87834129095595e-26, 0.0, 0.0, 0.0, -8.324327220357043e-27, 6.746420020365627e-07, 7.177310347938134e-33, 0.0, 0.0, 0.0, 5.878341290955953e-26, 7.255696130715659e-33, 6.746420020365627e-07, 0.0, 5.351124056793931e-43, -1.4009546741224714e-33, 0.0, 0.0, 0.0, 1.5745626219697686e-06]
---
header: 
  seq: 1906
  stamp: 
    secs: 1518209653
    nsecs: 112791300
  frame_id: "swarmone/map"
child_frame_id: "swarmone/base_link"
pose: 
  pose: 
    position: 
      x: 0.473448396858
      y: 1.66839278575
      z: 0.0
    orientation: 
      x: 0.0
      y: 0.0
      z: 0.655617716904
      w: 0.755092980554
  covariance: [2.5857685204853955, -0.19582918780330152, 0.0, 0.0, 0.0, 2.1214430151468259e-13, -0.19582918780330144, 1.3291354178697838, 0.0, 0.0, 0.0, 1.5157364214913502e-12, 0.0, 0.0, 6.746398417950152e-07, -5.179585971588405e-14, 6.808524809481011e-18, 0.0, 0.0, 0.0, -5.179585971588403e-14, 6.746399242534138e-07, 1.0846299139493443e-24, 0.0, 0.0, 0.0, 6.808524809481012e-18, 1.084630999541001e-24, 6.746399242534219e-07, 0.0, 2.1214430151468269e-13, 1.5157364214913502e-12, 0.0, 0.0, 0.0, 7.967812914820133e-08]
twist: 
  twist: 
    linear: 
      x: -7.32315038349e-13
      y: -0.0621908660012
      z: 0.0
    angular: 
      x: 0.0
      y: 0.0
      z: 0.0499999987983
  covariance: [9.99999910340604e-10, 6.641932697454164e-13, 0.0, 0.0, 0.0, 2.8344207287234596e-29, 6.641932697454158e-13, 1.538643627740942, 0.0, 0.0, 0.0, -7.735067682540196e-20, 0.0, 0.0, 9.419806248088276e-07, -8.485329964879211e-27, 5.992468554270866e-26, 0.0, 0.0, 0.0, -8.485329964879211e-27, 6.746398417774575e-07, 7.518311128357319e-33, 0.0, 0.0, 0.0, 5.992468554270866e-26, 7.525900855480069e-33, 6.746398417774575e-07, 0.0, 2.8344207287234596e-29, -7.735067682540214e-20, 0.0, 0.0, 0.0, 1.5745626219698504e-06]
---
header: 
  seq: 1907
  stamp: 
    secs: 1518209653
    nsecs: 212361574
  frame_id: "swarmone/map"
child_frame_id: "swarmone/base_link"
pose: 
  pose: 
    position: 
      x: 0.479595881414
      y: 1.66752133704
      z: 0.0
    orientation: 
      x: 0.0
      y: 0.0
      z: 0.659384911952
      w: 0.751805518661
  covariance: [2.917743030394753, -0.2361339839565043, 0.0, 0.0, 0.0, 2.722259702141481e-16, -0.23613398395650426, 1.4135777231515056, 0.0, 0.0, 0.0, 1.9917016964807492e-15, 0.0, 0.0, 6.796125853874134e-07, -5.2024029333676654e-14, 6.064794013892631e-18, 0.0, 0.0, 0.0, -5.2024029333676635e-14, 6.796126513818507e-07, 9.851384997608662e-25, 0.0, 0.0, 0.0, 6.0647940138926295e-18, 9.851377184166382e-25, 6.79612651381859e-07, 0.0, 2.722259702141481e-16, 1.9917016964807492e-15, 0.0, 0.0, 0.0, 8.206231488622389e-08]
twist: 
  twist: 
    linear: 
      x: -6.62655763662e-13
      y: -0.0625240008216
      z: 0.0
    angular: 
      x: 0.0
      y: 0.0
      z: 0.0400000010045
  covariance: [9.999999090172845e-10, 6.09977937721793e-13, 0.0, 0.0, 0.0, 2.6082469427030913e-36, 6.099779377217925e-13, 1.6645985406081305, 0.0, 0.0, 0.0, -8.029998543649397e-27, 0.0, 0.0, 9.435425711050673e-07, -8.05689446187439e-27, 6.13026276516783e-26, 0.0, 0.0, 0.0, -8.056894461874386e-27, 6.796125853696708e-07, 7.279719545367837e-33, 0.0, 0.0, 0.0, 6.130262765167827e-26, 7.324016955442962e-33, 6.796125853696708e-07, 0.0, 2.6082469427030913e-36, -8.029998543649416e-27, 0.0, 0.0, 0.0, 1.6222463377901932e-06]
---
header: 
  seq: 1908
  stamp: 
    secs: 1518209653
    nsecs: 312002182
  frame_id: "swarmone/map"
child_frame_id: "swarmone/base_link"
pose: 
  pose: 
    position: 
      x: 0.487143649887
      y: 1.661043105
      z: 0.0
    orientation: 
      x: 0.0
      y: 0.0
      z: 0.659384918751
      w: 0.751805512698
  covariance: [2.437126602544003, -0.1795542517290089, 0.0, 0.0, 0.0, 3.820253079720471e-14, -0.17955425172900882, 1.288542841286106, 0.0, 0.0, 0.0, 2.988092865766848e-13, 0.0, 0.0, 6.79563305500544e-07, -5.3116671524464635e-14, 6.5071562354704476e-18, 0.0, 0.0, 0.0, -5.311667152446462e-14, 6.79563371491894e-07, 1.0816835786437055e-24, 0.0, 0.0, 0.0, 6.507156235470445e-18, 1.0816833846834085e-24, 6.795633714919028e-07, 0.0, 3.820253079720471e-14, 2.988092865766848e-13, 0.0, 0.0, 0.0, 8.206231488769358e-08]
twist: 
  twist: 
    linear: 
      x: -7.10397972747e-13
      y: -0.0638405054397
      z: 0.0
    angular: 
      x: 0.0
      y: 0.0
      z: 0.0399999999624
  covariance: [9.999999091011836e-10, 6.952893807430446e-13, 0.0, 0.0, 0.0, 1.2542321591718279e-29, 6.952893807430441e-13, 1.47935593733435, 0.0, 0.0, 0.0, -2.4141184091231724e-20, 0.0, 0.0, 9.435424176641704e-07, -8.221520515809358e-27, 6.255796009414408e-26, 0.0, 0.0, 0.0, -8.221520515809355e-27, 6.795633054826572e-07, 7.889632660696487e-33, 0.0, 0.0, 0.0, 6.255796009414408e-26, 8.151628115993281e-33, 6.795633054826572e-07, 0.0, 1.2542321591718272e-29, -2.4141184091231715e-20, 0.0, 0.0, 0.0, 1.62224633779022e-06]
---
header: 
  seq: 1909
  stamp: 
    secs: 1518209653
    nsecs: 412137032
  frame_id: "swarmone/map"
child_frame_id: "swarmone/base_link"
pose: 
  pose: 
    position: 
      x: 0.493499780536
      y: 1.66020683514
      z: 0.0
    orientation: 
      x: 0.0
      y: 0.0
      z: 0.663135620208
      w: 0.74849926467
  covariance: [2.75199127285688, -0.2159332815681866, 0.0, 0.0, 0.0, 2.6269965003207175e-16, -0.2159332815681865, 1.3728018943691056, 0.0, 0.0, 0.0, 2.0754972577701833e-15, 0.0, 0.0, 6.796125999210548e-07, -5.342273180565879e-14, 5.9194824563912115e-18, 0.0, 0.0, 0.0, -5.342273180565879e-14, 6.79612649478989e-07, 9.873208796276282e-25, 0.0, 0.0, 0.0, 5.919482456391213e-18, 9.873211105503567e-25, 6.79612649478998e-07, 0.0, 2.626996500320717e-16, 2.0754972577701833e-15, 0.0, 0.0, 0.0, 8.20623148975603e-08]
twist: 
  twist: 
    linear: 
      x: -6.42831235359e-13
      y: -0.0642049980342
      z: 0.0
    angular: 
      x: 0.0
      y: 0.0
      z: 0.0300000009988
  covariance: [9.999999095927023e-10, 6.386528706583866e-13, 0.0, 0.0, 0.0, 1.2115117172318874e-36, 6.386528706583859e-13, 1.60256232735901, 0.0, 0.0, 0.0, -2.625120894378166e-27, 0.0, 0.0, 9.435425711502028e-07, -7.643969805159599e-27, 6.30303835012489e-26, 0.0, 0.0, 0.0, -7.643969805159597e-27, 6.796125999033055e-07, 7.220029586891258e-33, 0.0, 0.0, 0.0, 6.303038350124887e-26, 7.12114387812126e-33, 6.796125999033055e-07, 0.0, 1.2115117172318872e-36, -2.6251208943781647e-27, 0.0, 0.0, 0.0, 1.6222463377907598e-06]
---
header: 
  seq: 1910
  stamp: 
    secs: 1518209653
    nsecs: 512534142
  frame_id: "swarmone/map"
child_frame_id: "swarmone/base_link"
pose: 
  pose: 
    position: 
      x: 0.499917001292
      y: 1.65942773468
      z: 0.0
    orientation: 
      x: 0.0
      y: 0.0
      z: 0.663135680471
      w: 0.74849921128
  covariance: [3.109196774350526, -0.2558745624867253, 0.0, 0.0, 0.0, 2.4990807603308904e-16, -0.25587456248672524, 1.4575814083667564, 0.0, 0.0, 0.0, 2.0574879003852207e-15, 0.0, 0.0, 6.746420278322797e-07, -5.377723323760384e-14, 5.379067190695187e-18, 0.0, 0.0, 0.0, -5.377723323760384e-14, 6.746420939715703e-07, 8.892956698568281e-25, 0.0, 0.0, 0.0, 5.379067190695188e-18, 8.892953501764358e-25, 6.746420939715791e-07, 0.0, 2.49908076033089e-16, 2.0574879003852203e-15, 0.0, 0.0, 0.0, 7.967812911175628e-08]
twist: 
  twist: 
    linear: 
      x: -5.8174220361e-13
      y: -0.0645704459608
      z: 0.0
    angular: 
      x: 0.0
      y: 0.0
      z: 0.0399999990039
  covariance: [9.999999098609436e-10, 5.865745068548415e-13, 0.0, 0.0, 0.0, 2.4999134765556833e-43, 5.865745068548409e-13, 1.733242098784042, 0.0, 0.0, 0.0, -6.095699088732278e-34, 0.0, 0.0, 9.419806317632236e-07, -7.565552062267285e-27, 6.237789420136758e-26, 0.0, 0.0, 0.0, -7.565552062267286e-27, 6.74642027814868e-07, 6.869736661172648e-33, 0.0, 0.0, 0.0, 6.237789420136758e-26, 7.056951139482005e-33, 6.74642027814868e-07, 0.0, 2.4999134765556837e-43, -6.095699088732276e-34, 0.0, 0.0, 0.0, 1.5745626219707086e-06]
---
header: 
  seq: 1911
  stamp: 
    secs: 1518209653
    nsecs: 612106323
  frame_id: "swarmone/map"
child_frame_id: "swarmone/base_link"
pose: 
  pose: 
    position: 
      x: 0.505157010053
      y: 1.65255233589
      z: 0.0
    orientation: 
      x: 0.0
      y: 0.0
      z: 0.663135720437
      w: 0.748499175871
  covariance: [2.594123271584821, -0.19400854646487944, 0.0, 0.0, 0.0, 1.864673381227258e-13, -0.1940085464648794, 1.3310551197245475, 0.0, 0.0, 0.0, 1.558943915846801e-12, 0.0, 0.0, 7.002197266411115e-07, -5.3128582977354245e-14, 5.8715761165310974e-18, 0.0, 0.0, 0.0, -5.312858297735426e-14, 7.002197921483494e-07, 1.0411715361559798e-24, 0.0, 0.0, 0.0, 5.871576116531096e-18, 1.0411733472244857e-24, 7.002197921483588e-07, 0.0, 1.8646733812272585e-13, 1.558943915846801e-12, 0.0, 0.0, 0.0, 9.279115097422125e-08]
twist: 
  twist: 
    linear: 
      x: -6.46081779351e-13
      y: -0.0644079781776
      z: 0.0
    angular: 
      x: 0.0
      y: 0.0
      z: 0.0399999998048
  covariance: [9.999999091606103e-10, 6.628354178665051e-13, 0.0, 0.0, 0.0, 3.0046287305866193e-29, 6.628354178665046e-13, 1.5408930962406662, 0.0, 0.0, 0.0, -4.5647958997244526e-20, 0.0, 0.0, 9.496430344190412e-07, -8.134745158771397e-27, 6.70767549710731e-26, 0.0, 0.0, 0.0, -8.134745158771396e-27, 7.002197266217689e-07, 8.667751409256582e-33, 0.0, 0.0, 0.0, 6.707675497107307e-26, 8.4484493402814e-33, 7.002197266217689e-07, 0.0, 3.00462873058662e-29, -4.564795899724463e-20, 0.0, 0.0, 0.0, 1.8368230589803866e-06]
---
header: 
  seq: 1912
  stamp: 
    secs: 1518209653
    nsecs: 712613106
  frame_id: "swarmone/map"
child_frame_id: "swarmone/base_link"
pose: 
  pose: 
    position: 
      x: 0.511600889173
      y: 1.65176996305
      z: 0.0
    orientation: 
      x: 0.0
      y: 0.0
      z: 0.659384922646
      w: 0.751805509282
  covariance: [2.9311495683815334, -0.23109393631563124, 0.0, 0.0, 0.0, 2.798544664036337e-16, -0.23109393631563116, 1.4155254771914862, 0.0, 0.0, 0.0, 2.2183138099610284e-15, 0.0, 0.0, 6.771464503994417e-07, -5.3913840580320966e-14, 5.4043257103582596e-18, 0.0, 0.0, 0.0, -5.391384058032094e-14, 6.77146516428044e-07, 9.027619705938825e-25, 0.0, 0.0, 0.0, 5.404325710358258e-18, 9.027620155403604e-25, 6.77146516428053e-07, 0.0, 2.798544664036336e-16, 2.2183138099610287e-15, 0.0, 0.0, 0.0, 8.087022200949171e-08]
twist: 
  twist: 
    linear: 
      x: -5.84113258047e-13
      y: -0.06476141608
      z: 0.0
    angular: 
      x: 0.0
      y: 0.0
      z: 0.0399999999995
  covariance: [9.999999099451133e-10, 6.082587134574534e-13, 0.0, 0.0, 0.0, 2.7426956911733812e-36, 6.082587134574526e-13, 1.6681719444573462, 0.0, 0.0, 0.0, -4.682804559803395e-27, 0.0, 0.0, 9.427722571493716e-07, -8.280760286473611e-27, 6.299754413142779e-26, 0.0, 0.0, 0.0, -8.280760286473604e-27, 6.771464503818437e-07, 7.61867611886328e-33, 0.0, 0.0, 0.0, 6.299754413142773e-26, 7.844223349557274e-33, 6.771464503818437e-07, 0.0, 2.742695691173382e-36, -4.682804559803404e-27, 0.0, 0.0, 0.0, 1.5984044798809753e-06]
---
header: 
  seq: 1913
  stamp: 
    secs: 1518209653
    nsecs: 812256336
  frame_id: "swarmone/map"
child_frame_id: "swarmone/base_link"
pose: 
  pose: 
    position: 
      x: 0.517558060914
      y: 1.64555966062
      z: 0.0
    orientation: 
      x: 0.0
      y: 0.0
      z: 0.655617664932
      w: 0.755093025679
  covariance: [2.446770107716499, -0.17597223229276623, 0.0, 0.0, 0.0, 4.0053850333297e-14, -0.1759722322927662, 1.2904610348642922, 0.0, 0.0, 0.0, 3.1323587867207943e-13, 0.0, 0.0, 6.745928331301693e-07, -5.41172356982875e-14, 5.854385030156753e-18, 0.0, 0.0, 0.0, -5.4117235698287506e-14, 6.745928990949414e-07, 9.764771641282743e-25, 0.0, 0.0, 0.0, 5.854385030156753e-18, 9.764763918613581e-25, 6.745928990949505e-07, 0.0, 4.0053850333297e-14, 3.132358786720794e-13, 0.0, 0.0, 0.0, 7.967812909672378e-08]
twist: 
  twist: 
    linear: 
      x: -6.38396469003e-13
      y: -0.0649805132453
      z: 0.0
    angular: 
      x: 0.0
      y: 0.0
      z: 0.039999999864
  covariance: [9.999999091050587e-10, 6.869551236234976e-13, 0.0, 0.0, 0.0, 1.317180024455923e-29, 6.869551236234974e-13, 1.4818800099248506, 0.0, 0.0, 0.0, -2.753433750027707e-20, 0.0, 0.0, 9.419804749128362e-07, -8.863351681457856e-27, 6.258486826603657e-26, 0.0, 0.0, 0.0, -8.863351681457855e-27, 6.745928331126143e-07, 8.554301060889842e-33, 0.0, 0.0, 0.0, 6.258486826603657e-26, 8.644445415596166e-33, 6.745928331126143e-07, 0.0, 1.3171800244559228e-29, -2.7534337500277067e-20, 0.0, 0.0, 0.0, 1.5745626219699077e-06]
---
header: 
  seq: 1914
  stamp: 
    secs: 1518209653
    nsecs: 912456036
  frame_id: "swarmone/map"
child_frame_id: "swarmone/base_link"
pose: 
  pose: 
    position: 
      x: 0.52402202838
      y: 1.64464339537
      z: 0.0
    orientation: 
      x: 0.0
      y: 0.0
      z: 0.659385388036
      w: 0.751805101103
  covariance: [2.7623520761407065, -0.21368428573762374, 0.0, 0.0, 0.0, 5.544405188815814e-16, -0.21368428573762374, 1.375001610632249, 0.0, 0.0, 0.0, 4.132450926506673e-15, 0.0, 0.0, 8.410727836787853e-07, -3.953698572882432e-14, 3.878493265243127e-18, 0.0, 0.0, 0.0, -3.953698572882433e-14, 8.410728316773173e-07, 9.649434822910846e-25, 0.0, 0.0, 0.0, 3.878493265243127e-18, 9.649435719645401e-25, 8.41072831677327e-07, 0.0, 5.544405188815813e-16, 4.1324509265066724e-15, 0.0, 0.0, 0.0, 2.4061067000278243e-07]
twist: 
  twist: 
    linear: 
      x: -5.77630579476e-13
      y: -0.0653310000317
      z: 0.0
    angular: 
      x: 0.0
      y: 0.0
      z: 0.0400000000002
  covariance: [9.999999096574714e-10, 6.309534099057728e-13, 0.0, 0.0, 0.0, 1.2670663419639807e-36, 6.309534099057728e-13, 1.6052917630414074, 0.0, 0.0, 0.0, -2.9861273644716286e-27, 0.0, 0.0, 9.797661500734464e-07, -9.511970289148825e-27, 7.236362261878731e-26, 0.0, 0.0, 0.0, -9.511970289148832e-27, 8.4107278364706e-07, 1.7289744713117138e-32, 0.0, 0.0, 0.0, 7.236362261878734e-26, 1.951393780597146e-32, 8.4107278364706e-07, 0.0, 1.26706634196398e-36, -2.9861273644716275e-27, 0.0, 0.0, 0.0, 4.793213439841574e-06]
---
header: 
  seq: 1915
  stamp: 
    secs: 1518209654
    nsecs:  11982203
  frame_id: "swarmone/map"
child_frame_id: "swarmone/base_link"
pose: 
  pose: 
    position: 
      x: 0.530485793801
      y: 1.64379298965
      z: 0.0
    orientation: 
      x: 0.0
      y: 0.0
      z: 0.659384857807
      w: 0.75180556615
  covariance: [3.116808672933428, -0.2549105450611699, 0.0, 0.0, 0.0, 5.499905353755185e-16, -0.25491054506116984, 1.4593645219044666, 0.0, 0.0, 0.0, 4.1792039419292625e-15, 0.0, 0.0, 6.796125842883536e-07, -5.464957674787515e-14, 4.7872439096617125e-18, 0.0, 0.0, 0.0, -5.464957674787515e-14, 6.796126337842975e-07, 8.170196742955524e-25, 0.0, 0.0, 0.0, 4.787243909661711e-18, 8.170202822650841e-25, 6.796126337843069e-07, 0.0, 5.499905353755186e-16, 4.1792039419292625e-15, 0.0, 0.0, 0.0, 8.206231488611187e-08]
twist: 
  twist: 
    linear: 
      x: -5.23163860527e-13
      y: -0.0656791314942
      z: 0.0
    angular: 
      x: 0.0
      y: 0.0
      z: 0.0300000010041
  covariance: [9.999999089977188e-10, 5.799027541958322e-13, 0.0, 0.0, 0.0, 5.429750591394371e-43, 5.79902754195832e-13, 1.7349369757843514, 0.0, 0.0, 0.0, -1.4405066603749698e-33, 0.0, 0.0, 9.435425711015227e-07, -8.465584756146124e-27, 6.439756148229247e-26, 0.0, 0.0, 0.0, -8.465584756146125e-27, 6.79612584270506e-07, 8.10612975161556e-33, 0.0, 0.0, 0.0, 6.439756148229247e-26, 8.162774773926745e-33, 6.79612584270506e-07, 0.0, 5.429750591394369e-43, -1.4405066603749703e-33, 0.0, 0.0, 0.0, 1.6222463377901811e-06]
---
header: 
  seq: 1916
  stamp: 
    secs: 1518209654
    nsecs: 112375259
  frame_id: "swarmone/map"
child_frame_id: "swarmone/base_link"
pose: 
  pose: 
    position: 
      x: 0.536878790143
      y: 1.63673844512
      z: 0.0
    orientation: 
      x: 0.0
      y: 0.0
      z: 0.655617674961
      w: 0.755093016971
  covariance: [2.6027741990109883, -0.1951975005276863, 0.0, 0.0, 0.0, 2.0886052013804885e-13, -0.19519750052768628, 1.3338852989891274, 0.0, 0.0, 0.0, 1.60351659426769e-12, 0.0, 0.0, 6.820393183881174e-07, -5.496974318792658e-14, 5.4659539098918556e-18, 0.0, 0.0, 0.0, -5.496974318792658e-14, 6.820393842514124e-07, 9.455362978413959e-25, 0.0, 0.0, 0.0, 5.465953909891853e-18, 9.455367991495864e-25, 6.82039384251422e-07, 0.0, 2.0886052013804885e-13, 1.60351659426769e-12, 0.0, 0.0, 0.0, 8.325440782781351e-08]
twist: 
  twist: 
    linear: 
      x: -5.91177174014e-13
      y: -0.0661048109876
      z: 0.0
    angular: 
      x: 0.0
      y: 0.0
      z: 0.0399999983572
  covariance: [9.99999909976642e-10, 6.589588348589368e-13, 0.0, 0.0, 0.0, 3.073205746823312e-29, 6.589588348589372e-13, 1.5436758043800973, 0.0, 0.0, 0.0, -6.633634805565915e-20, 0.0, 0.0, 9.442924166928717e-07, -9.237372689484946e-27, 6.522066140460258e-26, 0.0, 0.0, 0.0, -9.237372689484951e-27, 6.820393183700537e-07, 9.092072888089736e-33, 0.0, 0.0, 0.0, 6.522066140460259e-26, 9.114367938480898e-33, 6.820393183700537e-07, 0.0, 3.07320574682331e-29, -6.633634805565883e-20, 0.0, 0.0, 0.0, 1.6460881956999606e-06]
---
header: 
  seq: 1917
  stamp: 
    secs: 1518209654
    nsecs: 212014914
  frame_id: "swarmone/map"
child_frame_id: "swarmone/base_link"
pose: 
  pose: 
    position: 
      x: 0.543417651671
      y: 1.63581155806
      z: 0.0
    orientation: 
      x: 0.0
      y: 0.0
      z: 0.659384914791
      w: 0.751805516172
  covariance: [2.9366709499697095, -0.23554766157833432, 0.0, 0.0, 0.0, 2.979958915431173e-16, -0.23554766157833434, 1.4183574250501747, 0.0, 0.0, 0.0, 2.1796317066027784e-15, 0.0, 0.0, 6.820413559880867e-07, -5.5262636656158946e-14, 4.897647099263081e-18, 0.0, 0.0, 0.0, -5.5262636656158965e-14, 6.82041421941241e-07, 8.515455892263228e-25, 0.0, 0.0, 0.0, 4.897647099263082e-18, 8.515482290554842e-25, 6.820414219412505e-07, 0.0, 2.979958915431173e-16, 2.1796317066027784e-15, 0.0, 0.0, 0.0, 8.325440778315059e-08]
twist: 
  twist: 
    linear: 
      x: -5.34919068472e-13
      y: -0.0664574787154
      z: 0.0
    angular: 
      x: 0.0
      y: 0.0
      z: 0.0400000000002
  covariance: [9.999999090870352e-10, 6.051539785516989e-13, 0.0, 0.0, 0.0, 2.827677140931612e-36, 6.051539785516994e-13, 1.6699701224737438, 0.0, 0.0, 0.0, -6.875207513913285e-27, 0.0, 0.0, 9.442924229501483e-07, -8.630902222596727e-27, 6.565588085932338e-26, 0.0, 0.0, 0.0, -8.630902222596726e-27, 6.82041355970164e-07, 8.452543165311091e-33, 0.0, 0.0, 0.0, 6.565588085932337e-26, 8.504603100857307e-33, 6.82041355970164e-07, 0.0, 2.827677140931614e-36, -6.875207513913254e-27, 0.0, 0.0, 0.0, 1.6460881957004197e-06]
---
header: 
  seq: 1918
  stamp: 
    secs: 1518209654
    nsecs: 312638283
  frame_id: "swarmone/map"
child_frame_id: "swarmone/base_link"
pose: 
  pose: 
    position: 
      x: 0.547696971241
      y: 1.62840824045
      z: 0.0
    orientation: 
      x: 0.0
      y: 0.0
      z: 0.659384911581
      w: 0.751805518987
  covariance: [2.4524537587610618, -0.17925488027124153, 0.0, 0.0, 0.0, 4.4032524613900975e-14, -0.1792548802712415, 1.2932104653067695, 0.0, 0.0, 0.0, 3.445028903253196e-13, 0.0, 0.0, 6.74597339000309e-07, -5.4602483141374435e-14, 5.7656124008504945e-18, 0.0, 0.0, 0.0, -5.460248314137443e-14, 6.745974050554605e-07, 9.701198297308964e-25, 0.0, 0.0, 0.0, 5.765612400850494e-18, 9.701172168102313e-25, 6.745974050554697e-07, 0.0, 4.4032524613901e-14, 3.4450289032531964e-13, 0.0, 0.0, 0.0, 7.96781291162996e-08]
twist: 
  twist: 
    linear: 
      x: -6.22036710335e-13
      y: -0.0655629252329
      z: 0.0
    angular: 
      x: 0.0
      y: 0.0
      z: 0.0399999999577
  covariance: [9.999999100734988e-10, 6.912796855857896e-13, 0.0, 0.0, 0.0, 1.509468604739803e-29, 6.912796855857907e-13, 1.4839466646094648, 0.0, 0.0, 0.0, -2.9927978884557295e-20, 0.0, 0.0, 9.419804893100254e-07, -8.311531814076927e-27, 6.323478463083185e-26, 0.0, 0.0, 0.0, -8.311531814076925e-27, 6.745973389827523e-07, 7.972141308632671e-33, 0.0, 0.0, 0.0, 6.323478463083186e-26, 8.354814702977748e-33, 6.745973389827523e-07, 0.0, 1.5094686047398025e-29, -2.992797888455727e-20, 0.0, 0.0, 0.0, 1.5745626219708774e-06]
---
header: 
  seq: 1919
  stamp: 
    secs: 1518209654
    nsecs: 412022829
  frame_id: "swarmone/map"
child_frame_id: "swarmone/base_link"
pose: 
  pose: 
    position: 
      x: 0.554172978786
      y: 1.62755620313
      z: 0.0
    orientation: 
      x: 0.0
      y: 0.0
      z: 0.659384918751
      w: 0.751805512698
  covariance: [2.7662961204210417, -0.21537590355293365, 0.0, 0.0, 0.0, 2.761137821617642e-16, -0.21537590355293365, 1.376818663051969, 0.0, 0.0, 0.0, 2.0978484271030218e-15, 0.0, 0.0, 6.796125805706048e-07, -5.481845229528376e-14, 5.146071516452702e-18, 0.0, 0.0, 0.0, -5.481845229528374e-14, 6.796126465646882e-07, 8.807839464950204e-25, 0.0, 0.0, 0.0, 5.146071516452701e-18, 8.80783563812628e-25, 6.796126465646976e-07, 0.0, 2.761137821617642e-16, 2.0978484271030218e-15, 0.0, 0.0, 0.0, 8.20623148824702e-08]
twist: 
  twist: 
    linear: 
      x: -5.63240528165e-13
      y: -0.0658824210847
      z: 0.0
    angular: 
      x: 0.0
      y: 0.0
      z: 0.0399999999999
  covariance: [9.999999088457175e-10, 6.353442725317893e-13, 0.0, 0.0, 0.0, 1.4571613046808733e-36, 6.353442725317898e-13, 1.6064334910401021, 0.0, 0.0, 0.0, -3.2511102509522784e-27, 0.0, 0.0, 9.43542571090107e-07, -8.491158911296226e-27, 6.459523016078868e-26, 0.0, 0.0, 0.0, -8.491158911296222e-27, 6.796125805528567e-07, 8.111508572158709e-33, 0.0, 0.0, 0.0, 6.459523016078867e-26, 8.174970529305537e-33, 6.796125805528567e-07, 0.0, 1.4571613046808737e-36, -3.251110250952277e-27, 0.0, 0.0, 0.0, 1.6222463377900054e-06]
---
header: 
  seq: 1920
  stamp: 
    secs: 1518209654
    nsecs: 512508154
  frame_id: "swarmone/map"
child_frame_id: "swarmone/base_link"
pose: 
  pose: 
    position: 
      x: 0.560752723599
      y: 1.62669053984
      z: 0.0
    orientation: 
      x: 0.0
      y: 0.0
      z: 0.659384922336
      w: 0.751805509554
  covariance: [3.124671612226732, -0.2572005737619841, 0.0, 0.0, 0.0, 2.835312048770997e-16, -0.257200573761984, 1.4620390657463866, 0.0, 0.0, 0.0, 2.154290616153904e-15, 0.0, 0.0, 6.820413773369852e-07, -5.505307206576085e-14, 4.711228955093419e-18, 0.0, 0.0, 0.0, -5.5053072065760826e-14, 6.820414432901404e-07, 8.160165228688845e-25, 0.0, 0.0, 0.0, 4.711228955093418e-18, 8.160154624037052e-25, 6.820414432901501e-07, 0.0, 2.835312048770997e-16, 2.1542906161539044e-15, 0.0, 0.0, 0.0, 8.325440780003737e-08]
twist: 
  twist: 
    linear: 
      x: -5.09675119187e-13
      y: -0.0662054562654
      z: 0.0
    angular: 
      x: 0.0
      y: 0.0
      z: 0.0399999999999
  covariance: [9.999999099471403e-10, 5.835271602203571e-13, 0.0, 0.0, 0.0, 2.831864804324702e-43, 5.835271602203578e-13, 1.7374162824383572, 0.0, 0.0, 0.0, -7.11349567803778e-34, 0.0, 0.0, 9.44292423015697e-07, -8.598407739865585e-27, 6.54069091387288e-26, 0.0, 0.0, 0.0, -8.598407739865577e-27, 6.820413773190649e-07, 8.373100539441253e-33, 0.0, 0.0, 0.0, 6.540690913872878e-26, 8.432837874728236e-33, 6.820413773190649e-07, 0.0, 2.831864804324703e-43, -7.113495678037777e-34, 0.0, 0.0, 0.0, 1.6460881957012641e-06]
---
header: 
  seq: 1921
  stamp: 
    secs: 1518209654
    nsecs: 612103939
  frame_id: "swarmone/map"
child_frame_id: "swarmone/base_link"
pose: 
  pose: 
    position: 
      x: 0.5656141634
      y: 1.61860071923
      z: 0.0
    orientation: 
      x: 0.0
      y: 0.0
      z: 0.659385044178
      w: 0.75180540269
  covariance: [2.6038891127700268, -0.19622212762592692, 0.0, 0.0, 0.0, 2.0543533019531075e-13, -0.19622212762592695, 1.3348839011288818, 0.0, 0.0, 0.0, 1.5826706515005635e-12, 0.0, 0.0, 7.471980544379397e-07, -5.15670267361455e-14, 5.219909116364169e-18, 0.0, 0.0, 0.0, -5.15670267361455e-14, 7.471981166728673e-07, 1.0652132476805076e-24, 0.0, 0.0, 0.0, 5.219909116364169e-18, 1.0652147002931545e-24, 7.471981166728777e-07, 0.0, 2.0543533019531073e-13, 1.5826706515005627e-12, 0.0, 0.0, 0.0, 1.2378556625908322e-07]
twist: 
  twist: 
    linear: 
      x: -6.03386137509e-13
      y: -0.065718451012
      z: 0.0
    angular: 
      x: 0.0
      y: 0.0
      z: 0.0399999998057
  covariance: [9.999999091856823e-10, 6.636704052321965e-13, 0.0, 0.0, 0.0, 3.123471311575702e-29, 6.636704052321969e-13, 1.5439169607678698, 0.0, 0.0, 0.0, -6.611107005438611e-20, 0.0, 0.0, 9.616227572790507e-07, -9.827975984537524e-27, 7.476902127287432e-26, 0.0, 0.0, 0.0, -9.827975984537524e-27, 7.47198054414926e-07, 1.3135100175872576e-32, 0.0, 0.0, 0.0, 7.476902127287434e-26, 1.3057038780556261e-32, 7.47198054414926e-07, 0.0, 3.123471311575703e-29, -6.611107005438602e-20, 0.0, 0.0, 0.0, 2.456711364644477e-06]
---
header: 
  seq: 1922
  stamp: 
    secs: 1518209654
    nsecs: 712592363
  frame_id: "swarmone/map"
child_frame_id: "swarmone/base_link"
pose: 
  pose: 
    position: 
      x: 0.572176790315
      y: 1.61773728759
      z: 0.0
    orientation: 
      x: 0.0
      y: 0.0
      z: 0.659385033468
      w: 0.751805412084
  covariance: [2.9412503590308874, -0.2352981262293555, 0.0, 0.0, 0.0, 3.774582758626604e-16, -0.23529812622935548, 1.4197463268932415, 0.0, 0.0, 0.0, 2.86796607052942e-15, 0.0, 0.0, 7.06514533832903e-07, -5.4230982836355323e-14, 4.9817635539524014e-18, 0.0, 0.0, 0.0, -5.423098283635532e-14, 7.065146152695527e-07, 9.208391544858594e-25, 0.0, 0.0, 0.0, 4.9817635539524e-18, 9.20840041561438e-25, 7.065146152695627e-07, 0.0, 3.7745827586266046e-16, 2.8679660705294198e-15, 0.0, 0.0, 0.0, 9.636742965092453e-08]
twist: 
  twist: 
    linear: 
      x: -5.45539162482e-13
      y: -0.066021775089
      z: 0.0
    angular: 
      x: 0.0
      y: 0.0
      z: 0.0499999990047
  covariance: [9.999999099270245e-10, 6.090858383428785e-13, 0.0, 0.0, 0.0, 2.8659950354436114e-36, 6.09085838342879e-13, 1.6713223392559546, 0.0, 0.0, 0.0, -6.837138332263005e-27, 0.0, 0.0, 9.513937450857368e-07, -9.169309351048289e-27, 6.975307124714413e-26, 0.0, 0.0, 0.0, -9.169309351048287e-27, 7.065145338131775e-07, 1.0085532004038453e-32, 0.0, 0.0, 0.0, 6.975307124714418e-26, 1.02176368703435e-32, 7.065145338131775e-07, 0.0, 2.8659950354436127e-36, -6.837138332262996e-27, 0.0, 0.0, 0.0, 1.9083486327129915e-06]
---
header: 
  seq: 1923
  stamp: 
    secs: 1518209654
    nsecs: 812000751
  frame_id: "swarmone/map"
child_frame_id: "swarmone/base_link"
pose: 
  pose: 
    position: 
      x: 0.577752522848
      y: 1.61055719522
      z: 0.0
    orientation: 
      x: 0.0
      y: 0.0
      z: 0.655617665667
      w: 0.755093025041
  covariance: [2.4522244538946567, -0.17866681828929143, 0.0, 0.0, 0.0, 4.108255498628109e-14, -0.1786668182892914, 1.2934059620969363, 0.0, 0.0, 0.0, 3.2365821535765227e-13, 0.0, 0.0, 6.745937997985503e-07, -5.490500472232961e-14, 5.706901298602714e-18, 0.0, 0.0, 0.0, -5.490500472232962e-14, 6.745938657734431e-07, 9.65853745343951e-25, 0.0, 0.0, 0.0, 5.7069012986027155e-18, 9.658543362023745e-25, 6.745938657734524e-07, 0.0, 4.1082554986281104e-14, 3.2365821535765227e-13, 0.0, 0.0, 0.0, 7.967812909205905e-08]
twist: 
  twist: 
    linear: 
      x: -6.23874689668e-13
      y: -0.0659263563849
      z: 0.0
    angular: 
      x: 0.0
      y: 0.0
      z: 0.0400000008578
  covariance: [9.999999088700743e-10, 6.924878281516953e-13, 0.0, 0.0, 0.0, 1.6258666435333946e-29, 6.924878281516953e-13, 1.4837920343987703, 0.0, 0.0, 0.0, -3.251896090779975e-20, 0.0, 0.0, 9.419804780020683e-07, -8.992711998893878e-27, 6.349641815479867e-26, 0.0, 0.0, 0.0, -8.992711998893884e-27, 6.745937997809935e-07, 8.829009167476447e-33, 0.0, 0.0, 0.0, 6.349641815479869e-26, 8.76903787432686e-33, 6.745937997809935e-07, 0.0, 1.6258666435333946e-29, -3.251896090779979e-20, 0.0, 0.0, 0.0, 1.5745626219696718e-06]
---
header: 
  seq: 1924
  stamp: 
    secs: 1518209654
    nsecs: 912136316
  frame_id: "swarmone/map"
child_frame_id: "swarmone/base_link"
pose: 
  pose: 
    position: 
      x: 0.58430329972
      y: 1.60962860873
      z: 0.0
    orientation: 
      x: 0.0
      y: 0.0
      z: 0.659384911243
      w: 0.751805519283
  covariance: [2.767963117015099, -0.21664263462151384, 0.0, 0.0, 0.0, 2.879806337229094e-16, -0.21664263462151384, 1.3779667768300228, 0.0, 0.0, 0.0, 2.107335634494145e-15, 0.0, 0.0, 6.796125999380892e-07, -5.509920043069938e-14, 5.20049484863152e-18, 0.0, 0.0, 0.0, -5.5099200430699386e-14, 6.796126659321763e-07, 8.946758874442661e-25, 0.0, 0.0, 0.0, 5.2004948486315225e-18, 8.946762410759374e-25, 6.796126659321858e-07, 0.0, 2.879806337229093e-16, 2.107335634494144e-15, 0.0, 0.0, 0.0, 8.206231489756315e-08]
twist: 
  twist: 
    linear: 
      x: -5.64524023637e-13
      y: -0.0662198230658
      z: 0.0
    angular: 
      x: 0.0
      y: 0.0
      z: 0.0400000000002
  covariance: [9.999999095937382e-10, 6.360783823680213e-13, 0.0, 0.0, 0.0, 1.5628794297441926e-36, 6.360783823680215e-13, 1.6072183208472892, 0.0, 0.0, 0.0, -3.5210396139482854e-27, 0.0, 0.0, 9.435425711502596e-07, -8.53458777041284e-27, 6.49261006059731e-26, 0.0, 0.0, 0.0, -8.534587770412834e-27, 6.796125999203405e-07, 8.127348967512805e-33, 0.0, 0.0, 0.0, 6.492610060597308e-26, 8.380660853738843e-33, 6.796125999203405e-07, 0.0, 1.562879429744192e-36, -3.52103961394829e-27, 0.0, 0.0, 0.0, 1.62224633779076e-06]
---
header: 
  seq: 1925
  stamp: 
    secs: 1518209655
    nsecs:  12582302
  frame_id: "swarmone/map"
child_frame_id: "swarmone/base_link"
pose: 
  pose: 
    position: 
      x: 0.590912640106
      y: 1.60875903066
      z: 0.0
    orientation: 
      x: 0.0
      y: 0.0
      z: 0.655617664872
      w: 0.755093025731
  covariance: [3.1262838392866987, -0.2585758782818931, 0.0, 0.0, 0.0, 2.8904636686480076e-16, -0.2585758782818931, 1.46318519922675, 0.0, 0.0, 0.0, 2.1159969895956644e-15, 0.0, 0.0, 6.746420291150187e-07, -5.539608803071632e-14, 4.727674141397963e-18, 0.0, 0.0, 0.0, -5.539608803071633e-14, 6.746420950808728e-07, 8.052489937182383e-25, 0.0, 0.0, 0.0, 4.727674141397961e-18, 8.052478050209239e-25, 6.746420950808822e-07, 0.0, 2.890463668648007e-16, 2.115996989595664e-15, 0.0, 0.0, 0.0, 7.967812911272559e-08]
twist: 
  twist: 
    linear: 
      x: -5.10851457368e-13
      y: -0.0665142001078
      z: 0.0
    angular: 
      x: 0.0
      y: 0.0
      z: 0.0399999999995
  covariance: [9.99999909909242e-10, 5.84197614773505e-13, 0.0, 0.0, 0.0, 3.1467582671803162e-43, 5.841976147735052e-13, 1.7381894038491665, 0.0, 0.0, 0.0, -7.982614193922966e-34, 0.0, 0.0, 9.419806317673035e-07, -9.077736380170328e-27, 6.40868220076779e-26, 0.0, 0.0, 0.0, -9.077736380170325e-27, 6.746420290976036e-07, 8.494567263033835e-33, 0.0, 0.0, 0.0, 6.408682200767791e-26, 8.695697168821243e-33, 6.746420290976036e-07, 0.0, 3.1467582671803146e-43, -7.982614193922978e-34, 0.0, 0.0, 0.0, 1.5745626219707571e-06]
---
header: 
  seq: 1926
  stamp: 
    secs: 1518209655
    nsecs: 111756563
  frame_id: "swarmone/map"
child_frame_id: "swarmone/base_link"
pose: 
  pose: 
    position: 
      x: 0.596847134688
      y: 1.6008359159
      z: 0.0
    orientation: 
      x: 0.0
      y: 0.0
      z: 0.655617664512
      w: 0.755093026044
  covariance: [2.604531312655762, -0.19858886888203084, 0.0, 0.0, 0.0, 2.2338413743618324e-13, -0.19858886888203076, 1.336042579180065, 0.0, 0.0, 0.0, 1.595720505582939e-12, 0.0, 0.0, 6.796104621035926e-07, -5.544788404893714e-14, 5.454153764610977e-18, 0.0, 0.0, 0.0, -5.544788404893715e-14, 6.796105280087385e-07, 9.446969158430003e-25, 0.0, 0.0, 0.0, 5.454153764610979e-18, 9.446979698247761e-25, 6.79610528008748e-07, 0.0, 2.2338413743618324e-13, 1.5957205055829393e-12, 0.0, 0.0, 0.0, 8.206231490746949e-08]
twist: 
  twist: 
    linear: 
      x: -5.97452141471e-13
      y: -0.0666383874991
      z: 0.0
    angular: 
      x: 0.0
      y: 0.0
      z: 0.0399999998065
  covariance: [9.999999087628907e-10, 6.652989738414332e-13, 0.0, 0.0, 0.0, 2.9892876906055757e-29, 6.652989738414334e-13, 1.5446503756638528, 0.0, 0.0, 0.0, -7.999079962836201e-20, 0.0, 0.0, 9.435425645090815e-07, -9.241588191050195e-27, 6.524993394409096e-26, 0.0, 0.0, 0.0, -9.241588191050192e-27, 6.796104620856933e-07, 8.964312555636554e-33, 0.0, 0.0, 0.0, 6.524993394409096e-26, 9.1271900843056e-33, 6.796104620856933e-07, 0.0, 2.989287690605576e-29, -7.999079962836181e-20, 0.0, 0.0, 0.0, 1.6222463377885944e-06]
---
header: 
  seq: 1927
  stamp: 
    secs: 1518209655
    nsecs: 212210655
  frame_id: "swarmone/map"
child_frame_id: "swarmone/base_link"
pose: 
  pose: 
    position: 
      x: 0.603489521012
      y: 1.59989442033
      z: 0.0
    orientation: 
      x: 0.0
      y: 0.0
      z: 0.663136194542
      w: 0.748498755836
  covariance: [2.9413044556103967, -0.23961839376542102, 0.0, 0.0, 0.0, 5.660870186822613e-16, -0.23961839376542096, 1.42130163129457, 0.0, 0.0, 0.0, 4.478178408319646e-15, 0.0, 0.0, 8.485337926641702e-07, -3.917079094418737e-14, 3.517465088032874e-18, 0.0, 0.0, 0.0, -3.917079094418738e-14, 8.485338391402467e-07, 9.097252804349298e-25, 0.0, 0.0, 0.0, 3.517465088032874e-18, 9.097269827741931e-25, 8.48533839140257e-07, 0.0, 5.660870186822612e-16, 4.478178408319646e-15, 0.0, 0.0, 0.0, 2.5610787764969853e-07]
twist: 
  twist: 
    linear: 
      x: -5.40194331222e-13
      y: -0.0669307077529
      z: 0.0
    angular: 
      x: 0.0
      y: 0.0
      z: 0.0400000000005
  covariance: [9.999999098937367e-10, 6.105661680475863e-13, 0.0, 0.0, 0.0, 2.726995329874651e-36, 6.105661680475868e-13, 1.6720519718923248, 0.0, 0.0, 0.0, -8.237491225355513e-27, 0.0, 0.0, 9.80960204835388e-07, -8.851283312426701e-27, 7.297329850348865e-26, 0.0, 0.0, 0.0, -8.851283312426705e-27, 8.485337926316644e-07, 1.8330891400899328e-32, 0.0, 0.0, 0.0, 7.297329850348867e-26, 1.7823169779137254e-32, 8.485337926316644e-07, 0.0, 2.7269953298746498e-36, -8.23749122535549e-27, 0.0, 0.0, 0.0, 5.103157592673855e-06]
---
header: 
  seq: 1928
  stamp: 
    secs: 1518209655
    nsecs: 312716722
  frame_id: "swarmone/map"
child_frame_id: "swarmone/base_link"
pose: 
  pose: 
    position: 
      x: 0.612478612978
      y: 1.59410813577
      z: 0.0
    orientation: 
      x: 0.0
      y: 0.0
      z: 0.659385740001
      w: 0.751804792406
  covariance: [2.451435322264783, -0.18028448109436956, 0.0, 0.0, 0.0, 4.3502732368299547e-14, -0.18028448109436945, 1.2939590891514663, 0.0, 0.0, 0.0, 3.6905691006429245e-13, 0.0, 0.0, 8.828065961828282e-07, -3.318268478328309e-14, 3.1323882726396654e-18, 0.0, 0.0, 0.0, -3.318268478328308e-14, 8.828066344608936e-07, 8.872575217080998e-25, 0.0, 0.0, 0.0, 3.132388272639667e-18, 8.872568283119219e-25, 8.82806634460903e-07, 0.0, 4.350273236829954e-14, 3.6905691006429245e-13, 0.0, 0.0, 0.0, 3.526674021896977e-07]
twist: 
  twist: 
    linear: 
      x: -5.82307371098e-13
      y: -0.0687549995936
      z: 0.0
    angular: 
      x: 0.0
      y: 0.0
      z: 0.0399999998509
  covariance: [9.999999099595261e-10, 6.943966906373786e-13, 0.0, 0.0, 0.0, 4.7513588692105275e-29, 6.943966906373785e-13, 1.4841157426215346, 0.0, 0.0, 0.0, -6.41665749329781e-20, 0.0, 0.0, 9.860789062591062e-07, -8.704605690980188e-27, 6.620758194829727e-26, 0.0, 0.0, 0.0, -8.704605690980184e-27, 8.828065961466141e-07, 2.0338001884541205e-32, 0.0, 0.0, 0.0, 6.620758194829725e-26, 2.093607022641697e-32, 8.828065961466141e-07, 0.0, 4.751358869210531e-29, -6.416657493297828e-20, 0.0, 0.0, 0.0, 7.034348083396521e-06]
---
header: 
  seq: 1929
  stamp: 
    secs: 1518209655
    nsecs: 412094593
  frame_id: "swarmone/map"
child_frame_id: "swarmone/base_link"
pose: 
  pose: 
    position: 
      x: 0.619269377435
      y: 1.5932147019
      z: 0.0
    orientation: 
      x: 0.0
      y: 0.0
      z: 0.659384951015
      w: 0.751805484401
  covariance: [2.764951774126776, -0.21648477828364662, 0.0, 0.0, 0.0, 7.992888717401217e-16, -0.21648477828364654, 1.377588462993358, 0.0, 0.0, 0.0, 6.073861572925423e-15, 0.0, 0.0, 7.002216472662578e-07, -5.698944383445595e-14, 4.776694925273369e-18, 0.0, 0.0, 0.0, -5.698944383445595e-14, 7.002217126906827e-07, 9.085447433578894e-25, 0.0, 0.0, 0.0, 4.77669492527337e-18, 9.085464398384255e-25, 7.002217126906936e-07, 0.0, 7.992888717401218e-16, 6.073861572925424e-15, 0.0, 0.0, 0.0, 9.279115094325895e-08]
twist: 
  twist: 
    linear: 
      x: -5.27263505921e-13
      y: -0.0690882726
      z: 0.0
    angular: 
      x: 0.0
      y: 0.0
      z: 0.0399999999994
  covariance: [9.99999908839536e-10, 6.381305010182959e-13, 0.0, 0.0, 0.0, 5.464676406688522e-36, 6.381305010182959e-13, 1.6066009109063422, 0.0, 0.0, 0.0, -8.269874603602551e-27, 0.0, 0.0, 9.496430398407027e-07, -9.447127729328647e-27, 7.186203621585405e-26, 0.0, 0.0, 0.0, -9.447127729328641e-27, 7.002216472469349e-07, 1.082112014563736e-32, 0.0, 0.0, 0.0, 7.1862036215854e-26, 1.0430968265042474e-32, 7.002216472469349e-07, 0.0, 5.464676406688526e-36, -8.269874603602574e-27, 0.0, 0.0, 0.0, 1.8368230589814579e-06]
---
header: 
  seq: 1930
  stamp: 
    secs: 1518209655
    nsecs: 511744738
  frame_id: "swarmone/map"
child_frame_id: "swarmone/base_link"
pose: 
  pose: 
    position: 
      x: 0.626111718753
      y: 1.59231448097
      z: 0.0
    orientation: 
      x: 0.0
      y: 0.0
      z: 0.655617664932
      w: 0.755093025679
  covariance: [3.1198514738748435, -0.2580235195655359, 0.0, 0.0, 0.0, 3.2101975653189484e-16, -0.25802351956553576, 1.462125123989761, 0.0, 0.0, 0.0, 2.355579755820505e-15, 0.0, 0.0, 6.746420080772715e-07, -5.781825010707612e-14, 4.381308714293169e-18, 0.0, 0.0, 0.0, -5.781825010707612e-14, 6.74642074043195e-07, 7.789375560623394e-25, 0.0, 0.0, 0.0, 4.381308714293172e-18, 7.789358468301654e-25, 6.746420740432053e-07, 0.0, 3.210197565318948e-16, 2.355579755820505e-15, 0.0, 0.0, 0.0, 7.967812909687587e-08]
twist: 
  twist: 
    linear: 
      x: -4.77494731546e-13
      y: -0.0694224592685
      z: 0.0
    angular: 
      x: 0.0
      y: 0.0
      z: 0.0399999999995
  covariance: [9.999999091209786e-10, 5.864085916074809e-13, 0.0, 0.0, 0.0, 1.036840990229634e-42, 5.86408591607481e-13, 1.7364721502084806, 0.0, 0.0, 0.0, -1.7577234257935554e-33, 0.0, 0.0, 9.419806317003733e-07, -9.47530688122882e-27, 6.688898234213628e-26, 0.0, 0.0, 0.0, -9.475306881228821e-27, 6.746420080598349e-07, 9.299983305846315e-33, 0.0, 0.0, 0.0, 6.688898234213627e-26, 9.41232656126392e-33, 6.746420080598349e-07, 0.0, 1.0368409902296343e-42, -1.75772342579356e-33, 0.0, 0.0, 0.0, 1.5745626219699643e-06]
---
header: 
  seq: 1931
  stamp: 
    secs: 1518209655
    nsecs: 612276793
  frame_id: "swarmone/map"
child_frame_id: "swarmone/base_link"
pose: 
  pose: 
    position: 
      x: 0.637160278651
      y: 1.58522440587
      z: 0.0
    orientation: 
      x: 0.0
      y: 0.0
      z: 0.659384911338
      w: 0.7518055192
  covariance: [2.5972214290489988, -0.1979189296129633, 0.0, 0.0, 0.0, 2.4624616520991774e-13, -0.1979189296129633, 1.3343767988930406, 0.0, 0.0, 0.0, 1.7598522413631539e-12, 0.0, 0.0, 6.796104795908239e-07, -6.023068710274778e-14, 4.977778621426951e-18, 0.0, 0.0, 0.0, -6.023068710274778e-14, 6.796105455860698e-07, 9.36673053445767e-25, 0.0, 0.0, 0.0, 4.977778621426951e-18, 9.366741715502277e-25, 6.79610545586081e-07, 0.0, 2.462461652099178e-13, 1.759852241363154e-12, 0.0, 0.0, 0.0, 8.206231493458387e-08]
twist: 
  twist: 
    linear: 
      x: -5.37135758777e-13
      y: -0.0723864650071
      z: 0.0
    angular: 
      x: 0.0
      y: 0.0
      z: 0.0400000002923
  covariance: [9.999999101119755e-10, 6.648186265484229e-13, 0.0, 0.0, 0.0, 3.2270280533182545e-29, 6.648186265484227e-13, 1.5427183892745213, 0.0, 0.0, 0.0, -8.643784292233522e-20, 0.0, 0.0, 9.435425645634091e-07, -9.33059472524051e-27, 7.097493943897475e-26, 0.0, 0.0, 0.0, -9.330594725240506e-27, 6.796104795729135e-07, 9.885112851062926e-33, 0.0, 0.0, 0.0, 7.097493943897475e-26, 1.0096014213408405e-32, 6.796104795729135e-07, 0.0, 3.2270280533182545e-29, -8.643784292233525e-20, 0.0, 0.0, 0.0, 1.622246337789935e-06]
---
header: 
  seq: 1932
  stamp: 
    secs: 1518209655
    nsecs: 712495565
  frame_id: "swarmone/map"
child_frame_id: "swarmone/base_link"
pose: 
  pose: 
    position: 
      x: 0.644373171415
      y: 1.58427544889
      z: 0.0
    orientation: 
      x: 0.0
      y: 0.0
      z: 0.659384863185
      w: 0.751805561434
  covariance: [2.9327413596713927, -0.2370098371029422, 0.0, 0.0, 0.0, 3.144343536547929e-16, -0.23700983710294218, 1.4190591057142894, 0.0, 0.0, 0.0, 2.3890318942302573e-15, 0.0, 0.0, 6.844335926249247e-07, -6.04908550541087e-14, 4.472185950469005e-18, 0.0, 0.0, 0.0, -6.049085505410867e-14, 6.844336420540768e-07, 8.576124934384046e-25, 0.0, 0.0, 0.0, 4.472185950469005e-18, 8.576121688280826e-25, 6.844336420540884e-07, 0.0, 3.144343536547929e-16, 2.3890318942302573e-15, 0.0, 0.0, 0.0, 8.444650069025465e-08]
twist: 
  twist: 
    linear: 
      x: -4.85747699659e-13
      y: -0.0727969066158
      z: 0.0
    angular: 
      x: 0.0
      y: 0.0
      z: 0.0300000009977
  covariance: [9.999999096614022e-10, 6.101569401883782e-13, 0.0, 0.0, 0.0, 2.9497229964517536e-36, 6.101569401883781e-13, 1.6697108108127512, 0.0, 0.0, 0.0, -8.917419874367788e-27, 0.0, 0.0, 9.450226172733324e-07, -9.524714689469119e-27, 7.24466707343212e-26, 0.0, 0.0, 0.0, -9.524714689469112e-27, 6.844335926068259e-07, 1.0555904638056509e-32, 0.0, 0.0, 0.0, 7.244667073432115e-26, 1.023195907110219e-32, 6.844335926068259e-07, 0.0, 2.949722996451755e-36, -8.917419874367789e-27, 0.0, 0.0, 0.0, 1.6699300536111554e-06]
---
header: 
  seq: 1933
  stamp: 
    secs: 1518209655
    nsecs: 812237978
  frame_id: "swarmone/map"
child_frame_id: "swarmone/base_link"
pose: 
  pose: 
    position: 
      x: 0.656772630771
      y: 1.57779682824
      z: 0.0
    orientation: 
      x: 0.0
      y: 0.0
      z: 0.659384918038
      w: 0.751805513324
  covariance: [2.4390619209441424, -0.17911553874003716, 0.0, 0.0, 0.0, 5.0446506027341547e-14, -0.17911553874003708, 1.2906423424175757, 0.0, 0.0, 0.0, 3.917554017975424e-13, 0.0, 0.0, 6.795680331009601e-07, -6.36495176108556e-14, 4.919522755416203e-18, 0.0, 0.0, 0.0, -6.364951761085558e-14, 6.795680990833527e-07, 9.798304427234218e-25, 0.0, 0.0, 0.0, 4.919522755416203e-18, 9.798296301546302e-25, 6.795680990833654e-07, 0.0, 5.044650602734154e-14, 3.917554017975422e-13, 0.0, 0.0, 0.0, 8.206231488976795e-08]
twist: 
  twist: 
    linear: 
      x: -5.36233823695e-13
      y: -0.076499391987
      z: 0.0
    angular: 
      x: 0.0
      y: 0.0
      z: 0.039999998966
  covariance: [9.99999909203692e-10, 6.931636596632515e-13, 0.0, 0.0, 0.0, 1.6525109359115107e-29, 6.931636596632515e-13, 1.480637276062739, 0.0, 0.0, 0.0, -3.1980257376310456e-20, 0.0, 0.0, 9.435424324168578e-07, -9.855760593919779e-27, 7.49666939206307e-26, 0.0, 0.0, 0.0, -9.855760593919779e-27, 6.795680330830481e-07, 1.14517009190216e-32, 0.0, 0.0, 0.0, 7.49666939206307e-26, 1.1472755961369042e-32, 6.795680330830481e-07, 0.0, 1.6525109359115107e-29, -3.198025737631043e-20, 0.0, 0.0, 0.0, 1.6222463377903143e-06]
---
header: 
  seq: 1934
  stamp: 
    secs: 1518209655
    nsecs: 912382841
  frame_id: "swarmone/map"
child_frame_id: "swarmone/base_link"
pose: 
  pose: 
    position: 
      x: 0.664393207105
      y: 1.57679421634
      z: 0.0
    orientation: 
      x: 0.0
      y: 0.0
      z: 0.655617668495
      w: 0.755093022585
  covariance: [2.753690502142255, -0.21544459624854914, 0.0, 0.0, 0.0, 3.371024397731725e-16, -0.21544459624854895, 1.3749002933026544, 0.0, 0.0, 0.0, 2.467312046922086e-15, 0.0, 0.0, 6.771464410233529e-07, -6.410507974211228e-14, 4.474491553565163e-18, 0.0, 0.0, 0.0, -6.410507974211228e-14, 6.771465069616839e-07, 8.888409413051008e-25, 0.0, 0.0, 0.0, 4.474491553565164e-18, 8.88841110897034e-25, 6.771465069616966e-07, 0.0, 3.3710243977317256e-16, 2.4673120469220863e-15, 0.0, 0.0, 0.0, 8.087022200224928e-08]
twist: 
  twist: 
    linear: 
      x: -4.85208606387e-13
      y: -0.0770032155908
      z: 0.0
    angular: 
      x: 0.0
      y: 0.0
      z: 0.0399999999995
  covariance: [9.999999096024788e-10, 6.365729709443075e-13, 0.0, 0.0, 0.0, 1.5870828803971958e-36, 6.365729709443073e-13, 1.6039111670114465, 0.0, 0.0, 0.0, -3.458125629208984e-27, 0.0, 0.0, 9.427722571199223e-07, -1.0596866093740766e-26, 7.480316407205337e-26, 0.0, 0.0, 0.0, -1.0596866093740757e-26, 6.771464410057487e-07, 1.1566371437667909e-32, 0.0, 0.0, 0.0, 7.480316407205333e-26, 1.1903024683388395e-32, 6.771464410057487e-07, 0.0, 1.587082880397196e-36, -3.458125629208981e-27, 0.0, 0.0, 0.0, 1.5984044798806136e-06]
---
header: 
  seq: 1935
  stamp: 
    secs: 1518209656
    nsecs:  12142897
  frame_id: "swarmone/map"
child_frame_id: "swarmone/base_link"
pose: 
  pose: 
    position: 
      x: 0.672023811562
      y: 1.57571262727
      z: 0.0
    orientation: 
      x: 0.0
      y: 0.0
      z: 0.659384911215
      w: 0.751805519308
  covariance: [3.107261082490062, -0.2587105899764619, 0.0, 0.0, 0.0, 3.3931133558297244e-16, -0.25871058997646185, 1.4599010367132226, 0.0, 0.0, 0.0, 2.4827065281274883e-15, 0.0, 0.0, 6.796125902914811e-07, -6.448927628745722e-14, 4.03339820577252e-18, 0.0, 0.0, 0.0, -6.448927628745723e-14, 6.7961265628555e-07, 8.122810955960256e-25, 0.0, 0.0, 0.0, 4.033398205772517e-18, 8.122821127983344e-25, 6.79612656285563e-07, 0.0, 3.393113355829725e-16, 2.4827065281274883e-15, 0.0, 0.0, 0.0, 8.206231489005082e-08]
twist: 
  twist: 
    linear: 
      x: -4.3936402046e-13
      y: -0.0775051037702
      z: 0.0
    angular: 
      x: 0.0
      y: 0.0
      z: 0.0400000000002
  covariance: [9.99999909230505e-10, 5.84876353849296e-13, 0.0, 0.0, 0.0, 3.121577966084292e-43, 5.848763538492961e-13, 1.7337965948285923, 0.0, 0.0, 0.0, -7.649255472253373e-34, 0.0, 0.0, 9.435425711202966e-07, -9.991480595440334e-27, 7.599055676751062e-26, 0.0, 0.0, 0.0, -9.991480595440331e-27, 6.796125902737091e-07, 1.1364604586367508e-32, 0.0, 0.0, 0.0, 7.599055676751058e-26, 1.1414783861129342e-32, 6.796125902737091e-07, 0.0, 3.121577966084293e-43, -7.649255472253368e-34, 0.0, 0.0, 0.0, 1.6222463377903844e-06]
---
header: 
  seq: 1936
  stamp: 
    secs: 1518209656
    nsecs: 111737251
  frame_id: "swarmone/map"
child_frame_id: "swarmone/base_link"
pose: 
  pose: 
    position: 
      x: 0.685494430305
      y: 1.56820082342
      z: 0.0
    orientation: 
      x: 0.0
      y: 0.0
      z: 0.655617664777
      w: 0.755093025814
  covariance: [2.5832746529768436, -0.19644406405450024, 0.0, 0.0, 0.0, 2.538770085136422e-13, -0.1964440640545001, 1.330605601870911, 0.0, 0.0, 0.0, 1.9556140215784606e-12, 0.0, 0.0, 6.746399120040774e-07, -6.79976767622292e-14, 4.63995577414974e-18, 0.0, 0.0, 0.0, -6.79976767622292e-14, 6.746399779711608e-07, 9.707747809516734e-25, 0.0, 0.0, 0.0, 4.639955774149741e-18, 9.707748742748172e-25, 6.74639977971175e-07, 0.0, 2.538770085136421e-13, 1.9556140215784606e-12, 0.0, 0.0, 0.0, 7.96781291258957e-08]
twist: 
  twist: 
    linear: 
      x: -5.05215165459e-13
      y: -0.0816442789202
      z: 0.0
    angular: 
      x: 0.0
      y: 0.0
      z: 0.0399999993208
  covariance: [9.99999909185255e-10, 6.665924868885979e-13, 0.0, 0.0, 0.0, 3.555085578706709e-29, 6.665924868885982e-13, 1.5395253056097653, 0.0, 0.0, 0.0, -7.214657198129706e-20, 0.0, 0.0, 9.419806250321964e-07, -1.1144516173609435e-26, 7.866853907029777e-26, 0.0, 0.0, 0.0, -1.1144516173609435e-26, 6.746399119864816e-07, 1.30435193017304e-32, 0.0, 0.0, 0.0, 7.866853907029775e-26, 1.3048795440438117e-32, 6.746399119864816e-07, 0.0, 3.5550855787067083e-29, -7.214657198129702e-20, 0.0, 0.0, 0.0, 1.574562621968713e-06]
---
header: 
  seq: 1937
  stamp: 
    secs: 1518209656
    nsecs: 212274313
  frame_id: "swarmone/map"
child_frame_id: "swarmone/base_link"
pose: 
  pose: 
    position: 
      x: 0.693651749552
      y: 1.56704456509
      z: 0.0
    orientation: 
      x: 0.0
      y: 0.0
      z: 0.659384904104
      w: 0.751805525545
  covariance: [2.917970556069216, -0.2372018926116952, 0.0, 0.0, 0.0, 3.526525836190793e-16, -0.237201892611695, 1.4158956368356106, 0.0, 0.0, 0.0, 2.579832508451172e-15, 0.0, 0.0, 6.74642031500683e-07, -6.850380395154746e-14, 4.2317696665833286e-18, 0.0, 0.0, 0.0, -6.850380395154746e-14, 6.746420975566792e-07, 8.914760706434143e-25, 0.0, 0.0, 0.0, 4.231769666583328e-18, 8.914759088846953e-25, 6.746420975566936e-07, 0.0, 3.526525836190793e-16, 2.5798325084511717e-15, 0.0, 0.0, 0.0, 7.967812911451795e-08]
twist: 
  twist: 
    linear: 
      x: -4.56771274281e-13
      y: -0.0822526970623
      z: 0.0
    angular: 
      x: 0.0
      y: 0.0
      z: 0.0400000000002
  covariance: [9.999999099746451e-10, 6.116481759875613e-13, 0.0, 0.0, 0.0, 3.237911697339349e-36, 6.116481759875618e-13, 1.6667776798921412, 0.0, 0.0, 0.0, -7.401887218144865e-27, 0.0, 0.0, 9.419806317748954e-07, -1.0434429901168501e-26, 7.935894039201486e-26, 0.0, 0.0, 0.0, -1.0434429901168501e-26, 6.746420314832422e-07, 1.2230687249974062e-32, 0.0, 0.0, 0.0, 7.935894039201484e-26, 1.2216489859741486e-32, 6.746420314832422e-07, 0.0, 3.23791169733935e-36, -7.401887218144859e-27, 0.0, 0.0, 0.0, 1.5745626219708469e-06]
---
header: 
  seq: 1938
  stamp: 
    secs: 1518209656
    nsecs: 312554836
  frame_id: "swarmone/map"
child_frame_id: "swarmone/base_link"
pose: 
  pose: 
    position: 
      x: 0.705057800096
      y: 1.55912715134
      z: 0.0
    orientation: 
      x: 0.0
      y: 0.0
      z: 0.655617679286
      w: 0.755093013216
  covariance: [2.4308995709846117, -0.17958512091325585, 0.0, 0.0, 0.0, 6.543740331535053e-14, -0.17958512091325574, 1.288495100925437, 0.0, 0.0, 0.0, 5.118148222534727e-13, 0.0, 0.0, 6.843976209296706e-07, -7.062291862920312e-14, 4.991625659192479e-18, 0.0, 0.0, 0.0, -7.062291862920314e-14, 6.843976867427982e-07, 1.1197817307383453e-24, 0.0, 0.0, 0.0, 4.9916256591924785e-18, 1.1197805619912909e-24, 6.84397686742814e-07, 0.0, 6.543740331535051e-14, 5.118148222534728e-13, 0.0, 0.0, 0.0, 8.444650069156546e-08]
twist: 
  twist: 
    linear: 
      x: -5.41459040351e-13
      y: -0.0849947279048
      z: 0.0
    angular: 
      x: 0.0
      y: 0.0
      z: 0.0399999998307
  covariance: [9.999999097382036e-10, 6.983861359220114e-13, 0.0, 0.0, 0.0, 2.0510143327706208e-29, 6.983861359220116e-13, 1.479983390695804, 0.0, 0.0, 0.0, -3.8795717194415667e-20, 0.0, 0.0, 9.450225078613896e-07, -1.1960037181563739e-26, 8.442619014799582e-26, 0.0, 0.0, 0.0, -1.1960037181563745e-26, 6.84397620911408e-07, 1.5767973975144587e-32, 0.0, 0.0, 0.0, 8.442619014799585e-26, 1.5789909474348474e-32, 6.84397620911408e-07, 0.0, 2.051014332770621e-29, -3.8795717194415727e-20, 0.0, 0.0, 0.0, 1.6699300536111431e-06]
---
header: 
  seq: 1939
  stamp: 
    secs: 1518209656
    nsecs: 412776709
  frame_id: "swarmone/map"
child_frame_id: "swarmone/base_link"
pose: 
  pose: 
    position: 
      x: 0.713524991779
      y: 1.55792696858
      z: 0.0
    orientation: 
      x: 0.0
      y: 0.0
      z: 0.659384922005
      w: 0.751805509845
  covariance: [2.744682629326799, -0.21760079467610338, 0.0, 0.0, 0.0, 3.915876615225943e-16, -0.21760079467610324, 1.373175525335467, 0.0, 0.0, 0.0, 2.8652897876210595e-15, 0.0, 0.0, 6.86790086815084e-07, -7.112477893573677e-14, 4.5097221559573996e-18, 0.0, 0.0, 0.0, -7.112477893573676e-14, 6.867901526678554e-07, 1.0245814432107315e-24, 0.0, 0.0, 0.0, 4.5097221559573996e-18, 1.0245803506915498e-24, 6.867901526678716e-07, 0.0, 3.915876615225943e-16, 2.8652897876210603e-15, 0.0, 0.0, 0.0, 8.563859358583883e-08]
twist: 
  twist: 
    linear: 
      x: -4.89863799515e-13
      y: -0.0856632326426
      z: 0.0
    angular: 
      x: 0.0
      y: 0.0
      z: 0.0400000000002
  covariance: [9.99999909677889e-10, 6.412975903383628e-13, 0.0, 0.0, 0.0, 1.9534599203525098e-36, 6.412975903383627e-13, 1.6033471578140568, 0.0, 0.0, 0.0, -4.159525267247137e-27, 0.0, 0.0, 9.457339169826647e-07, -1.1288229194733995e-26, 8.585360642546631e-26, 0.0, 0.0, 0.0, -1.1288229194733994e-26, 6.867900867967885e-07, 1.475575068821803e-32, 0.0, 0.0, 0.0, 8.585360642546629e-26, 1.4580587248201166e-32, 6.867900867967885e-07, 0.0, 1.9534599203525088e-36, -4.159525267247142e-27, 0.0, 0.0, 0.0, 1.693771911521315e-06]
---
header: 
  seq: 1940
  stamp: 
    secs: 1518209656
    nsecs: 512375832
  frame_id: "swarmone/map"
child_frame_id: "swarmone/base_link"
pose: 
  pose: 
    position: 
      x: 0.722016886307
      y: 1.55680978431
      z: 0.0
    orientation: 
      x: 0.0
      y: 0.0
      z: 0.659384863185
      w: 0.751805561434
  covariance: [3.0974671147856143, -0.2591694026192129, 0.0, 0.0, 0.0, 3.800907524346759e-16, -0.25916940261921273, 1.4577157749511491, 0.0, 0.0, 0.0, 2.888446646019386e-15, 0.0, 0.0, 6.844335771704488e-07, -7.173421514775937e-14, 4.059289116254122e-18, 0.0, 0.0, 0.0, -7.173421514775936e-14, 6.844336265995919e-07, 9.232327334436779e-25, 0.0, 0.0, 0.0, 4.059289116254122e-18, 9.232326348810668e-25, 6.844336265996082e-07, 0.0, 3.80090752434676e-16, 2.8884466460193862e-15, 0.0, 0.0, 0.0, 8.44465006778562e-08]
twist: 
  twist: 
    linear: 
      x: -4.43649146588e-13
      y: -0.0863275840182
      z: 0.0
    angular: 
      x: 0.0
      y: 0.0
      z: 0.0300000010039
  covariance: [9.999999090695294e-10, 5.893108306293411e-13, 0.0, 0.0, 0.0, 3.6574113869200695e-43, 5.893108306293407e-13, 1.733015633042321, 0.0, 0.0, 0.0, -8.753707540605962e-34, 0.0, 0.0, 9.4502261722641e-07, -1.1296550666077994e-26, 8.591204121314841e-26, 0.0, 0.0, 0.0, -1.129655066607799e-26, 6.844335771523156e-07, 1.4661373932057556e-32, 0.0, 0.0, 0.0, 8.591204121314837e-26, 1.4665699111724381e-32, 6.844335771523156e-07, 0.0, 3.657411386920068e-43, -8.753707540605972e-34, 0.0, 0.0, 0.0, 1.6699300536105354e-06]
---
header: 
  seq: 1941
  stamp: 
    secs: 1518209656
    nsecs: 612066746
  frame_id: "swarmone/map"
child_frame_id: "swarmone/base_link"
pose: 
  pose: 
    position: 
      x: 0.734401570403
      y: 1.5496468319
      z: 0.0
    orientation: 
      x: 0.0
      y: 0.0
      z: 0.659385434372
      w: 0.751805060464
