header: 
  seq: 3844
  stamp: 
    secs: 1518209846
    nsecs: 912582636
  frame_id: "swarmone/map"
child_frame_id: "swarmone/base_link"
pose: 
  pose: 
    position: 
      x: 0.902902342193
      y: 0.81418102293
      z: 0.0
    orientation: 
      x: 0.0
      y: 0.0
      z: 0.688921686794
      w: 0.724835781032
  covariance: [2.3885660697487143, -0.07083919750484623, 0.0, 0.0, 0.0, -3.4973704581640585e-18, -0.07083919750484621, 1.2374156769741271, 0.0, 0.0, 0.0, -7.795175847939161e-17, 0.0, 0.0, 6.771464498723483e-07, 1.9478057072349064e-15, 1.9971503122544872e-18, 0.0, 0.0, 0.0, 1.947805707234907e-15, 6.771465163839192e-07, -1.2049655009623794e-26, 0.0, 0.0, 0.0, 1.9971503122544872e-18, -1.2048992584027038e-26, 6.771465163839192e-07, 0.0, -3.497370458164058e-18, -7.795175847939161e-17, 0.0, 0.0, 0.0, 8.087022200905069e-08]
twist: 
  twist: 
    linear: 
      x: -2.16068485515e-13
      y: 0.00233969693462
      z: 0.0
    angular: 
      x: 0.0
      y: 0.0
      z: 0.0399999999995
  covariance: [9.999999099445192e-10, 2.9610782509257253e-13, 0.0, 0.0, 0.0, -4.549795646692181e-38, 2.961078250925726e-13, 1.464777550266365, 0.0, 0.0, 0.0, 3.413929130111813e-29, 0.0, 0.0, 9.427722571477279e-07, 1.1890753165029019e-28, -2.292482063413995e-27, 0.0, 0.0, 0.0, 1.1890753165029019e-28, 6.771464498548167e-07, 2.751060984568108e-35, 0.0, 0.0, 0.0, -2.2924820634139946e-27, -2.750867533236878e-35, 6.771464498548167e-07, 0.0, -4.5497956466921817e-38, 3.4139291301118185e-29, 0.0, 0.0, 0.0, 1.5984044798809537e-06]
---
header: 
  seq: 3845
  stamp: 
    secs: 1518209847
    nsecs:  12038946
  frame_id: "swarmone/map"
child_frame_id: "swarmone/base_link"
pose: 
  pose: 
    position: 
      x: 0.902676559697
      y: 0.814192461009
      z: 0.0
    orientation: 
      x: 0.0
      y: 0.0
      z: 0.681639741495
      w: 0.731687954537
  covariance: [2.7060361479964143, -0.08507341431341886, 0.0, 0.0, 0.0, -9.96007689458657e-18, -0.08507341431341882, 1.3176287898248735, 0.0, 0.0, 0.0, -1.5268962313316073e-16, 0.0, 0.0, 8.522682464392319e-07, 1.2686293076369743e-15, 1.2349659655765042e-18, 0.0, 0.0, 0.0, 1.2686293076369739e-15, 8.52268303788208e-07, -1.0605476215233351e-26, 0.0, 0.0, 0.0, 1.234965965576504e-18, -1.0604777899062476e-26, 8.52268303788208e-07, 0.0, -9.96007689458657e-18, -1.526896231331607e-16, 0.0, 0.0, 0.0, 2.6445252789839895e-07]
twist: 
  twist: 
    linear: 
      x: -1.95699221429e-13
      y: 0.0022064586674
      z: 0.0
    angular: 
      x: 0.0
      y: 0.0
      z: 0.0499999989934
  covariance: [9.999999089319711e-10, 2.723901174745561e-13, 0.0, 0.0, 0.0, -1.3802870634967402e-44, 2.7239011747455614e-13, 1.58701159759194, 0.0, 0.0, 0.0, 1.1643748903130862e-35, 0.0, 0.0, 9.815465822236421e-07, 1.7211319913519213e-28, -2.3939654419883743e-27, 0.0, 0.0, 0.0, 1.7211319913519213e-28, 8.522682464064628e-07, -3.760763445677823e-35, 0.0, 0.0, 0.0, -2.393965441988375e-27, 5.26543792038616e-35, 8.522682464064628e-07, 0.0, -1.3802870634967404e-44, 1.1643748903130873e-35, 0.0, 0.0, 0.0, 5.270050598043948e-06]
---
header: 
  seq: 3846
  stamp: 
    secs: 1518209847
    nsecs: 112456322
  frame_id: "swarmone/map"
child_frame_id: "swarmone/base_link"
pose: 
  pose: 
    position: 
      x: 0.906668375622
      y: 0.814781722002
      z: 0.0
    orientation: 
      x: 0.0
      y: 0.0
      z: 0.692537214596
      w: 0.721382150043
  covariance: [2.2452488247695577, -0.06648901174682029, 0.0, 0.0, 0.0, 7.933926305130366e-16, -0.06648901174682022, 1.1982685513871356, 0.0, 0.0, 0.0, 1.1111302054931903e-14, 0.0, 0.0, 6.796102201692354e-07, -4.204196463095654e-16, 1.482059088949623e-18, 0.0, 0.0, 0.0, -4.204196463095654e-16, 6.796102866787281e-07, 1.94509571906798e-27, 0.0, 0.0, 0.0, 1.4820590889496234e-18, 1.9451066145845974e-27, 6.796102866787281e-07, 0.0, 7.933926305130367e-16, 1.1111302054931903e-14, 0.0, 0.0, 0.0, 8.206231493037429e-08]
twist: 
  twist: 
    linear: 
      x: -1.60322388308e-13
      y: -0.00050528819867
      z: 0.0
    angular: 
      x: 0.0
      y: 0.0
      z: 0.04000000224
  covariance: [9.999999099980608e-10, 3.0318307877992195e-13, 0.0, 0.0, 0.0, -4.127229465708115e-30, 3.0318307877992185e-13, 1.4068037276947996, 0.0, 0.0, 0.0, 7.730231394453756e-21, 0.0, 0.0, 9.435425637574531e-07, -1.8618405312795935e-29, 4.993158021481818e-28, 0.0, 0.0, 0.0, -1.861840531279593e-29, 6.79610220151398e-07, -1.858695919466153e-36, 0.0, 0.0, 0.0, 4.993158021481818e-28, 1.858695920185001e-36, 6.79610220151398e-07, 0.0, -4.127229465708111e-30, 7.730231394453749e-21, 0.0, 0.0, 0.0, 1.6222463377898383e-06]
---
header: 
  seq: 3847
  stamp: 
    secs: 1518209847
    nsecs: 211954355
  frame_id: "swarmone/map"
child_frame_id: "swarmone/base_link"
pose: 
  pose: 
    position: 
      x: 0.90672883599
      y: 0.81477921785
      z: 0.0
    orientation: 
      x: 0.0
      y: 0.0
      z: 0.688921693778
      w: 0.724835774394
  covariance: [2.5439387577509613, -0.07843051943969681, 0.0, 0.0, 0.0, 1.0417424901754888e-18, -0.07843051943969671, 1.2783640554044968, 0.0, 0.0, 0.0, 2.167352636580969e-17, 0.0, 0.0, 6.82041352376622e-07, -5.912611306792164e-16, 1.3247516091774844e-18, 0.0, 0.0, 0.0, -5.912611306792162e-16, 6.820414188122543e-07, 2.4634209316498208e-27, 0.0, 0.0, 0.0, 1.3247516091774844e-18, 2.4634721675489234e-27, 6.820414188122543e-07, 0.0, 1.041742490175489e-18, 2.1673526365809695e-17, 0.0, 0.0, 0.0, 8.325440778028784e-08]
twist: 
  twist: 
    linear: 
      x: -1.45067681529e-13
      y: -0.000711054459972
      z: 0.0
    angular: 
      x: 0.0
      y: 0.0
      z: 0.0399999999995
  covariance: [9.999999089477438e-10, 2.7861629360652123e-13, 0.0, 0.0, 0.0, -3.801736219127565e-37, 2.7861629360652113e-13, 1.5257079678725876, 0.0, 0.0, 0.0, 8.0625714049660975e-28, 0.0, 0.0, 9.442924229390621e-07, -3.438857035169566e-29, 7.076628135092637e-28, 0.0, 0.0, 0.0, -3.4388570351695653e-29, 6.820413523587598e-07, 5.374225000570874e-35, 0.0, 0.0, 0.0, 7.076628135092634e-28, -5.374225000570873e-35, 6.820413523587598e-07, 0.0, -3.801736219127563e-37, 8.062571404966088e-28, 0.0, 0.0, 0.0, 1.6460881957002767e-06]
---
header: 
  seq: 3848
  stamp: 
    secs: 1518209847
    nsecs: 312359571
  frame_id: "swarmone/map"
child_frame_id: "swarmone/base_link"
pose: 
  pose: 
    position: 
      x: 0.907348430162
      y: 0.815544797298
      z: 0.0
    orientation: 
      x: 0.0
      y: 0.0
      z: 0.681639074111
      w: 0.73168857627
  covariance: [2.1129644582117737, -0.058704512283793336, 0.0, 0.0, 0.0, 2.0836661995368952e-16, -0.05870451228379326, 1.159325506224851, 0.0, 0.0, 0.0, 4.333187200707098e-15, 0.0, 0.0, 6.795440784969481e-07, -1.0367927598190199e-15, 1.0536155618345428e-18, 0.0, 0.0, 0.0, -1.03679275981902e-15, 6.795441614727583e-07, 3.419192623775413e-27, 0.0, 0.0, 0.0, 1.0536155618345428e-18, 3.4205096621091626e-27, 6.795441614727583e-07, 0.0, 2.083666199536895e-16, 4.333187200707097e-15, 0.0, 0.0, 0.0, 8.206231490295774e-08]
twist: 
  twist: 
    linear: 
      x: -1.14154020226e-13
      y: -0.00124616416619
      z: 0.0
    angular: 
      x: 0.0
      y: 0.0
      z: 0.0499999988372
  covariance: [9.999999098598873e-10, 3.081905969920597e-13, 0.0, 0.0, 0.0, 1.426778766925744e-31, 3.081905969920595e-13, 1.351673522897838, 0.0, 0.0, 0.0, -1.1103899722869567e-22, 0.0, 0.0, 9.435423575940011e-07, -8.584782755938774e-29, 1.2282831794132723e-27, 0.0, 0.0, 0.0, -8.584782755938777e-29, 6.795440784791201e-07, -1.4905410778633835e-35, 0.0, 0.0, 0.0, 1.2282831794132725e-27, 1.5030922110233543e-35, 6.795440784791201e-07, 0.0, 1.4267787669257443e-31, -1.1103899722869585e-22, 0.0, 0.0, 0.0, 1.6222463377910049e-06]
---
header: 
  seq: 3849
  stamp: 
    secs: 1518209847
    nsecs: 411741018
  frame_id: "swarmone/map"
child_frame_id: "swarmone/base_link"
pose: 
  pose: 
    position: 
      x: 0.90748260776
      y: 0.815535256903
      z: 0.0
    orientation: 
      x: 0.0
      y: 0.0
      z: 0.68528889764
      w: 0.728271327715
  covariance: [2.3928951085200025, -0.07403353559181379, 0.0, 0.0, 0.0, 3.0167488280723743e-18, -0.07403353559181373, 1.2396185723621944, 0.0, 0.0, 0.0, 4.545490596813246e-17, 0.0, 0.0, 6.771464210331682e-07, -1.2161973722998256e-15, 9.441044451346662e-19, 0.0, 0.0, 0.0, -1.2161973722998262e-15, 6.771464875079276e-07, 3.55640492485627e-27, 0.0, 0.0, 0.0, 9.441044451346662e-19, 3.557182209593898e-27, 6.771464875079276e-07, 0.0, 3.0167488280723743e-18, 4.545490596813246e-17, 0.0, 0.0, 0.0, 8.087022198690833e-08]
twist: 
  twist: 
    linear: 
      x: -1.03376722194e-13
      y: -0.00146091851377
      z: 0.0
    angular: 
      x: 0.0
      y: 0.0
      z: 0.0400000010064
  covariance: [9.99999908846668e-10, 2.834216811022248e-13, 0.0, 0.0, 0.0, 1.4211600900213742e-38, 2.8342168110222475e-13, 1.4671361365625502, 0.0, 0.0, 0.0, -1.2462193482478497e-29, 0.0, 0.0, 9.427722570571011e-07, -8.597571731496243e-29, 1.4307417475874346e-27, 0.0, 0.0, 0.0, -8.597571731496239e-29, 6.771464210156407e-07, -5.194855958234614e-35, 0.0, 0.0, 0.0, 1.4307417475874341e-27, 5.194957787631787e-35, 6.771464210156407e-07, 0.0, 1.4211600900213742e-38, -1.2462193482478515e-29, 0.0, 0.0, 0.0, 1.5984044798798466e-06]
---
header: 
  seq: 3850
  stamp: 
    secs: 1518209847
    nsecs: 512212038
  frame_id: "swarmone/map"
child_frame_id: "swarmone/base_link"
pose: 
  pose: 
    position: 
      x: 0.907640001456
      y: 0.815525654872
      z: 0.0
    orientation: 
      x: 0.0
      y: 0.0
      z: 0.688921661998
      w: 0.7248358046
  covariance: [2.714011227232151, -0.09043094295415043, 0.0, 0.0, 0.0, 2.866277224033395e-18, -0.0904309429541504, 1.3208242437298539, 0.0, 0.0, 0.0, 5.09027382345744e-17, 0.0, 0.0, 6.695147907038865e-07, -1.3982233301608309e-15, 8.654316533771528e-19, 0.0, 0.0, 0.0, -1.3982233301608309e-15, 6.695148572765021e-07, 3.66225380401865e-27, 0.0, 0.0, 0.0, 8.65431653377153e-19, 3.6614060255556325e-27, 6.695148572765021e-07, 0.0, 2.866277224033395e-18, 5.0902738234574393e-17, 0.0, 0.0, 0.0, 7.729394332219506e-08]
twist: 
  twist: 
    linear: 
      x: -9.35431870022e-14
      y: -0.00167802737969
      z: 0.0
    angular: 
      x: 0.0
      y: 0.0
      z: 0.0400000000002
  covariance: [9.99999909936422e-10, 2.604204042245087e-13, 0.0, 0.0, 0.0, 3.428125421456559e-45, 2.604204042245086e-13, 1.590797865653045, 0.0, 0.0, 0.0, -3.389240693719632e-36, 0.0, 0.0, 9.403298087491584e-07, -8.049103988030165e-29, 1.6027988624896908e-27, 0.0, 0.0, 0.0, -8.049103988030162e-29, 6.695147906868715e-07, -1.8134510360395225e-35, 0.0, 0.0, 0.0, 1.602798862489691e-27, 1.8136340918767053e-35, 6.695147906868715e-07, 0.0, 3.428125421456559e-45, -3.389240693719638e-36, 0.0, 0.0, 0.0, 1.5268789061504696e-06]
---
header: 
  seq: 3851
  stamp: 
    secs: 1518209847
    nsecs: 612711906
  frame_id: "swarmone/map"
child_frame_id: "swarmone/base_link"
pose: 
  pose: 
    position: 
      x: 0.90843607455
      y: 0.817784011901
      z: 0.0
    orientation: 
      x: 0.0
      y: 0.0
      z: 0.692537295491
      w: 0.721382072382
  covariance: [2.2548555434619777, -0.06778255932670878, 0.0, 0.0, 0.0, 2.653255040424175e-15, -0.06778255932670875, 1.2016811773234481, 0.0, 0.0, 0.0, 5.408151765137336e-14, 0.0, 0.0, 6.844313542717894e-07, -1.8677575891054623e-15, 3.4858391510389037e-19, 0.0, 0.0, 0.0, -1.867757589105463e-15, 6.844314372957557e-07, 2.063929904057827e-27, 0.0, 0.0, 0.0, 3.4858391510389027e-19, 2.063657450593465e-27, 6.844314372957557e-07, 0.0, 2.6532550404241734e-15, 5.4081517651373354e-14, 0.0, 0.0, 0.0, 8.444650072297671e-08]
twist: 
  twist: 
    linear: 
      x: -3.7716788478e-14
      y: -0.00224773532023
      z: 0.0
    angular: 
      x: 0.0
      y: 0.0
      z: 0.0499999992869
  covariance: [9.99999910079878e-10, 2.995818455853076e-13, 0.0, 0.0, 0.0, 9.360347406837262e-31, 2.995818455853074e-13, 1.411391557028745, 0.0, 0.0, 0.0, -6.200775134863753e-22, 0.0, 0.0, 9.450226104766496e-07, -9.159770906573821e-29, 2.254328754218778e-27, 0.0, 0.0, 0.0, -9.159770906573827e-29, 6.844313542536235e-07, 1.0568585150664499e-35, 0.0, 0.0, 0.0, 2.254328754218779e-27, -1.0543844483384494e-35, 6.844313542536235e-07, 0.0, 9.360347406837268e-31, -6.200775134863777e-22, 0.0, 0.0, 0.0, 1.6699300536101995e-06]
---
header: 
  seq: 3852
  stamp: 
    secs: 1518209847
    nsecs: 712192774
  frame_id: "swarmone/map"
child_frame_id: "swarmone/base_link"
pose: 
  pose: 
    position: 
      x: 0.908670653933
      y: 0.817774427351
      z: 0.0
    orientation: 
      x: 0.0
      y: 0.0
      z: 0.688921627106
      w: 0.724835837763
  covariance: [2.5546136954897447, -0.07986339643980139, 0.0, 0.0, 0.0, 3.6148775750783446e-18, -0.07986339643980137, 1.2817725362612167, 0.0, 0.0, 0.0, 7.87773242424651e-17, 0.0, 0.0, 6.746420035536193e-07, -2.0590024297326106e-15, 3.1214771679769393e-19, 0.0, 0.0, 0.0, -2.0590024297326106e-15, 6.746420534582146e-07, 1.9755909951059447e-27, 0.0, 0.0, 0.0, 3.12147716797694e-19, 1.975547461984621e-27, 6.746420534582146e-07, 0.0, 3.6148775750783446e-18, 7.877732424246511e-17, 0.0, 0.0, 0.0, 7.967812909342052e-08]
twist: 
  twist: 
    linear: 
      x: -3.41293912882e-14
      y: -0.00247226794883
      z: 0.0
    angular: 
      x: 0.0
      y: 0.0
      z: 0.0300000020099
  covariance: [9.99999908930089e-10, 2.752711955790715e-13, 0.0, 0.0, 0.0, 8.627271858223949e-38, 2.752711955790712e-13, 1.5305465186059597, 0.0, 0.0, 0.0, -6.420932988187974e-29, 0.0, 0.0, 9.419806316859984e-07, -1.217898561648018e-28, 2.4027107965854375e-27, 0.0, 0.0, 0.0, -1.2178985616480171e-28, 6.746420035362567e-07, 7.932804186885418e-36, 0.0, 0.0, 0.0, 2.4027107965854368e-27, -1.9122173795633478e-36, 6.746420035362567e-07, 0.0, 8.627271858223945e-38, -6.420932988187998e-29, 0.0, 0.0, 0.0, 1.5745626219697917e-06]
---
header: 
  seq: 3853
  stamp: 
    secs: 1518209847
    nsecs: 812571287
  frame_id: "swarmone/map"
child_frame_id: "swarmone/base_link"
pose: 
  pose: 
    position: 
      x: 0.908922997797
      y: 0.818105540783
      z: 0.0
    orientation: 
      x: 0.0
      y: 0.0
      z: 0.685288914258
      w: 0.728271312077
  covariance: [2.1247631358568806, -0.05984840461537829, 0.0, 0.0, 0.0, 3.5307196103181037e-16, -0.059848404615378235, 1.163421089755061, 0.0, 0.0, 0.0, 7.340579869230405e-15, 0.0, 0.0, 6.795234086730657e-07, -2.238689454470168e-15, 2.170757398473582e-19, 0.0, 0.0, 0.0, -2.2386894544701685e-15, 6.795234750883258e-07, 1.5225231787255224e-27, 0.0, 0.0, 0.0, 2.1707573984735825e-19, 1.5232055147897692e-27, 6.795234750883258e-07, 0.0, 3.530719610318104e-16, 7.340579869230406e-15, 0.0, 0.0, 0.0, 8.206231490240239e-08]
twist: 
  twist: 
    linear: 
      x: -2.35176321878e-14
      y: -0.00269082608974
      z: 0.0
    angular: 
      x: 0.0
      y: 0.0
      z: 0.0399999989331
  covariance: [9.999999098328318e-10, 3.0938973241391467e-13, 0.0, 0.0, 0.0, 3.4006143459179015e-31, 3.0938973241391436e-13, 1.3568920543681842, 0.0, 0.0, 0.0, -2.405223749539331e-22, 0.0, 0.0, 9.435422928878708e-07, -1.6123706688380252e-28, 2.6530947871743477e-27, 0.0, 0.0, 0.0, -1.6123706688380257e-28, 6.795234086552401e-07, -4.126063693424758e-35, 0.0, 0.0, 0.0, 2.653094787174348e-27, 6.593160226219057e-35, 6.795234086552401e-07, 0.0, 3.400614345917901e-31, -2.405223749539334e-22, 0.0, 0.0, 0.0, 1.622246337790987e-06]
---
header: 
  seq: 3854
  stamp: 
    secs: 1518209847
    nsecs: 912048578
  frame_id: "swarmone/map"
child_frame_id: "swarmone/base_link"
pose: 
  pose: 
    position: 
      x: 0.909201312284
      y: 0.818088595971
      z: 0.0
    orientation: 
      x: 0.0
      y: 0.0
      z: 0.692537213974
      w: 0.721382150639
  covariance: [2.4065566807157635, -0.07387170653789242, 0.0, 0.0, 0.0, 4.671622541738707e-18, -0.07387170653789238, 1.243686975697003, 0.0, 0.0, 0.0, 9.175536359092308e-17, 0.0, 0.0, 6.746420034566571e-07, -2.4277920994984635e-15, 1.9484726983566269e-19, 0.0, 0.0, 0.0, -2.4277920994984635e-15, 6.746420700264372e-07, 1.4537140950019628e-27, 0.0, 0.0, 0.0, 1.9484726983566266e-19, 1.45415151159772e-27, 6.746420700264372e-07, 0.0, 4.671622541738708e-18, 9.175536359092308e-17, 0.0, 0.0, 0.0, 7.96781290933367e-08]
twist: 
  twist: 
    linear: 
      x: -2.12967254849e-14
      y: -0.00291507455758
      z: 0.0
    angular: 
      x: 0.0
      y: 0.0
      z: 0.0400000000005
  covariance: [9.999999089435965e-10, 2.845252346788551e-13, 0.0, 0.0, 0.0, 3.4646212474648595e-38, 2.8452523467885506e-13, 1.472766388140284, 0.0, 0.0, 0.0, -2.7584377972683267e-29, 0.0, 0.0, 9.419806316856941e-07, -1.1546460214687494e-28, 2.8343486974349237e-27, 0.0, 0.0, 0.0, -1.154646021468749e-28, 6.746420034392986e-07, -3.5514378015199626e-35, 0.0, 0.0, 0.0, 2.8343486974349237e-27, 5.425853770852362e-36, 6.746420034392986e-07, 0.0, 3.4646212474648616e-38, -2.75843779726833e-29, 0.0, 0.0, 0.0, 1.5745626219697877e-06]
---
header: 
  seq: 3855
  stamp: 
    secs: 1518209848
    nsecs:  12586117
  frame_id: "swarmone/map"
child_frame_id: "swarmone/base_link"
pose: 
  pose: 
    position: 
      x: 0.909505526042
      y: 0.818076172815
      z: 0.0
    orientation: 
      x: 0.0
      y: 0.0
      z: 0.688921683334
      w: 0.724835784321
  covariance: [2.729843368655066, -0.08692154664209396, 0.0, 0.0, 0.0, 4.483026340450232e-18, -0.08692154664209394, 1.3246651325988024, 0.0, 0.0, 0.0, 9.7582275199349e-17, 0.0, 0.0, 6.74642031513083e-07, -2.6165471063664037e-15, 1.7839872987446884e-19, 0.0, 0.0, 0.0, -2.6165471063664033e-15, 6.746420980523526e-07, 1.4352177417340368e-27, 0.0, 0.0, 0.0, 1.7839872987446887e-19, 1.4348356076069029e-27, 6.746420980523527e-07, 0.0, 4.483026340450232e-18, 9.758227519934902e-17, 0.0, 0.0, 0.0, 7.967812911452739e-08]
twist: 
  twist: 
    linear: 
      x: -1.92695327819e-14
      y: -0.00314171311745
      z: 0.0
    angular: 
      x: 0.0
      y: 0.0
      z: 0.0399999999996
  covariance: [9.999999100024481e-10, 2.6142249126004013e-13, 0.0, 0.0, 0.0, 9.564055526912002e-45, 2.6142249126003993e-13, 1.5968281458119409, 0.0, 0.0, 0.0, -8.577265455927485e-36, 0.0, 0.0, 9.419806317749352e-07, -1.5502339893587333e-28, 3.0533153224858247e-27, 0.0, 0.0, 0.0, -1.550233989358733e-28, 6.746420314957285e-07, 1.7073876325636313e-35, 0.0, 0.0, 0.0, 3.0533153224858243e-27, 9.847187596898528e-37, 6.746420314957285e-07, 0.0, 9.564055526912002e-45, -8.577265455927489e-36, 0.0, 0.0, 0.0, 1.5745626219708473e-06]
---
header: 
  seq: 3856
  stamp: 
    secs: 1518209848
    nsecs: 112047911
  frame_id: "swarmone/map"
child_frame_id: "swarmone/base_link"
pose: 
  pose: 
    position: 
      x: 0.909935643752
      y: 0.819956038625
      z: 0.0
    orientation: 
      x: 0.0
      y: 0.0
      z: 0.685288907956
      w: 0.728271318008
  covariance: [2.2675540418865237, -0.06539602887847432, 0.0, 0.0, 0.0, 4.016664061656319e-15, -0.06539602887847433, 1.2053997241238823, 0.0, 0.0, 0.0, 8.219900505268436e-14, 0.0, 0.0, 6.746395057810188e-07, -2.8412970867781457e-15, -1.9491154129525688e-19, 0.0, 0.0, 0.0, -2.8412970867781457e-15, 6.746395722844016e-07, -1.7016187603799596e-27, 0.0, 0.0, 0.0, -1.9491154129525683e-19, -1.70194697147959e-27, 6.746395722844016e-07, 0.0, 4.0166640616563185e-15, 8.219900505268436e-14, 0.0, 0.0, 0.0, 7.96781291190622e-08]
twist: 
  twist: 
    linear: 
      x: 2.13009561498e-14
      y: -0.00341154347251
      z: 0.0
    angular: 
      x: 0.0
      y: 0.0
      z: 0.0399999993106
  covariance: [9.99999909048874e-10, 2.933320431563215e-13, 0.0, 0.0, 0.0, 1.791329956408287e-30, 2.933320431563211e-13, 1.4161987410868293, 0.0, 0.0, 0.0, -1.383507809281899e-21, 0.0, 0.0, 9.419806237397842e-07, -2.0194443442854286e-28, 3.3138252410264874e-27, 0.0, 0.0, 0.0, -2.019444344285428e-28, 6.746395057635139e-07, 2.1565978575381315e-35, 0.0, 0.0, 0.0, 3.313825241026487e-27, -9.79048917935168e-37, 6.746395057635139e-07, 0.0, 1.791329956408288e-30, -1.3835078092819005e-21, 0.0, 0.0, 0.0, 1.5745626219685461e-06]
---
header: 
  seq: 3857
  stamp: 
    secs: 1518209848
    nsecs: 212564945
  frame_id: "swarmone/map"
child_frame_id: "swarmone/base_link"
pose: 
  pose: 
    position: 
      x: 0.910289348207
      y: 0.819934514241
      z: 0.0
    orientation: 
      x: 0.0
      y: 0.0
      z: 0.688921675826
      w: 0.724835791457
  covariance: [2.571728480187806, -0.08056472468443898, 0.0, 0.0, 0.0, 6.4111356121058715e-18, -0.08056472468443897, 1.2865544335319952, 0.0, 0.0, 0.0, 1.1515087412983928e-16, 0.0, 0.0, 6.796126096646556e-07, -3.0280153279649435e-15, -1.7781026127694253e-19, 0.0, 0.0, 0.0, -3.028015327964944e-15, 6.796126761415309e-07, -1.6805096382195267e-27, 0.0, 0.0, 0.0, -1.778102612769426e-19, -1.6798499749356722e-27, 6.796126761415309e-07, 0.0, 6.411135612105871e-18, 1.1515087412983928e-16, 0.0, 0.0, 0.0, 8.206231490514303e-08]
twist: 
  twist: 
    linear: 
      x: 1.92560147449e-14
      y: -0.00363917629331
      z: 0.0
    angular: 
      x: 0.0
      y: 0.0
      z: 0.0400000000002
  covariance: [9.999999099574365e-10, 2.6930500765108057e-13, 0.0, 0.0, 0.0, 1.6313982661409734e-37, 2.693050076510803e-13, 1.5368892279130761, 0.0, 0.0, 0.0, -1.4214782388650713e-28, 0.0, 0.0, 9.435425711804688e-07, -1.8293381207917997e-28, 3.594095898624968e-27, 0.0, 0.0, 0.0, -1.8293381207917988e-28, 6.796126096469639e-07, 6.778414253794033e-37, 0.0, 0.0, 0.0, 3.594095898624968e-27, 1.516171087414579e-35, 6.796126096469639e-07, 0.0, 1.631398266140974e-37, -1.421478238865073e-28, 0.0, 0.0, 0.0, 1.6222463377911391e-06]
---
header: 
  seq: 3858
  stamp: 
    secs: 1518209848
    nsecs: 312023878
  frame_id: "swarmone/map"
child_frame_id: "swarmone/base_link"
pose: 
  pose: 
    position: 
      x: 0.908126247926
      y: 0.821785201848
      z: 0.0
    orientation: 
      x: 0.0
      y: 0.0
      z: 0.688922070141
      w: 0.724835416679
  covariance: [2.1377659835560645, -0.06033809443059207, 0.0, 0.0, 0.0, 2.5121697337619394e-16, -0.06033809443059207, 1.1677240903377863, 0.0, 0.0, 0.0, 5.366590870030712e-15, 0.0, 0.0, 8.273028849113505e-07, -1.446169972602992e-15, -3.8174342669754526e-19, 0.0, 0.0, 0.0, -1.4461699726029927e-15, 8.273029359575619e-07, -3.200880864782989e-27, 0.0, 0.0, 0.0, -3.817434266975453e-19, -3.2008587684348243e-27, 8.273029359575619e-07, 0.0, 2.5121697337619404e-16, 5.366590870030712e-15, 0.0, 0.0, 0.0, 2.1557671918190335e-07]
twist: 
  twist: 
    linear: 
      x: 5.44478461027e-14
      y: -0.00226347056313
      z: 0.0
    angular: 
      x: 0.0
      y: 0.0
      z: 0.0399999999814
  covariance: [9.99999908921034e-10, 3.0687931544601517e-13, 0.0, 0.0, 0.0, 4.344510757321991e-31, 3.068793154460146e-13, 1.3617868554112789, 0.0, 0.0, 0.0, -3.0348279748523774e-22, 0.0, 0.0, 9.774852048526442e-07, -1.314309739525477e-28, 2.571110000673869e-27, 0.0, 0.0, 0.0, -1.3143097395254763e-28, 8.273028848810955e-07, -2.358390175546684e-34, 0.0, 0.0, 0.0, 2.5711100006738678e-27, 2.660659149480957e-34, 8.273028848810955e-07, 0.0, 4.344510757321991e-31, -3.034827974852386e-22, 0.0, 0.0, 0.0, 4.292534423727543e-06]
---
header: 
  seq: 3859
  stamp: 
    secs: 1518209848
    nsecs: 412199259
  frame_id: "swarmone/map"
child_frame_id: "swarmone/base_link"
pose: 
  pose: 
    position: 
      x: 0.908361736785
      y: 0.821773242001
      z: 0.0
    orientation: 
      x: 0.0
      y: 0.0
      z: 0.688921679581
      w: 0.724835787888
  covariance: [2.4232712845413538, -0.07305950022306328, 0.0, 0.0, 0.0, 7.112373753061946e-18, -0.07305950022306328, 1.2484406995762287, 0.0, 0.0, 0.0, 1.403042469053182e-16, 0.0, 0.0, 6.771464418545024e-07, -2.0347238160998533e-15, -4.538528828218302e-19, 0.0, 0.0, 0.0, -2.0347238160998533e-15, 6.771465083666547e-07, -2.8601509829183498e-27, 0.0, 0.0, 0.0, -4.538528828218301e-19, -2.8604938466557607e-27, 6.771465083666547e-07, 0.0, 7.112373753061946e-18, 1.4030424690531822e-16, 0.0, 0.0, 0.0, 8.087022200349632e-08]
twist: 
  twist: 
    linear: 
      x: 4.92748249938e-14
      y: -0.002444120617
      z: 0.0
    angular: 
      x: 0.0
      y: 0.0
      z: 0.0399999999997
  covariance: [9.999999096386845e-10, 2.8209487135422977e-13, 0.0, 0.0, 0.0, 5.370934049922044e-38, 2.820948713542293e-13, 1.478757798428685, 0.0, 0.0, 0.0, -4.225421669493646e-29, 0.0, 0.0, 9.427722571224167e-07, -1.2229276510536909e-28, 2.3949084174065157e-27, 0.0, 0.0, 0.0, -1.2229276510536915e-28, 6.771464418368853e-07, -2.0783797700293552e-35, 0.0, 0.0, 0.0, 2.394908417406516e-27, 2.6808829399468534e-35, 6.771464418368853e-07, 0.0, 5.370934049922045e-38, -4.225421669493658e-29, 0.0, 0.0, 0.0, 1.5984044798806708e-06]
---
header: 
  seq: 3860
  stamp: 
    secs: 1518209848
    nsecs: 512699366
  frame_id: "swarmone/map"
child_frame_id: "swarmone/base_link"
pose: 
  pose: 
    position: 
      x: 0.908616150262
      y: 0.821760318757
      z: 0.0
    orientation: 
      x: 0.0
      y: 0.0
      z: 0.692537185181
      w: 0.721382178281
  covariance: [2.7481527325890656, -0.08774288785090643, 0.0, 0.0, 0.0, 3.957551672007454e-18, -0.08774288785090646, 1.3295160159650565, 0.0, 0.0, 0.0, 8.721686843840062e-17, 0.0, 0.0, 6.936530370034593e-07, -2.173407474982852e-15, -4.0987006572041083e-19, 0.0, 0.0, 0.0, -2.1734074749828525e-15, 6.936530866314301e-07, -2.9078503398935124e-27, 0.0, 0.0, 0.0, -4.0987006572041093e-19, -2.9078734949014993e-27, 6.936530866314301e-07, 0.0, 3.9575516720074544e-18, 8.721686843840062e-17, 0.0, 0.0, 0.0, 8.921487227788053e-08]
twist: 
  twist: 
    linear: 
      x: 4.45854072876e-14
      y: -0.00262535623816
      z: 0.0
    angular: 
      x: 0.0
      y: 0.0
      z: 0.0300000009952
  covariance: [9.999999099669974e-10, 2.5921678794915604e-13, 0.0, 0.0, 0.0, 1.4541077555842818e-44, 2.592167879491557e-13, 1.6030883010209296, 0.0, 0.0, 0.0, -1.2882251271588457e-35, 0.0, 0.0, 9.477615084586496e-07, -1.1088740421679256e-28, 2.7040878246372623e-27, 0.0, 0.0, 0.0, -1.108874042167926e-28, 6.936530369847818e-07, 7.566932761712293e-35, 0.0, 0.0, 0.0, 2.7040878246372633e-27, -7.566691482215634e-35, 6.936530369847818e-07, 0.0, 1.4541077555842808e-44, -1.2882251271588492e-35, 0.0, 0.0, 0.0, 1.7652974852520585e-06]
---
header: 
  seq: 3861
  stamp: 
    secs: 1518209848
    nsecs: 612159014
  frame_id: "swarmone/map"
child_frame_id: "swarmone/base_link"
pose: 
  pose: 
    position: 
      x: 0.904662512751
      y: 0.825160693593
      z: 0.0
    orientation: 
      x: 0.0
      y: 0.0
      z: 0.688921727669
      w: 0.724835742183
  covariance: [2.284651387824826, -0.06484812692796321, 0.0, 0.0, 0.0, 1.2820316607270449e-16, -0.0648481269279632, 1.2105527991797744, 0.0, 0.0, 0.0, 3.778018929215835e-15, 0.0, 0.0, 7.044444928697184e-07, -1.4930843770436668e-16, -9.495177797794464e-19, 0.0, 0.0, 0.0, -1.4930843770436673e-16, 7.04444558591196e-07, -4.796170795872996e-28, 0.0, 0.0, 0.0, -9.495177797794468e-19, -4.797358152251501e-28, 7.04444558591196e-07, 0.0, 1.2820316607270449e-16, 3.778018929215835e-15, 0.0, 0.0, 0.0, 9.517533676191065e-08]
twist: 
  twist: 
    linear: 
      x: 1.04992725533e-13
      y: -0.000181516538814
      z: 0.0
    angular: 
      x: 0.0
      y: 0.0
      z: 0.0399999983438
  covariance: [9.999999090500297e-10, 2.9350971480349466e-13, 0.0, 0.0, 0.0, 1.616799507885638e-30, 2.935097148034943e-13, 1.4224031760440097, 0.0, 0.0, 0.0, -3.4817590921444397e-22, 0.0, 0.0, 9.508238553051704e-07, -1.0993022171404633e-29, 1.9212285656382197e-28, 0.0, 0.0, 0.0, -1.0993022171404636e-29, 7.044444928501308e-07, -1.8911905278760365e-35, 0.0, 0.0, 0.0, 1.9212285656382197e-28, 1.8911905278955888e-35, 7.044444928501308e-07, 0.0, 1.6167995078856382e-30, -3.4817590921444266e-22, 0.0, 0.0, 0.0, 1.88450677480058e-06]
---
header: 
  seq: 3862
  stamp: 
    secs: 1518209848
    nsecs: 712591887
  frame_id: "swarmone/map"
child_frame_id: "swarmone/base_link"
pose: 
  pose: 
    position: 
      x: 0.904686051566
      y: 0.825159521113
      z: 0.0
    orientation: 
      x: 0.0
      y: 0.0
      z: 0.696135453139
      w: 0.717910461606
  covariance: [2.590671247513953, -0.07839438503422037, 0.0, 0.0, 0.0, 3.39867075930034e-19, -0.07839438503422035, 1.2915064112074868, 0.0, 0.0, 0.0, 8.995003703769513e-18, 0.0, 0.0, 6.746420287774711e-07, -2.396940557077669e-16, -8.771080848164875e-19, 0.0, 0.0, 0.0, -2.3969405570776686e-16, 6.746420953712033e-07, -6.460391880817638e-28, 0.0, 0.0, 0.0, -8.771080848164875e-19, -6.46307165691021e-28, 6.746420953712033e-07, 0.0, 3.3986707593003404e-19, 8.995003703769513e-18, 0.0, 0.0, 0.0, 7.96781291125281e-08]
twist: 
  twist: 
    linear: 
      x: 9.49229515808e-14
      y: -0.000287810632821
      z: 0.0
    angular: 
      x: 0.0
      y: 0.0
      z: 0.0400000000006
  covariance: [9.999999098757393e-10, 2.695431035185951e-13, 0.0, 0.0, 0.0, 1.47745184465962e-37, 2.695431035185948e-13, 1.543322427827578, 0.0, 0.0, 0.0, -3.51233963236332e-29, 0.0, 0.0, 9.4198063176621e-07, -9.647544242640452e-30, 2.7989846405725206e-28, 0.0, 0.0, 0.0, -9.647544242640453e-30, 6.746420287600931e-07, 1.4104333348056232e-35, 0.0, 0.0, 0.0, 2.7989846405725206e-28, -1.4104333348056232e-35, 6.746420287600931e-07, 0.0, 1.4774518446596203e-37, -3.512339632363305e-29, 0.0, 0.0, 0.0, 1.5745626219707467e-06]
---
header: 
  seq: 3863
  stamp: 
    secs: 1518209848
    nsecs: 812057495
  frame_id: "swarmone/map"
child_frame_id: "swarmone/base_link"
pose: 
  pose: 
    position: 
      x: 0.901730631012
      y: 0.828030745101
      z: 0.0
    orientation: 
      x: 0.0
      y: 0.0
      z: 0.688921701068
      w: 0.724835767466
  covariance: [2.1543672519538424, -0.05668260045617865, 0.0, 0.0, 0.0, -1.103520616420069e-16, -0.056682600456178615, 1.1727007496035529, 0.0, 0.0, 0.0, -3.924409438267567e-15, 0.0, 0.0, 6.8195018551693e-07, 1.243413493949556e-15, -1.31600338894269e-18, 0.0, 0.0, 0.0, 1.243413493949556e-15, 6.819502519446306e-07, 5.1667851529385385e-27, 0.0, 0.0, 0.0, -1.3160033889426903e-18, 5.166436648174874e-27, 6.819502519446306e-07, 0.0, -1.1035206164200691e-16, -3.924409438267565e-15, 0.0, 0.0, 0.0, 8.325440777962554e-08]
twist: 
  twist: 
    linear: 
      x: 1.44156970974e-13
      y: 0.00149548737992
      z: 0.0
    angular: 
      x: 0.0
      y: 0.0
      z: 0.0399999998734
  covariance: [9.999999089285212e-10, 2.985887350527783e-13, 0.0, 0.0, 0.0, 4.2688183394740233e-32, 2.985887350527776e-13, 1.3675403659327252, 0.0, 0.0, 0.0, 1.1935136544673795e-23, 0.0, 0.0, 9.442921417232847e-07, 7.399372769778563e-29, -1.4864172975754279e-27, 0.0, 0.0, 0.0, 7.399372769778566e-29, 6.819501854989399e-07, -7.875863921075151e-37, 0.0, 0.0, 0.0, -1.4864172975754282e-27, 8.876724206792614e-37, 6.819501854989399e-07, 0.0, 4.2688183394740244e-32, 1.1935136544673698e-23, 0.0, 0.0, 0.0, 1.6460881957002295e-06]
---
header: 
  seq: 3864
  stamp: 
    secs: 1518209848
    nsecs: 911710501
  frame_id: "swarmone/map"
child_frame_id: "swarmone/base_link"
pose: 
  pose: 
    position: 
      x: 0.901584347381
      y: 0.828038214441
      z: 0.0
    orientation: 
      x: 0.0
      y: 0.0
      z: 0.688921797095
      w: 0.724835676197
  covariance: [2.440113774188186, -0.06899527547263133, 0.0, 0.0, 0.0, -3.0548700504836376e-18, -0.06899527547263128, 1.2529570499139249, 0.0, 0.0, 0.0, -5.9175279277222e-17, 0.0, 0.0, 7.441148042054245e-07, 1.1385076752200867e-15, -1.1321116418542153e-18, 0.0, 0.0, 0.0, 1.1385076752200871e-15, 7.441148671877315e-07, 5.037307318085784e-27, 0.0, 0.0, 0.0, -1.1321116418542157e-18, 5.037293976242766e-27, 7.441148671877315e-07, 0.0, -3.0548700504836373e-18, -5.9175279277222e-17, 0.0, 0.0, 0.0, 1.2140138043982508e-07]
twist: 
  twist: 
    linear: 
      x: 1.30521754979e-13
      y: 0.00144420007383
      z: 0.0
    angular: 
      x: 0.0
      y: 0.0
      z: 0.0399999999999
  covariance: [9.999999091202296e-10, 2.74630075871105e-13, 0.0, 0.0, 0.0, 4.364881248916733e-39, 2.7463007587110444e-13, 1.4841883744531286, 0.0, 0.0, 0.0, 1.4115981722964482e-30, 0.0, 0.0, 9.609073772714831e-07, 8.217839186321534e-29, -1.648739536976318e-27, 0.0, 0.0, 0.0, 8.217839186321538e-29, 7.441148041828349e-07, 1.3099924886297395e-35, 0.0, 0.0, 0.0, -1.6487395369763193e-27, -1.3098698150995795e-35, 7.441148041828349e-07, 0.0, 4.364881248916734e-39, 1.4115981722964372e-30, 0.0, 0.0, 0.0, 2.4090276488254256e-06]
---
header: 
  seq: 3865
  stamp: 
    secs: 1518209849
    nsecs:  12187004
  frame_id: "swarmone/map"
child_frame_id: "swarmone/base_link"
pose: 
  pose: 
    position: 
      x: 0.901442022431
      y: 0.828045477418
      z: 0.0
    orientation: 
      x: 0.0
      y: 0.0
      z: 0.688921683037
      w: 0.724835784603
  covariance: [2.766713815666671, -0.08331718604620501, 0.0, 0.0, 0.0, -2.931424182648297e-18, -0.08331718604620493, 1.3339722850221567, 0.0, 0.0, 0.0, -5.692825838544132e-17, 0.0, 0.0, 6.796126086524203e-07, 1.1586486148745343e-15, -1.0911443291408237e-18, 0.0, 0.0, 0.0, 1.158648614874534e-15, 6.796126751295676e-07, 3.9463929760352304e-27, 0.0, 0.0, 0.0, -1.0911443291408235e-18, 3.946281160914024e-27, 6.796126751295676e-07, 0.0, -2.931424182648298e-18, -5.692825838544133e-17, 0.0, 0.0, 0.0, 8.206231490453903e-08]
twist: 
  twist: 
    linear: 
      x: 1.18103172217e-13
      y: 0.00139248900775
      z: 0.0
    angular: 
      x: 0.0
      y: 0.0
      z: 0.0399999999998
  covariance: [9.999999099434925e-10, 2.524082538317956e-13, 0.0, 0.0, 0.0, 1.6740401878028898e-45, 2.524082538317952e-13, 1.6087684233584976, 0.0, 0.0, 0.0, 6.255489024471493e-37, 0.0, 0.0, 9.435425711772716e-07, 6.862388300001142e-29, -1.3753398201505319e-27, 0.0, 0.0, 0.0, 6.862388300001141e-29, 6.796126086346797e-07, 1.7280011788983525e-35, 0.0, 0.0, 0.0, -1.3753398201505308e-27, -1.728097022219547e-35, 6.796126086346797e-07, 0.0, 1.67404018780289e-45, 6.255489024471447e-37, 0.0, 0.0, 0.0, 1.6222463377911071e-06]
---
header: 
  seq: 3866
  stamp: 
    secs: 1518209849
    nsecs: 112446547
  frame_id: "swarmone/map"
child_frame_id: "swarmone/base_link"
pose: 
  pose: 
    position: 
      x: 0.899470046499
      y: 0.832077737035
      z: 0.0
    orientation: 
      x: 0.0
      y: 0.0
      z: 0.68892167263
      w: 0.724835794494
  covariance: [2.2991110619621646, -0.06309229982463632, 0.0, 0.0, 0.0, -3.0669607255666533e-15, -0.06309229982463625, 1.2149243761890351, 0.0, 0.0, 0.0, -6.195218683748863e-14, 0.0, 0.0, 6.720959218011774e-07, 2.085420161771224e-15, -1.723598076552196e-18, 0.0, 0.0, 0.0, 2.085420161771225e-15, 6.720959883622537e-07, 1.0963876922999398e-26, 0.0, 0.0, 0.0, -1.7235980765521966e-18, 1.0964517205184613e-26, 6.720959883622537e-07, 0.0, -3.0669607255666533e-15, -6.195218683748865e-14, 0.0, 0.0, 0.0, 7.848603623968504e-08]
twist: 
  twist: 
    linear: 
      x: 1.86532364905e-13
      y: 0.00250317246219
      z: 0.0
    angular: 
      x: 0.0
      y: 0.0
      z: 0.0399999998022
  covariance: [9.999999098429108e-10, 2.8359448771645396e-13, 0.0, 0.0, 0.0, -7.986930913629626e-31, 2.835944877164533e-13, 1.4267657980619246, 0.0, 0.0, 0.0, 7.290294910484854e-22, 0.0, 0.0, 9.411667900983785e-07, 1.2064661566450747e-28, -2.4123801135559466e-27, 0.0, 0.0, 0.0, 1.206466156645075e-28, 6.720959217838404e-07, 3.6936419031677143e-35, 0.0, 0.0, 0.0, -2.412380113555946e-27, -2.486688348539829e-35, 6.720959217838404e-07, 0.0, -7.986930913629622e-31, 7.290294910484885e-22, 0.0, 0.0, 0.0, 1.5507207640591805e-06]
---
header: 
  seq: 3867
  stamp: 
    secs: 1518209849
    nsecs: 211919546
  frame_id: "swarmone/map"
child_frame_id: "swarmone/base_link"
pose: 
  pose: 
    position: 
      x: 0.899222271336
      y: 0.83209037307
      z: 0.0
    orientation: 
      x: 0.0
      y: 0.0
      z: 0.699716288309
      w: 0.714420825477
  covariance: [2.603454885287348, -0.07636876677888886, 0.0, 0.0, 0.0, -2.8759657682104512e-18, -0.0763687667788888, 1.2950865405539718, 0.0, 0.0, 0.0, -7.949586212882532e-17, 0.0, 0.0, 6.79612582866151e-07, 2.0677357932125026e-15, -1.5419053476284544e-18, 0.0, 0.0, 0.0, 2.067735793212503e-15, 6.796126494144728e-07, 9.951622366098624e-27, 0.0, 0.0, 0.0, -1.5419053476284548e-18, 9.951672350592627e-27, 6.796126494144728e-07, 0.0, -2.875965768210451e-18, -7.949586212882533e-17, 0.0, 0.0, 0.0, 8.206231488425388e-08]
twist: 
  twist: 
    linear: 
      x: 1.68786442325e-13
      y: 0.00248506246455
      z: 0.0
    angular: 
      x: 0.0
      y: 0.0
      z: 0.0400000000008
  covariance: [9.999999089232378e-10, 2.6066436800163663e-13, 0.0, 0.0, 0.0, -7.355135035295852e-38, 2.6066436800163613e-13, 1.5467100369912652, 0.0, 0.0, 0.0, 7.580160966832976e-29, 0.0, 0.0, 9.435425710972386e-07, 4.9267179883790623e-29, -2.456981295082616e-27, 0.0, 0.0, 0.0, 4.926717988379062e-29, 6.796125828484616e-07, 7.005895678537545e-36, 0.0, 0.0, 0.0, -2.456981295082616e-27, -9.839428465067795e-37, 6.796125828484616e-07, 0.0, -7.355135035295849e-38, 7.580160966833007e-29, 0.0, 0.0, 0.0, 1.6222463377900947e-06]
---
header: 
  seq: 3868
  stamp: 
    secs: 1518209849
    nsecs: 312312841
  frame_id: "swarmone/map"
child_frame_id: "swarmone/base_link"
pose: 
  pose: 
    position: 
      x: 0.898499953083
      y: 0.838698234232
      z: 0.0
    orientation: 
      x: 0.0
      y: 0.0
      z: 0.68892170124
      w: 0.724835767302
  covariance: [2.162678876941267, -0.054080457776616936, 0.0, 0.0, 0.0, -1.4247992498508435e-16, -0.054080457776616915, 1.1754740390340301, 0.0, 0.0, 0.0, -7.801938164526437e-15, 0.0, 0.0, 6.770570395650203e-07, 2.347518408021742e-15, -2.7069171033446374e-18, 0.0, 0.0, 0.0, 2.347518408021742e-15, 6.770571060717726e-07, 1.975966305829976e-26, 0.0, 0.0, 0.0, -2.7069171033446374e-18, 1.975947153590863e-26, 6.770571060717726e-07, 0.0, -1.4247992498508438e-16, -7.801938164526437e-15, 0.0, 0.0, 0.0, 8.087022200719654e-08]
twist: 
  twist: 
    linear: 
      x: 2.93177133757e-13
      y: 0.00282007914322
      z: 0.0
    angular: 
      x: 0.0
      y: 0.0
      z: 0.0399999998133
  covariance: [9.999999098482193e-10, 2.851548956414586e-13, 0.0, 0.0, 0.0, -3.3696255728132486e-31, 2.85154895641458e-13, 1.3697052482302574, 0.0, 0.0, 0.0, -2.108688571969196e-22, 0.0, 0.0, 9.427719749168337e-07, 1.3715392024961705e-28, -2.7608480907075517e-27, 0.0, 0.0, 0.0, 1.3715392024961708e-28, 6.770570395473604e-07, 1.2590947331125926e-35, 0.0, 0.0, 0.0, -2.7608480907075524e-27, -2.9638635404946386e-37, 6.770570395473604e-07, 0.0, -3.36962557281325e-31, -2.1086885719691922e-22, 0.0, 0.0, 0.0, 1.5984044798808457e-06]
---
header: 
  seq: 3869
  stamp: 
    secs: 1518209849
    nsecs: 412544966
  frame_id: "swarmone/map"
child_frame_id: "swarmone/base_link"
pose: 
  pose: 
    position: 
      x: 0.898218032398
      y: 0.838712634829
      z: 0.0
    orientation: 
      x: 0.0
      y: 0.0
      z: 0.685288921923
      w: 0.728271304865
  covariance: [2.450860799778029, -0.06623702707482457, 0.0, 0.0, 0.0, -5.237379218053352e-18, -0.06623702707482454, 1.2561717368350724, 0.0, 0.0, 0.0, -9.23493972643625e-17, 0.0, 0.0, 6.844335929551491e-07, 2.3371597831415403e-15, -2.4410426073069428e-18, 0.0, 0.0, 0.0, 2.33715978314154e-15, 6.844336593061624e-07, 1.8079231184875206e-26, 0.0, 0.0, 0.0, -2.4410426073069428e-18, 1.8079908710075976e-26, 6.844336593061624e-07, 0.0, -5.237379218053351e-18, -9.234939726436251e-17, 0.0, 0.0, 0.0, 8.444650069051479e-08]
twist: 
  twist: 
    linear: 
      x: 2.65298276732e-13
      y: 0.00281262059277
      z: 0.0
    angular: 
      x: 0.0
      y: 0.0
      z: 0.0399999999996
  covariance: [9.9999990969452e-10, 2.621732835000467e-13, 0.0, 0.0, 0.0, -3.3950263213251414e-38, 2.62173283500046e-13, 1.4871477398959745, 0.0, 0.0, 0.0, -2.4329042130252077e-29, 0.0, 0.0, 9.45022617274337e-07, 1.6859137543683801e-28, -2.818142462181643e-27, 0.0, 0.0, 0.0, 1.68591375436838e-28, 6.844335929371229e-07, -5.122842504921303e-36, 0.0, 0.0, 0.0, -2.8181424621816427e-27, 1.7163670026871235e-35, 6.844335929371229e-07, 0.0, -3.3950263213251446e-38, -2.432904213025204e-29, 0.0, 0.0, 0.0, 1.6699300536111683e-06]
---
header: 
  seq: 3870
  stamp: 
    secs: 1518209849
    nsecs: 511971474
  frame_id: "swarmone/map"
child_frame_id: "swarmone/base_link"
pose: 
  pose: 
    position: 
      x: 0.897939271442
      y: 0.838729655879
      z: 0.0
    orientation: 
      x: 0.0
      y: 0.0
      z: 0.688921668835
      w: 0.724835798102
  covariance: [2.774593356909628, -0.08186174923992587, 0.0, 0.0, 0.0, -5.186788651371012e-18, -0.08186174923992583, 1.3364376122697048, 0.0, 0.0, 0.0, -9.142502146975477e-17, 0.0, 0.0, 6.746420020990649e-07, 2.336320088693561e-15, -2.1967413934245826e-18, 0.0, 0.0, 0.0, 2.336320088693562e-15, 6.746420686383625e-07, 1.5774934523504694e-26, 0.0, 0.0, 0.0, -2.1967413934245826e-18, 1.5774979347078823e-26, 6.746420686383625e-07, 0.0, -5.186788651371012e-18, -9.142502146975476e-17, 0.0, 0.0, 0.0, 7.967812909232139e-08]
twist: 
  twist: 
    linear: 
      x: 2.40294716244e-13
      y: 0.00280522210627
      z: 0.0
    angular: 
      x: 0.0
      y: 0.0
      z: 0.0400000000002
  covariance: [9.999999089021252e-10, 2.4117883246861367e-13, 0.0, 0.0, 0.0, -9.809050640674927e-45, 2.4117883246861326e-13, 1.6105277672298401, 0.0, 0.0, 0.0, -8.029814914596083e-36, 0.0, 0.0, 9.41980631681372e-07, 1.36041101750118e-28, -2.726439523277177e-27, 0.0, 0.0, 0.0, 1.3604110175011811e-28, 6.746420020817023e-07, 6.669576484124062e-35, 0.0, 0.0, 0.0, -2.7264395232771776e-27, -4.863654201367618e-35, 6.746420020817023e-07, 0.0, -9.80905064067493e-45, -8.029814914596072e-36, 0.0, 0.0, 0.0, 1.5745626219697369e-06]
---
header: 
  seq: 3871
  stamp: 
    secs: 1518209849
    nsecs: 612456560
  frame_id: "swarmone/map"
child_frame_id: "swarmone/base_link"
pose: 
  pose: 
    position: 
      x: 0.895377996801
      y: 0.846169098644
      z: 0.0
    orientation: 
      x: 0.0
      y: 0.0
      z: 0.688921672625
      w: 0.7248357945
  covariance: [2.3085158680732407, -0.06228814444701871, 0.0, 0.0, 0.0, -5.169794783171951e-15, -0.062288144447018724, 1.2180980632829874, 0.0, 0.0, 0.0, -1.0394986934635223e-13, 0.0, 0.0, 6.720962963668062e-07, 3.5502200564756396e-15, -3.3756489838811195e-18, 0.0, 0.0, 0.0, 3.5502200564756404e-15, 6.720963629278946e-07, 3.655537999600446e-26, 0.0, 0.0, 0.0, -3.3756489838811195e-18, 3.6555309755309903e-26, 6.720963629278947e-07, 0.0, -5.1697947831719536e-15, -1.0394986934635225e-13, 0.0, 0.0, 0.0, 7.84860362479244e-08]
twist: 
  twist: 
    linear: 
      x: 3.64399507375e-13
      y: 0.00426140695788
      z: 0.0
    angular: 
      x: 0.0
      y: 0.0
      z: 0.0399999998043
  covariance: [9.999999100710005e-10, 2.7386056525166773e-13, 0.0, 0.0, 0.0, -1.4210974224813423e-30, 2.7386056525166697e-13, 1.4304121903425076, 0.0, 0.0, 0.0, 1.3549699229434984e-21, 0.0, 0.0, 9.411667913047994e-07, 2.0487857561490814e-28, -4.106867335345149e-27, 0.0, 0.0, 0.0, 2.0487857561490814e-28, 6.720962963494689e-07, 1.4161602784486626e-35, 0.0, 0.0, 0.0, -4.1068673353451485e-27, -9.62574568555344e-36, 6.720962963494689e-07, 0.0, -1.4210974224813418e-30, 1.3549699229435055e-21, 0.0, 0.0, 0.0, 1.5507207640594297e-06]
---
header: 
  seq: 3872
  stamp: 
    secs: 1518209849
    nsecs: 711921930
  frame_id: "swarmone/map"
child_frame_id: "swarmone/base_link"
pose: 
  pose: 
    position: 
      x: 0.894952973246
      y: 0.846190786535
      z: 0.0
    orientation: 
      x: 0.0
      y: 0.0
      z: 0.692537214345
      w: 0.721382150283
  covariance: [2.6138084588404458, -0.07553110097178818, 0.0, 0.0, 0.0, -6.176842122145823e-18, -0.07553110097178822, 1.2982482614567583, 0.0, 0.0, 0.0, -1.327633500185378e-16, 0.0, 0.0, 6.695147632230178e-07, 3.579597651548841e-15, -3.0166481261711615e-18, 0.0, 0.0, 0.0, 3.579597651548842e-15, 6.695148298261229e-07, 3.267604215291764e-26, 0.0, 0.0, 0.0, -3.0166481261711615e-18, 3.26753922690058e-26, 6.695148298261229e-07, 0.0, -6.176842122145822e-18, -1.3276335001853776e-16, 0.0, 0.0, 0.0, 7.729394330205766e-08]
twist: 
  twist: 
    linear: 
      x: 3.29768877881e-13
      y: 0.00429588086435
      z: 0.0
    angular: 
      x: 0.0
      y: 0.0
      z: 0.0400000000002
  covariance: [9.999999089155597e-10, 2.517677537358769e-13, 0.0, 0.0, 0.0, -1.3090530766641796e-37, 2.517677537358764e-13, 1.5505545325391756, 0.0, 0.0, 0.0, 1.4091605145408012e-28, 0.0, 0.0, 9.403298086595581e-07, 1.6410459321636909e-28, -4.105238673866438e-27, 0.0, 0.0, 0.0, 1.6410459321636913e-28, 6.695147632060071e-07, 6.791599799105324e-35, 0.0, 0.0, 0.0, -4.105238673866439e-27, -4.0370965401202074e-35, 6.695147632060071e-07, 0.0, -1.3090530766641798e-37, 1.409160514540809e-28, 0.0, 0.0, 0.0, 1.5268789061494629e-06]
---
header: 
  seq: 3873
  stamp: 
    secs: 1518209849
    nsecs: 812024117
  frame_id: "swarmone/map"
child_frame_id: "swarmone/base_link"
pose: 
  pose: 
    position: 
      x: 0.890534698808
      y: 0.851180236221
      z: 0.0
    orientation: 
      x: 0.0
      y: 0.0
      z: 0.685288950044
      w: 0.728271278404
  covariance: [2.1713094085933347, -0.0558495069169838, 0.0, 0.0, 0.0, -5.613711942498963e-16, -0.05584950691698383, 1.1787212562301388, 0.0, 0.0, 0.0, -1.486763844415115e-14, 0.0, 0.0, 6.979626399027896e-07, 5.660080420176686e-15, -3.654240107513796e-18, 0.0, 0.0, 0.0, 5.660080420176687e-15, 6.979627058316299e-07, 6.87870224690043e-26, 0.0, 0.0, 0.0, -3.654240107513795e-18, 6.878664127409773e-26, 6.979627058316301e-07, 0.0, -5.613711942498961e-16, -1.486763844415115e-14, 0.0, 0.0, 0.0, 9.159905806097733e-08]
twist: 
  twist: 
    linear: 
      x: 4.00281831335e-13
      y: 0.00685524084965
      z: 0.0
    angular: 
      x: 0.0
      y: 0.0
      z: 0.0399999998964
  covariance: [9.999999095608712e-10, 2.843653527796151e-13, 0.0, 0.0, 0.0, -4.346712191314165e-31, 2.8436535277961425e-13, 1.3731430472364456, 0.0, 0.0, 0.0, 1.6586227526954387e-22, 0.0, 0.0, 9.490308160345106e-07, 4.289106118411146e-28, -7.119637494729295e-27, 0.0, 0.0, 0.0, 4.289106118411145e-28, 6.97962639883678e-07, 2.414862828255001e-38, 0.0, 0.0, 0.0, -7.119637494729295e-27, 1.1469564510944068e-34, 6.97962639883678e-07, 0.0, -4.346712191314167e-31, 1.658622752695451e-22, 0.0, 0.0, 0.0, 1.8129812010719651e-06]
---
header: 
  seq: 3874
  stamp: 
    secs: 1518209849
    nsecs: 912456036
  frame_id: "swarmone/map"
child_frame_id: "swarmone/base_link"
pose: 
  pose: 
    position: 
      x: 0.88984208688
      y: 0.85122248558
      z: 0.0
    orientation: 
      x: 0.0
      y: 0.0
      z: 0.688921675821
      w: 0.724835791462
  covariance: [2.4608297125932705, -0.06977038683421176, 0.0, 0.0, 0.0, -1.3523506322931983e-17, -0.06977038683421179, 1.2597103123815847, 0.0, 0.0, 0.0, -2.390796359955762e-16, 0.0, 0.0, 6.796126075067627e-07, 5.793742090211186e-15, -3.3442017553710718e-18, 0.0, 0.0, 0.0, 5.793742090211184e-15, 6.79612673983726e-07, 6.0478052968763e-26, 0.0, 0.0, 0.0, -3.3442017553710718e-18, 6.047851811272968e-26, 6.79612673983726e-07, 0.0, -1.3523506322931985e-17, -2.390796359955762e-16, 0.0, 0.0, 0.0, 8.206231490351357e-08]
twist: 
  twist: 
    linear: 
      x: 3.62167770376e-13
      y: 0.0069630890036
      z: 0.0
    angular: 
      x: 0.0
      y: 0.0
      z: 0.0400000000002
  covariance: [9.999999098918563e-10, 2.614467360702632e-13, 0.0, 0.0, 0.0, -4.5730792361224214e-38, 2.614467360702625e-13, 1.4910212244750893, 0.0, 0.0, 0.0, 1.9551450929572695e-29, 0.0, 0.0, 9.435425711737489e-07, 3.4565011958797427e-28, -6.877115353370591e-27, 0.0, 0.0, 0.0, 3.456501195879742e-28, 6.796126074890523e-07, 3.9985552590968297e-35, 0.0, 0.0, 0.0, -6.877115353370587e-27, 4.0149171791030846e-35, 6.796126074890523e-07, 0.0, -4.573079236122421e-38, 1.9551450929572838e-29, 0.0, 0.0, 0.0, 1.6222463377910572e-06]
---
header: 
  seq: 3875
  stamp: 
    secs: 1518209850
    nsecs:  11908293
  frame_id: "swarmone/map"
child_frame_id: "swarmone/base_link"
pose: 
  pose: 
    position: 
      x: 0.889145185439
      y: 0.851257988775
      z: 0.0
    orientation: 
      x: 0.0
      y: 0.0
      z: 0.688921703775
      w: 0.724835764893
  covariance: [2.7858833151616245, -0.08409573895546583, 0.0, 0.0, 0.0, -1.2272102201209413e-17, -0.08409573895546589, 1.339910007722158, 0.0, 0.0, 0.0, -2.395545091187674e-16, 0.0, 0.0, 6.936530124039947e-07, 5.8528533719262286e-15, -2.981747070660095e-18, 0.0, 0.0, 0.0, 5.852853371926229e-15, 6.936530785447067e-07, 5.696962549020196e-26, 0.0, 0.0, 0.0, -2.9817470706600965e-18, 5.69695014583516e-26, 6.936530785447069e-07, 0.0, -1.2272102201209416e-17, -2.395545091187675e-16, 0.0, 0.0, 0.0, 8.921487225691823e-08]
twist: 
  twist: 
    linear: 
      x: 3.28024018809e-13
      y: 0.00706988531172
      z: 0.0
    angular: 
      x: 0.0
      y: 0.0
      z: 0.0399999999999
  covariance: [9.999999089286399e-10, 2.405279129443852e-13, 0.0, 0.0, 0.0, -1.48763800081234e-44, 2.405279129443846e-13, 1.6146467379412364, 0.0, 0.0, 0.0, 7.116429012998031e-36, 0.0, 0.0, 9.477615083871044e-07, 3.663397554921738e-28, -7.278856758160372e-27, 0.0, 0.0, 0.0, 3.663397554921738e-28, 6.93653012385315e-07, 3.461983757774233e-35, 0.0, 0.0, 0.0, -7.278856758160369e-27, 2.923195782248523e-35, 6.93653012385315e-07, 0.0, -1.4876380008123396e-44, 7.116429012998083e-36, 0.0, 0.0, 0.0, 1.7652974852510103e-06]
---
header: 
  seq: 3876
  stamp: 
    secs: 1518209850
    nsecs: 112347364
  frame_id: "swarmone/map"
child_frame_id: "swarmone/base_link"
pose: 
  pose: 
    position: 
      x: 0.883772930782
      y: 0.857317002721
      z: 0.0
    orientation: 
      x: 0.0
      y: 0.0
      z: 0.68528890788
      w: 0.72827131808
  covariance: [2.315198421989274, -0.06374459025901204, 0.0, 0.0, 0.0, -1.2214417197556269e-14, -0.06374459025901207, 1.2206323074045136, 0.0, 0.0, 0.0, -2.4794197179298707e-13, 0.0, 0.0, 6.746396208017678e-07, 8.397784334290883e-15, -3.824266396315337e-18, 0.0, 0.0, 0.0, 8.397784334290883e-15, 6.746396873051548e-07, 9.87290320828638e-26, 0.0, 0.0, 0.0, -3.824266396315338e-18, 9.872983584173757e-26, 6.74639687305155e-07, 0.0, -1.2214417197556272e-14, -2.479419717929872e-13, 0.0, 0.0, 0.0, 7.967812913956326e-08]
twist: 
  twist: 
    linear: 
      x: 4.13160717424e-13
      y: 0.0100831662348
      z: 0.0
    angular: 
      x: 0.0
      y: 0.0
      z: 0.0399999993098
  covariance: [9.999999100210636e-10, 2.7633648346561705e-13, 0.0, 0.0, 0.0, -4.369233879218766e-30, 2.763364834656166e-13, 1.4325132109695404, 0.0, 0.0, 0.0, 3.865404616132784e-21, 0.0, 0.0, 9.419806241057318e-07, 5.917413116265117e-28, -9.794761341880564e-27, 0.0, 0.0, 0.0, 5.917413116265117e-28, 6.746396207842616e-07, 9.421678546587901e-35, 0.0, 0.0, 0.0, -9.794761341880563e-27, 7.249317577139225e-35, 6.746396207842616e-07, 0.0, -4.3692338792187664e-30, 3.8654046161327866e-21, 0.0, 0.0, 0.0, 1.5745626219695173e-06]
---
header: 
  seq: 3877
  stamp: 
    secs: 1518209850
    nsecs: 211805105
  frame_id: "swarmone/map"
child_frame_id: "swarmone/base_link"
pose: 
  pose: 
    position: 
      x: 0.882762562342
      y: 0.857378590373
      z: 0.0
    orientation: 
      x: 0.0
      y: 0.0
      z: 0.692537283627
      w: 0.721382083771
  covariance: [2.620830035151799, -0.07874725431874786, 0.0, 0.0, 0.0, -1.686891195641385e-17, -0.07874725431874789, 1.3009135475092644, 0.0, 0.0, 0.0, -3.311925555287455e-16, 0.0, 0.0, 6.820413513461591e-07, 8.54175135659471e-15, -3.4129060306051476e-18, 0.0, 0.0, 0.0, 8.54175135659471e-15, 6.820414344290159e-07, 9.169110749573362e-26, 0.0, 0.0, 0.0, -3.4129060306051468e-18, 9.169072011377822e-26, 6.820414344290161e-07, 0.0, -1.686891195641385e-17, -3.311925555287455e-16, 0.0, 0.0, 0.0, 8.325440777946196e-08]
twist: 
  twist: 
    linear: 
      x: 3.73865546099e-13
      y: 0.0102721121254
      z: 0.0
    angular: 
      x: 0.0
      y: 0.0
      z: 0.049999998995
  covariance: [9.99999908907965e-10, 2.5402555769625743e-13, 0.0, 0.0, 0.0, -4.02506835546389e-37, 2.540255576962569e-13, 1.5527453441467762, 0.0, 0.0, 0.0, 4.0159635343586233e-28, 0.0, 0.0, 9.442924229359022e-07, 4.133585697650151e-28, -1.0227146551331426e-26, 0.0, 0.0, 0.0, 4.133585697650148e-28, 6.820413513282995e-07, 7.037864114275373e-35, 0.0, 0.0, 0.0, -1.0227146551331426e-26, 5.868344120484069e-35, 6.820413513282995e-07, 0.0, -4.02506835546389e-37, 4.0159635343586256e-28, 0.0, 0.0, 0.0, 1.6460881957002354e-06]
---
header: 
  seq: 3878
  stamp: 
    secs: 1518209850
    nsecs: 312201738
  frame_id: "swarmone/map"
child_frame_id: "swarmone/base_link"
pose: 
  pose: 
    position: 
      x: 0.876748198518
      y: 0.862710389331
      z: 0.0
    orientation: 
      x: 0.0
      y: 0.0
      z: 0.688921687496
      w: 0.724835780366
  covariance: [2.181096898527662, -0.05824138161479965, 0.0, 0.0, 0.0, -2.0318204898228572e-15, -0.05824138161479967, 1.1823414413640614, 0.0, 0.0, 0.0, -5.5763632810829517e-14, 0.0, 0.0, 6.770880505413833e-07, 1.1323965678293173e-14, -4.1081857174217455e-18, 0.0, 0.0, 0.0, 1.1323965678293175e-14, 6.770881170624821e-07, 1.4447351859160483e-25, 0.0, 0.0, 0.0, -4.1081857174217455e-18, 1.4447316147201433e-25, 6.770881170624825e-07, 0.0, -2.0318204898228564e-15, -5.5763632810829504e-14, 0.0, 0.0, 0.0, 8.087022200728751e-08]
twist: 
  twist: 
    linear: 
      x: 4.44875389409e-13
      y: 0.0136030783701
      z: 0.0
    angular: 
      x: 0.0
      y: 0.0
      z: 0.0400000008739
  covariance: [9.999999098522906e-10, 2.902945619964063e-13, 0.0, 0.0, 0.0, -2.0646364219195028e-30, 2.902945619964057e-13, 1.3771601574052406, 0.0, 0.0, 0.0, 5.904410003553236e-22, 0.0, 0.0, 9.427720730849901e-07, 6.724002681381321e-28, -1.33215787647595e-26, 0.0, 0.0, 0.0, 6.724002681381322e-28, 6.770880505237175e-07, 1.2334608879995913e-34, 0.0, 0.0, 0.0, -1.3321578764759505e-26, 1.4940184677390749e-34, 6.770880505237175e-07, 0.0, -2.0646364219195028e-30, 5.904410003553249e-22, 0.0, 0.0, 0.0, 1.598404479880831e-06]
---
header: 
  seq: 3879
  stamp: 
    secs: 1518209850
    nsecs: 412872314
  frame_id: "swarmone/map"
child_frame_id: "swarmone/base_link"
pose: 
  pose: 
    position: 
      x: 0.875366356144
      y: 0.862780744516
      z: 0.0
    orientation: 
      x: 0.0
      y: 0.0
      z: 0.688923867407
      w: 0.724833708458
  covariance: [2.4726008387671112, -0.07094983809132906, 0.0, 0.0, 0.0, -1.2973026804829609e-16, -0.07094983809132908, 1.2634375472362158, 0.0, 0.0, 0.0, -2.5363532557917593e-15, 0.0, 0.0, 9.450225496806207e-07, 3.50191409138968e-15, -1.129343633337743e-18, 0.0, 0.0, 0.0, 3.5019140913896797e-15, 9.450225698301292e-07, 7.19364499711158e-26, 0.0, 0.0, 0.0, -1.1293436333377428e-18, 7.19362449096268e-26, 9.450225698301294e-07, 0.0, -1.297302680482961e-16, -2.5363532557917597e-15, 0.0, 0.0, 0.0, 8.354650248937333e-07]
twist: 
  twist: 
    linear: 
      x: 4.02363387698e-13
      y: 0.0138852413603
      z: 0.0
    angular: 
      x: 0.0
      y: 0.0
      z: 0.0399999999999
  covariance: [9.999999101230426e-10, 2.667943886971882e-13, 0.0, 0.0, 0.0, -2.002681270090576e-37, 2.6679438869718776e-13, 1.4955600583415094, 0.0, 0.0, 0.0, 6.36993211016384e-29, 0.0, 0.0, 9.940615109725627e-07, 4.016159492310903e-28, -7.950157048507323e-27, 0.0, 0.0, 0.0, 4.0161594923109e-28, 9.450225496374163e-07, 7.709146738726589e-34, 0.0, 0.0, 0.0, -7.95015704850732e-27, -2.899032688481688e-34, 9.450225496374163e-07, 0.0, -2.0026812700905756e-37, 6.369932110163856e-29, 0.0, 0.0, 0.0, 1.669030053700989e-05]
---
header: 
  seq: 3880
  stamp: 
    secs: 1518209850
    nsecs: 512303114
  frame_id: "swarmone/map"
child_frame_id: "swarmone/base_link"
pose: 
  pose: 
    position: 
      x: 0.873973684797
      y: 0.862851654833
      z: 0.0
    orientation: 
      x: 0.0
      y: 0.0
      z: 0.685288918495
      w: 0.728271308091
  covariance: [2.7988700731404306, -0.08540878539163477, 0.0, 0.0, 0.0, -1.3328682761269874e-16, -0.08540878539163481, 1.34363048317914, 0.0, 0.0, 0.0, -2.5682422722991186e-15, 0.0, 0.0, 6.82041350726798e-07, 1.1778076912124032e-14, -3.3269919790781436e-18, 0.0, 0.0, 0.0, 1.1778076912124026e-14, 6.820414171264095e-07, 1.232563803447054e-25, 0.0, 0.0, 0.0, -3.326991979078144e-18, 1.2325640495566931e-25, 6.820414171264098e-07, 0.0, -1.332868276126987e-16, -2.5682422722991186e-15, 0.0, 0.0, 0.0, 8.325440778257143e-08]
twist: 
  twist: 
    linear: 
      x: 3.64441124644e-13
      y: 0.0141639296406
      z: 0.0
    angular: 
      x: 0.0
      y: 0.0
      z: 0.0399999999953
  covariance: [9.999999089048665e-10, 2.4544258456592866e-13, 0.0, 0.0, 0.0, -2.9311658885884434e-43, 2.4544258456592826e-13, 1.6194123771141413, 0.0, 0.0, 0.0, 1.0353265653889246e-34, 0.0, 0.0, 9.442924229337921e-07, 8.535801717736117e-28, -1.4088288627721408e-26, 0.0, 0.0, 0.0, 8.535801717736115e-28, 6.820413507088034e-07, 1.1964525308328423e-34, 0.0, 0.0, 0.0, -1.4088288627721402e-26, 2.4160929744813487e-34, 6.820413507088034e-07, 0.0, -2.9311658885884426e-43, 1.0353265653889272e-34, 0.0, 0.0, 0.0, 1.6460881957003608e-06]
---
header: 
  seq: 3881
  stamp: 
    secs: 1518209850
    nsecs: 611770391
  frame_id: "swarmone/map"
child_frame_id: "swarmone/base_link"
pose: 
  pose: 
    position: 
      x: 0.867319319128
      y: 0.867612677281
      z: 0.0
    orientation: 
      x: 0.0
      y: 0.0
      z: 0.685289407735
      w: 0.728270847725
  covariance: [2.3270876147500243, -0.06608562363650562, 0.0, 0.0, 0.0, -2.5355729669905585e-14, -0.06608562363650561, 1.2246335647135065, 0.0, 0.0, 0.0, -4.280159033337955e-13, 0.0, 0.0, 8.474313746690874e-07, 1.0402470802291936e-14, -2.7028600882145375e-18, 0.0, 0.0, 0.0, 1.0402470802291933e-14, 8.474314216382578e-07, 1.8429742734881086e-25, 0.0, 0.0, 0.0, -2.702860088214538e-18, 1.8429784277587944e-25, 8.474314216382587e-07, 0.0, -2.5355729669905582e-14, -4.2801590333379534e-13, 0.0, 0.0, 0.0, 2.53723691867489e-07]
twist: 
  twist: 
    linear: 
      x: 4.17779288235e-13
      y: 0.0176845466506
      z: 0.0
    angular: 
      x: 0.0
      y: 0.0
      z: 0.0399999998053
  covariance: [9.999999090579034e-10, 2.7904882508338195e-13, 0.0, 0.0, 0.0, -7.601512566229726e-30, 2.790488250833814e-13, 1.4374723940484428, 0.0, 0.0, 0.0, 1.080696967556805e-20, 0.0, 0.0, 9.807857602387005e-07, 1.1780372082465788e-27, -1.943608112984842e-26, 0.0, 0.0, 0.0, 1.1780372082465788e-27, 8.474313746367805e-07, 5.08109000915139e-34, 0.0, 0.0, 0.0, -1.9436081129848428e-26, 7.571814195846599e-34, 8.474313746367805e-07, 0.0, -7.60151256622973e-30, 1.0806969675568065e-20, 0.0, 0.0, 0.0, 5.0554738768513475e-06]
---
header: 
  seq: 3882
  stamp: 
    secs: 1518209850
    nsecs: 712203026
  frame_id: "swarmone/map"
child_frame_id: "swarmone/base_link"
pose: 
  pose: 
    position: 
      x: 0.865527769682
      y: 0.86772181508
      z: 0.0
    orientation: 
      x: 0.0
      y: 0.0
      z: 0.688921668911
      w: 0.72483579803
  covariance: [2.6372902549367683, -0.0815115272043384, 0.0, 0.0, 0.0, -6.971572518097493e-17, -0.08151152720433835, 1.3057297658418594, 0.0, 0.0, 0.0, -1.18928235592656e-15, 0.0, 0.0, 6.746420288088173e-07, 1.5039801841629303e-14, -3.490857106231704e-18, 0.0, 0.0, 0.0, 1.5039801841629297e-14, 6.746420953487972e-07, 1.613883854603558e-25, 0.0, 0.0, 0.0, -3.490857106231701e-18, 1.6138822726080839e-25, 6.74642095348798e-07, 0.0, -6.971572518097492e-17, -1.1892823559265598e-15, 0.0, 0.0, 0.0, 7.967812911327843e-08]
twist: 
  twist: 
    linear: 
      x: 3.77731982147e-13
      y: 0.0180582526018
      z: 0.0
    angular: 
      x: 0.0
      y: 0.0
      z: 0.0400000000006
  covariance: [9.999999098738281e-10, 2.562951619838262e-13, 0.0, 0.0, 0.0, -7.1201902424615036e-37, 2.562951619838258e-13, 1.5592043482311775, 0.0, 0.0, 0.0, 1.1456741877406658e-27, 0.0, 0.0, 9.419806317661927e-07, 8.882012718843332e-28, -1.7550925318657638e-26, 0.0, 0.0, 0.0, 8.882012718843336e-28, 6.746420287913548e-07, 2.5329111339125e-34, 0.0, 0.0, 0.0, -1.7550925318657644e-26, 1.8587025818506348e-34, 6.746420287913548e-07, 0.0, -7.120190242461507e-37, 1.1456741877406674e-27, 0.0, 0.0, 0.0, 1.5745626219707779e-06]
---
header: 
  seq: 3883
  stamp: 
    secs: 1518209850
    nsecs: 812708616
  frame_id: "swarmone/map"
child_frame_id: "swarmone/base_link"
pose: 
  pose: 
    position: 
      x: 0.86088696143
      y: 0.870133914034
      z: 0.0
    orientation: 
      x: 0.0
      y: 0.0
