header: 
  seq: 9035
  stamp: 
    secs: 1518210366
    nsecs:  12176991
  frame_id: "swarmone/map"
child_frame_id: "swarmone/base_link"
pose: 
  pose: 
    position: 
      x: 2.70641137863
      y: 9.21728021146
      z: 0.0
    orientation: 
      x: 0.0
      y: 0.0
      z: 0.644217956532
      w: 0.764841960461
  covariance: [2.6955008249425805, -0.267357373985396, 0.0, 0.0, 0.0, 3.837153079679315e-18, -0.26735737398539594, 1.353657314091033, 0.0, 0.0, 0.0, 2.2133730144297234e-17, 0.0, 0.0, 6.913990278886862e-07, -4.144239460668344e-16, 6.33753183186484e-19, 0.0, 0.0, 0.0, -4.144239460668343e-16, 6.913990932201294e-07, 8.512887230681244e-28, 0.0, 0.0, 0.0, 6.33753183186484e-19, 8.50860778801172e-28, 6.913990932201294e-07, 0.0, 3.837153079679316e-18, 2.2133730144297234e-17, 0.0, 0.0, 0.0, 8.80227793617096e-08]
twist: 
  twist: 
    linear: 
      x: -6.96393521538e-14
      y: -0.000500000859975
      z: 0.0
    angular: 
      x: 0.0
      y: 0.0
      z: 0.0399999999999
  covariance: [9.999999089360181e-10, 7.813520838574604e-13, 0.0, 0.0, 0.0, 4.1178295637946615e-39, 7.813520838574616e-13, 1.6073512918164885, 0.0, 0.0, 0.0, -1.2396156185425751e-29, 0.0, 0.0, 9.471026921525564e-07, -8.63008478123012e-29, 5.049714508977923e-28, 0.0, 0.0, 0.0, -8.630084781230121e-29, 6.913990278701699e-07, -1.7208937283637327e-34, 0.0, 0.0, 0.0, 5.049714508977923e-28, 1.7208937283637753e-34, 6.913990278701699e-07, 0.0, 4.1178295637946615e-39, -1.2396156185425717e-29, 0.0, 0.0, 0.0, 1.7414556273408696e-06]
---
header: 
  seq: 9036
  stamp: 
    secs: 1518210366
    nsecs: 112720490
  frame_id: "swarmone/map"
child_frame_id: "swarmone/base_link"
pose: 
  pose: 
    position: 
      x: 2.709430703
      y: 9.21286128404
      z: 0.0
    orientation: 
      x: 0.0
      y: 0.0
      z: 0.644217941915
      w: 0.764841972773
  covariance: [2.2419099995039127, -0.20334142031116573, 0.0, 0.0, 0.0, 7.99661324124982e-15, -0.20334142031116564, 1.226765155612414, 0.0, 0.0, 0.0, 4.681894011101449e-14, 0.0, 0.0, 6.82038128088317e-07, -1.4939327351324593e-15, 1.3125496203773198e-18, 0.0, 0.0, 0.0, -1.493932735132459e-15, 6.820381936428159e-07, 6.1694146581073875e-27, 0.0, 0.0, 0.0, 1.3125496203773198e-18, 6.1709026095232644e-27, 6.820381936428159e-07, 0.0, 7.996613241249824e-15, 4.6818940111014475e-14, 0.0, 0.0, 0.0, 8.325440781980204e-08]
twist: 
  twist: 
    linear: 
      x: -1.41895968987e-13
      y: -0.00179649253268
      z: 0.0
    angular: 
      x: 0.0
      y: 0.0
      z: 0.039999999804
  covariance: [9.99999910098193e-10, 8.899636685713176e-13, 0.0, 0.0, 0.0, 2.1586021487646534e-31, 8.899636685713186e-13, 1.4254657406648157, 0.0, 0.0, 0.0, -6.612019805871405e-22, 0.0, 0.0, 9.442924130371225e-07, -3.027326115743023e-28, 1.7644635497943015e-27, 0.0, 0.0, 0.0, -3.027326115743023e-28, 6.820381280703154e-07, -1.4287529403760434e-34, 0.0, 0.0, 0.0, 1.7644635497943015e-27, 1.4294096118108657e-34, 6.820381280703154e-07, 0.0, 2.158602148764653e-31, -6.612019805871387e-22, 0.0, 0.0, 0.0, 1.6460881957001175e-06]
---
header: 
  seq: 9037
  stamp: 
    secs: 1518210366
    nsecs: 212160587
  frame_id: "swarmone/map"
child_frame_id: "swarmone/base_link"
pose: 
  pose: 
    position: 
      x: 2.70957531153
      y: 9.2128363125
      z: 0.0
    orientation: 
      x: 0.0
      y: 0.0
      z: 0.655618142247
      w: 0.755092611245
  covariance: [2.5372079092115425, -0.2469390690362061, 0.0, 0.0, 0.0, 1.2273011689661958e-17, -0.24693906903620602, 1.3126062848152955, 0.0, 0.0, 0.0, 8.074186611849433e-17, 0.0, 0.0, 8.446056266319083e-07, -6.883079197479789e-16, 8.395497674469019e-19, 0.0, 0.0, 0.0, -6.883079197479789e-16, 8.446056738255722e-07, 3.7181987902572875e-27, 0.0, 0.0, 0.0, 8.39549767446902e-19, 3.719248799436319e-27, 8.446056738255722e-07, 0.0, 1.227301168966196e-17, 8.074186611849433e-17, 0.0, 0.0, 0.0, 2.477632273607e-07]
twist: 
  twist: 
    linear: 
      x: -1.28383732436e-13
      y: -0.00115501790422
      z: 0.0
    angular: 
      x: 0.0
      y: 0.0
      z: 0.0400000000009
  covariance: [9.999999088854116e-10, 8.17540557548733e-13, 0.0, 0.0, 0.0, 1.9907746380787134e-38, 8.175405575487344e-13, 1.5451776469121719, 0.0, 0.0, 0.0, -6.880173059229814e-29, 0.0, 0.0, 9.803353388549468e-07, -1.7815986866872718e-28, 1.2681488960694223e-27, 0.0, 0.0, 0.0, -1.7815986866872722e-28, 8.446056265999341e-07, -6.565659129604222e-34, 0.0, 0.0, 0.0, 1.2681488960694227e-27, 6.565675549271601e-34, 8.446056265999341e-07, 0.0, 1.9907746380787134e-38, -6.880173059229794e-29, 0.0, 0.0, 0.0, 4.936264587301748e-06]
---
header: 
  seq: 9038
  stamp: 
    secs: 1518210366
    nsecs: 318496227
  frame_id: "swarmone/map"
child_frame_id: "swarmone/base_link"
pose: 
  pose: 
    position: 
      x: 2.71400441929
      y: 9.20878017516
      z: 0.0
    orientation: 
      x: 0.0
      y: 0.0
      z: 0.644308082573
      w: 0.764766039211
  covariance: [2.127026226533597, -0.18540028459045882, 0.0, 0.0, 0.0, 3.388751363738203e-14, -0.1854002845904587, 1.1903532442942262, 0.0, 0.0, 0.0, 1.934384634884581e-13, 0.0, 0.0, 9.983076730053598e-07, -5.5590327643981776e-18, 6.155409829720862e-22, 0.0, 0.0, 0.0, -5.559032764398181e-18, 9.983076738765648e-07, 2.0057637228267844e-30, 0.0, 0.0, 0.0, 6.155409829720863e-22, 2.0381503719694977e-30, 9.983076738765648e-07, 0.0, 3.388751363738202e-14, 1.934384634884581e-13, 0.0, 0.0, 0.0, 2.954111661600129e-05]
twist: 
  twist: 
    linear: 
      x: -1.09844719414e-07
      y: -0.00332149398414
      z: 0.0
    angular: 
      x: 0.0
      y: 0.0
      z: 0.0399999999967
  covariance: [0.0005928587968187395, 5.449685371965521e-07, 0.0, 0.0, 0.0, -7.898588202238503e-26, 5.449685371965529e-07, 1.3751573922003266, 0.0, 0.0, 0.0, 3.9968837587034335e-22, 0.0, 0.0, 9.998303422320448e-07, -4.886256330850869e-30, 2.835038914849325e-29, 0.0, 0.0, 0.0, -4.8862563308508696e-30, 9.983076729116278e-07, -9.412767714457434e-37, 0.0, 0.0, 0.0, 2.835038914849323e-29, 9.412767714457434e-37, 9.983076729116278e-07, 0.0, -7.898588202238502e-26, 3.9968837587034307e-22, 0.0, 0.0, 0.0, 0.0005908022390135724]
---
header: 
  seq: 9039
  stamp: 
    secs: 1518210366
    nsecs: 412109852
  frame_id: "swarmone/map"
child_frame_id: "swarmone/base_link"
pose: 
  pose: 
    position: 
      x: 2.71428658287
      y: 9.20873164808
      z: 0.0
    orientation: 
      x: 0.0
      y: 0.0
      z: 0.64803406103
      w: 0.76161135479
  covariance: [2.389306558664502, -0.22364598618777826, 0.0, 0.0, 0.0, 2.869435614858615e-15, -0.2236459861877782, 1.2706735631829231, 0.0, 0.0, 0.0, 1.6630633401058967e-14, 0.0, 0.0, 6.720982561622175e-07, -2.32882288600231e-15, 1.5455631554123164e-18, 0.0, 0.0, 0.0, -2.32882288600231e-15, 6.720983219495621e-07, 1.0979371229112611e-26, 0.0, 0.0, 0.0, 1.5455631554123168e-18, 1.0979846191718248e-26, 6.720983219495621e-07, 0.0, 2.8694356148586144e-15, 1.6630633401058964e-14, 0.0, 0.0, 0.0, 7.848603621781384e-08]
twist: 
  twist: 
    linear: 
      x: -1.68774244204e-13
      y: -0.00279527892612
      z: 0.0
    angular: 
      x: 0.0
      y: 0.0
      z: 0.0400000000666
  covariance: [9.999999090166337e-10, 8.494364621520697e-13, 0.0, 0.0, 0.0, 7.119275524921108e-33, 8.494364621520708e-13, 1.4848287361014298, 0.0, 0.0, 0.0, -2.3322619986201933e-23, 0.0, 0.0, 9.41166797616317e-07, -4.300993053252031e-28, 2.6628924370461016e-27, 0.0, 0.0, 0.0, -4.300993053252029e-28, 6.720982561448766e-07, 5.07357296989968e-35, 0.0, 0.0, 0.0, 2.6628924370461016e-27, -2.6575423380375905e-35, 6.720982561448766e-07, 0.0, 7.119275524921108e-33, -2.3322619986201892e-23, 0.0, 0.0, 0.0, 1.5507207640595985e-06]
---
header: 
  seq: 9040
  stamp: 
    secs: 1518210366
    nsecs: 512589693
  frame_id: "swarmone/map"
child_frame_id: "swarmone/base_link"
pose: 
  pose: 
    position: 
      x: 2.71453581301
      y: 9.20869118818
      z: 0.0
    orientation: 
      x: 0.0
      y: 0.0
      z: 0.65183400879
      w: 0.758361671622
  covariance: [2.707761836481914, -0.26922421051994583, 0.0, 0.0, 0.0, 1.1712419674168624e-17, -0.26922421051994583, 1.3574990138560488, 0.0, 0.0, 0.0, 7.418240779175335e-17, 0.0, 0.0, 6.771464496968744e-07, -1.856906090531e-15, 1.4118173029585045e-18, 0.0, 0.0, 0.0, -1.856906090531e-15, 6.771465155385082e-07, 8.12115327796415e-27, 0.0, 0.0, 0.0, 1.4118173029585037e-18, 8.120418315076706e-27, 6.771465155385082e-07, 0.0, 1.1712419674168624e-17, 7.418240779175332e-17, 0.0, 0.0, 0.0, 8.087022200889008e-08]
twist: 
  twist: 
    linear: 
      x: -1.52723927424e-13
      y: -0.00223046826378
      z: 0.0
    angular: 
      x: 0.0
      y: 0.0
      z: 0.0400000000002
  covariance: [9.999999099390129e-10, 7.804110215649658e-13, 0.0, 0.0, 0.0, 6.76899403821959e-40, 7.804110215649671e-13, 1.6093074709291264, 0.0, 0.0, 0.0, -2.50230662585014e-30, 0.0, 0.0, 9.427722571471861e-07, -3.2711444333320536e-28, 2.1638612120965062e-27, 0.0, 0.0, 0.0, -3.2711444333320522e-28, 6.771464496793529e-07, 1.8439336680836603e-34, 0.0, 0.0, 0.0, 2.163861212096506e-27, -1.843853834302191e-34, 6.771464496793529e-07, 0.0, 6.768994038219591e-40, -2.5023066258501355e-30, 0.0, 0.0, 0.0, 1.5984044798809459e-06]
---
header: 
  seq: 9041
  stamp: 
    secs: 1518210366
    nsecs: 612078190
  frame_id: "swarmone/map"
child_frame_id: "swarmone/base_link"
pose: 
  pose: 
    position: 
      x: 2.71761877564
      y: 9.20373577074
      z: 0.0
    orientation: 
      x: 0.0
      y: 0.0
      z: 0.648034079829
      w: 0.761611338794
  covariance: [2.2483500088389707, -0.20162511097993477, 0.0, 0.0, 0.0, 1.3405887956936703e-14, -0.2016251109799347, 1.2284469848651058, 0.0, 0.0, 0.0, 8.925965574098792e-14, 0.0, 0.0, 6.746385216064439e-07, -3.01265346796441e-15, 2.0871115301539543e-18, 0.0, 0.0, 0.0, -3.01265346796441e-15, 6.746385873733861e-07, 1.9333704843606633e-26, 0.0, 0.0, 0.0, 2.0871115301539543e-18, 1.9333147697485464e-26, 6.746385873733861e-07, 0.0, 1.3405887956936703e-14, 8.925965574098794e-14, 0.0, 0.0, 0.0, 7.967812911167378e-08]
twist: 
  twist: 
    linear: 
      x: -2.27896796639e-13
      y: -0.00361722084875
      z: 0.0
    angular: 
      x: 0.0
      y: 0.0
      z: 0.0399999993196
  covariance: [9.999999090516722e-10, 8.858322498910297e-13, 0.0, 0.0, 0.0, 1.356948064088077e-30, 8.858322498910309e-13, 1.425472221858127, 0.0, 0.0, 0.0, -2.64651242845448e-21, 0.0, 0.0, 9.419806206083904e-07, -5.611959520890422e-28, 3.475215745462135e-27, 0.0, 0.0, 0.0, -5.611959520890422e-28, 6.746385215889395e-07, 8.316805485445689e-35, 0.0, 0.0, 0.0, 3.475215745462134e-27, 1.2454193276509923e-34, 6.746385215889395e-07, 0.0, 1.356948064088077e-30, -2.6465124284544785e-21, 0.0, 0.0, 0.0, 1.5745626219686095e-06]
---
header: 
  seq: 9042
  stamp: 
    secs: 1518210366
    nsecs: 712605476
  frame_id: "swarmone/map"
child_frame_id: "swarmone/base_link"
pose: 
  pose: 
    position: 
      x: 2.71795250413
      y: 9.20368158843
      z: 0.0
    orientation: 
      x: 0.0
      y: 0.0
      z: 0.651834001561
      w: 0.758361677835
  covariance: [2.547944768005211, -0.24398940231441418, 0.0, 0.0, 0.0, 1.5897660766463088e-17, -0.24398940231441407, 1.314763021828431, 0.0, 0.0, 0.0, 1.0070242865224607e-16, 0.0, 0.0, 6.720984535531501e-07, -2.590389696176654e-15, 1.9061068572340394e-18, 0.0, 0.0, 0.0, -2.5903896961766546e-15, 6.720985194425204e-07, 1.5058396752939896e-26, 0.0, 0.0, 0.0, 1.9061068572340394e-18, 1.5060427649374956e-26, 6.720985194425204e-07, 0.0, 1.5897660766463082e-17, 1.0070242865224604e-16, 0.0, 0.0, 0.0, 7.848603621881399e-08]
twist: 
  twist: 
    linear: 
      x: -2.05988225931e-13
      y: -0.00310928263318
      z: 0.0
    angular: 
      x: 0.0
      y: 0.0
      z: 0.0400000000002
  covariance: [9.99999909963376e-10, 8.13027759870575e-13, 0.0, 0.0, 0.0, 1.2357462087290223e-37, 8.130277598705759e-13, 1.5465177658904037, 0.0, 0.0, 0.0, -2.7125620965067964e-28, 0.0, 0.0, 9.411667982522216e-07, -4.485139029180481e-28, 2.9664273509515447e-27, 0.0, 0.0, 0.0, -4.485139029180482e-28, 6.720984535359658e-07, 2.0172305405064599e-35, 0.0, 0.0, 0.0, 2.9664273509515458e-27, 3.916130574843626e-36, 6.720984535359658e-07, 0.0, 1.2357462087290223e-37, -2.7125620965067946e-28, 0.0, 0.0, 0.0, 1.550720764060681e-06]
---
header: 
  seq: 9043
  stamp: 
    secs: 1518210366
    nsecs: 818003178
  frame_id: "swarmone/map"
child_frame_id: "swarmone/base_link"
pose: 
  pose: 
    position: 
      x: 2.72223431789
      y: 9.19759369134
      z: 0.0
    orientation: 
      x: 0.0
      y: 0.0
      z: 0.64812379887
      w: 0.761534990226
  covariance: [2.1324952764269036, -0.18407937164030835, 0.0, 0.0, 0.0, 1.707515870943055e-13, -0.18407937164030824, 1.1920188951061819, 0.0, 0.0, 0.0, 1.0281994921745593e-12, 0.0, 0.0, 9.983071265697955e-07, -2.952759449564335e-17, 1.744507079512322e-21, 0.0, 0.0, 0.0, -2.952759449564335e-17, 9.983071274427926e-07, 3.048144869414353e-29, 0.0, 0.0, 0.0, 1.744507079512321e-21, 3.0449039519027367e-29, 9.983071274427926e-07, 0.0, 1.707515870943055e-13, 1.0281994921745597e-12, 0.0, 0.0, 0.0, 2.9531579837431517e-05]
twist: 
  twist: 
    linear: 
      x: -1.77186808929e-07
      y: -0.00526598380856
      z: 0.0
    angular: 
      x: 0.0
      y: 0.0
      z: 0.0399999999996
  covariance: [0.0005926657454556714, 5.427740980837196e-07, 0.0, 0.0, 0.0, -4.368012458041386e-25, 5.427740980837203e-07, 1.3754116168395374, 0.0, 0.0, 0.0, 1.8163424616740915e-21, 0.0, 0.0, 9.998302873136112e-07, -2.4454674300601805e-29, 1.508370686565625e-28, 0.0, 0.0, 0.0, -2.4454674300601783e-29, 9.983071264760629e-07, 2.2123690187094335e-36, 0.0, 0.0, 0.0, 1.5083706865656243e-28, 5.7809976668449335e-37, 9.983071264760629e-07, 0.0, -4.368012458041388e-25, 1.81634246167409e-21, 0.0, 0.0, 0.0, 0.0005906115041502902]
---
header: 
  seq: 9044
  stamp: 
    secs: 1518210366
    nsecs: 912597895
  frame_id: "swarmone/map"
child_frame_id: "swarmone/base_link"
pose: 
  pose: 
    position: 
      x: 2.72270723989
      y: 9.19751721539
      z: 0.0
    orientation: 
      x: 0.0
      y: 0.0
      z: 0.651834001602
      w: 0.7583616778
  covariance: [2.398425148490142, -0.22124622192571955, 0.0, 0.0, 0.0, 4.477396028647267e-15, -0.22124622192571947, 1.2727926157409617, 0.0, 0.0, 0.0, 2.759525813065042e-14, 0.0, 0.0, 6.720982859430039e-07, -4.0513084878739964e-15, 2.518443329305019e-18, 0.0, 0.0, 0.0, -4.051308487873996e-15, 6.720983518337657e-07, 3.11228467549714e-26, 0.0, 0.0, 0.0, 2.5184433293050197e-18, 3.1122730826112605e-26, 6.720983518337658e-07, 0.0, 4.47739602864727e-15, 2.7595258130650416e-14, 0.0, 0.0, 0.0, 7.848603623742814e-08]
twist: 
  twist: 
    linear: 
      x: -2.72078375251e-13
      y: -0.00486282484879
      z: 0.0
    angular: 
      x: 0.0
      y: 0.0
      z: 0.0400000000655
  covariance: [9.999999099871953e-10, 8.456635590880597e-13, 0.0, 0.0, 0.0, 3.732526660833331e-32, 8.456635590880612e-13, 1.486278020767212, 0.0, 0.0, 0.0, -1.0296308248884717e-22, 0.0, 0.0, 9.411667977122169e-07, -7.020428496509568e-28, 4.639640454364658e-27, 0.0, 0.0, 0.0, -7.020428496509567e-28, 6.720982859256626e-07, -5.858555648244818e-35, 0.0, 0.0, 0.0, 4.639640454364658e-27, 1.9105505593235363e-34, 6.720982859256626e-07, 0.0, 3.732526660833331e-32, -1.0296308248884693e-22, 0.0, 0.0, 0.0, 1.5507207640605783e-06]
---
header: 
  seq: 9045
  stamp: 
    secs: 1518210367
    nsecs:  12082100
  frame_id: "swarmone/map"
child_frame_id: "swarmone/base_link"
pose: 
  pose: 
    position: 
      x: 2.72316466468
      y: 9.19744765316
      z: 0.0
    orientation: 
      x: 0.0
      y: 0.0
      z: 0.651834005489
      w: 0.758361674459
  covariance: [2.7147647751177786, -0.2644890312373363, 0.0, 0.0, 0.0, 2.1210972146499233e-17, -0.2644890312373361, 1.3582494233682356, 0.0, 0.0, 0.0, 1.3917221866118925e-16, 0.0, 0.0, 6.695147637427945e-07, -3.698744454396789e-15, 2.255551000111836e-18, 0.0, 0.0, 0.0, -3.6987444543967894e-15, 6.69514829644881e-07, 2.524618444710305e-26, 0.0, 0.0, 0.0, 2.255551000111836e-18, 2.5245572664392588e-26, 6.69514829644881e-07, 0.0, 2.1210972146499233e-17, 1.3917221866118925e-16, 0.0, 0.0, 0.0, 7.729394330243835e-08]
twist: 
  twist: 
    linear: 
      x: -2.46433808605e-13
      y: -0.00443882762765
      z: 0.0
    angular: 
      x: 0.0
      y: 0.0
      z: 0.0399999999999
  covariance: [9.999999089527429e-10, 7.775862469604372e-13, 0.0, 0.0, 0.0, 3.5876600127582826e-39, 7.775862469604381e-13, 1.6095717379740124, 0.0, 0.0, 0.0, -1.1144021755356286e-29, 0.0, 0.0, 9.403298086612529e-07, -6.35190191030745e-28, 4.197496654451137e-27, 0.0, 0.0, 0.0, -6.3519019103074555e-28, 6.695147637257837e-07, -3.306069502168493e-35, 0.0, 0.0, 0.0, 4.197496654451139e-27, 1.2938336677954214e-34, 6.695147637257837e-07, 0.0, 3.5876600127582826e-39, -1.1144021755356258e-29, 0.0, 0.0, 0.0, 1.526878906149482e-06]
---
header: 
  seq: 9046
  stamp: 
    secs: 1518210367
    nsecs: 112486601
  frame_id: "swarmone/map"
child_frame_id: "swarmone/base_link"
pose: 
  pose: 
    position: 
      x: 2.72858801026
      y: 9.19198191047
      z: 0.0
    orientation: 
      x: 0.0
      y: 0.0
      z: 0.648034065232
      w: 0.761611351215
  covariance: [2.2571812442516004, -0.19882098837669987, 0.0, 0.0, 0.0, 2.659603109129932e-14, -0.19882098837669968, 1.2304988271298898, 0.0, 0.0, 0.0, 1.772944012571661e-13, 0.0, 0.0, 6.64219686911496e-07, -6.052354651693276e-15, 2.914830007608249e-18, 0.0, 0.0, 0.0, -6.052354651693275e-15, 6.642197527130601e-07, 5.256066166618712e-26, 0.0, 0.0, 0.0, 2.9148300076082484e-18, 5.255945678591952e-26, 6.642197527130602e-07, 0.0, 2.6596031091299325e-14, 1.7729440125716608e-13, 0.0, 0.0, 0.0, 7.49097575481036e-08]
twist: 
  twist: 
    linear: 
      x: -3.14908132479e-13
      y: -0.00726316789074
      z: 0.0
    angular: 
      x: 0.0
      y: 0.0
      z: 0.039999999318
  covariance: [9.999999099608823e-10, 8.773953895650117e-13, 0.0, 0.0, 0.0, 2.716956101976269e-30, 8.773953895650135e-13, 1.4272372738746484, 0.0, 0.0, 0.0, -5.713598971588878e-21, 0.0, 0.0, 9.385822805983184e-07, -1.0883638977027254e-27, 6.730695474505182e-27, 0.0, 0.0, 0.0, -1.0883638977027254e-27, 6.642196868946689e-07, 1.0203494051663994e-34, 0.0, 0.0, 0.0, 6.73069547450518e-27, 1.501039382536439e-34, 6.642196868946689e-07, 0.0, 2.7169561019762696e-30, -5.713598971588857e-21, 0.0, 0.0, 0.0, 1.4791951903288911e-06]
---
header: 
  seq: 9047
  stamp: 
    secs: 1518210367
    nsecs: 211968899
  frame_id: "swarmone/map"
child_frame_id: "swarmone/base_link"
pose: 
  pose: 
    position: 
      x: 2.72928498709
      y: 9.19186879124
      z: 0.0
    orientation: 
      x: 0.0
      y: 0.0
      z: 0.648034065007
      w: 0.761611351406
  covariance: [2.554206072927906, -0.24045508537036125, 0.0, 0.0, 0.0, 3.408115865234468e-17, -0.2404550853703611, 1.3158089630787757, 0.0, 0.0, 0.0, 2.0970516096496613e-16, 0.0, 0.0, 6.695147636879871e-07, -5.7764315575565006e-15, 2.6071814937664497e-18, 0.0, 0.0, 0.0, -5.7764315575565006e-15, 6.695148294866067e-07, 4.557558096370961e-26, 0.0, 0.0, 0.0, 2.6071814937664497e-18, 4.5575406545707835e-26, 6.695148294866067e-07, 0.0, 3.408115865234468e-17, 2.097051609649661e-16, 0.0, 0.0, 0.0, 7.72939433023825e-08]
twist: 
  twist: 
    linear: 
      x: -2.84908581085e-13
      y: -0.0069322716339
      z: 0.0
    angular: 
      x: 0.0
      y: 0.0
      z: 0.0399999999999
  covariance: [9.999999089277573e-10, 8.059883130021003e-13, 0.0, 0.0, 0.0, 2.5004998868507537e-37, 8.059883130021018e-13, 1.5470986571997476, 0.0, 0.0, 0.0, -5.919334421120384e-28, 0.0, 0.0, 9.403298086610811e-07, -1.0585311364447779e-27, 6.544913866229932e-27, 0.0, 0.0, 0.0, -1.0585311364447782e-27, 6.695147636709833e-07, 2.8716062964747826e-35, 0.0, 0.0, 0.0, 6.544913866229935e-27, 1.0556503887396837e-34, 6.695147636709833e-07, 0.0, 2.5004998868507533e-37, -5.919334421120363e-28, 0.0, 0.0, 0.0, 1.5268789061494792e-06]
---
header: 
  seq: 9048
  stamp: 
    secs: 1518210367
    nsecs: 317987680
  frame_id: "swarmone/map"
child_frame_id: "swarmone/base_link"
pose: 
  pose: 
    position: 
      x: 2.73524192055
      y: 9.18539296278
      z: 0.0
    orientation: 
      x: 0.0
      y: 0.0
      z: 0.648118493161
      w: 0.761539505753
  covariance: [2.1382764486085404, -0.18290869553808198, 0.0, 0.0, 0.0, 3.895767128482684e-13, -0.18290869553808192, 1.1938625954892532, 0.0, 0.0, 0.0, 2.349746387162565e-12, 0.0, 0.0, 9.982014068733226e-07, -7.88289788047438e-17, 3.6603489888988826e-21, 0.0, 0.0, 0.0, -7.882897880474382e-17, 9.982014077908572e-07, 1.6057129384682074e-28, 0.0, 0.0, 0.0, 3.660348988898881e-21, 1.6055300013326294e-28, 9.98201407790857e-07, 0.0, 3.8957671284826834e-13, 2.3497463871625645e-12, 0.0, 0.0, 0.0, 2.7792307855601493e-05]
twist: 
  twist: 
    linear: 
      x: -2.07439959146e-07
      y: -0.0100620229486
      z: 0.0
    angular: 
      x: 0.0
      y: 0.0
      z: 0.0399999999999
  covariance: [0.0005575370307050537, 5.078093951790054e-07, 0.0, 0.0, 0.0, -9.372852139876023e-25, 5.078093951790068e-07, 1.3766101596492493, 0.0, 0.0, 0.0, 4.246932621087836e-21, 0.0, 0.0, 9.998196629250435e-07, -6.40099517938402e-29, 3.9478265798611136e-28, 0.0, 0.0, 0.0, -6.40099517938402e-29, 9.982014067798658e-07, 1.738157053863559e-35, 0.0, 0.0, 0.0, 3.9478265798611127e-28, 1.626157943368865e-35, 9.982014067798658e-07, 0.0, -9.372852139876025e-25, 4.246932621087818e-21, 0.0, 0.0, 0.0, 0.0005558262334593731]
---
header: 
  seq: 9049
  stamp: 
    secs: 1518210367
    nsecs: 412782907
  frame_id: "swarmone/map"
child_frame_id: "swarmone/base_link"
pose: 
  pose: 
    position: 
      x: 2.73656383618
      y: 9.18776893195
      z: 0.0
    orientation: 
      x: 0.0
      y: 0.0
      z: 0.864924579763
      w: 0.501901854273
  covariance: [2.4051816847690306, -0.22001697402414216, 0.0, 0.0, 0.0, 8.043837273924883e-15, -0.2200169740241421, 1.2747559658857153, 0.0, 0.0, 0.0, 5.1535210122131286e-14, 0.0, 0.0, 8.463137692082921e-07, -5.819918561090252e-15, 2.2152602769839543e-18, 0.0, 0.0, 0.0, -5.819918561090253e-15, 8.463138000071269e-07, 8.389537984064505e-26, 0.0, 0.0, 0.0, 2.2152602769839535e-18, 8.389281303689887e-26, 8.46313800007127e-07, 0.0, 8.043837273924886e-15, 5.15352101221313e-14, 0.0, 0.0, 0.0, 2.5133950608377567e-07]
twist: 
  twist: 
    linear: 
      x: 0.0782999636447
      y: -0.00977726936659
      z: 0.0
    angular: 
      x: 0.0
      y: 0.0
      z: 0.0300000080094
  covariance: [9.99999909840931e-10, 8.409828055359003e-13, 0.0, 0.0, 0.0, 8.062917114441444e-32, 8.409828055359026e-13, 1.4877949554125187, 0.0, 0.0, 0.0, -2.2825683445791e-22, 0.0, 0.0, 9.806080910818456e-07, 5.39704021310443e-27, 9.43399008296713e-27, 0.0, 0.0, 0.0, 5.397040213104432e-27, 8.463137691761058e-07, -2.589312600006569e-33, 0.0, 0.0, 0.0, 9.43399008296713e-27, -3.924807788606175e-34, 8.463137691761058e-07, 0.0, 8.062917114441442e-32, -2.2825683445790918e-22, 0.0, 0.0, 0.0, 5.0077901610330605e-06]
---
header: 
  seq: 9050
  stamp: 
    secs: 1518210367
    nsecs: 512481928
  frame_id: "swarmone/map"
child_frame_id: "swarmone/base_link"
pose: 
  pose: 
    position: 
      x: 2.73356553529
      y: 9.20002459776
      z: 0.0
    orientation: 
      x: 0.0
      y: 0.0
      z: 0.666869750799
      w: 0.745174298718
  covariance: [2.6825456121056286, -0.15344669635122882, 0.0, 0.0, 0.0, -5.161763967316726e-15, -0.15344669635122885, 1.3402226390219607, 0.0, 0.0, 0.0, -1.3197792499200378e-15, 0.0, 0.0, 6.771464294299586e-07, -7.947106728033842e-15, -7.135978240889966e-14, 0.0, 0.0, 0.0, -7.94710672803384e-15, 6.771463301437324e-07, -1.756682871013547e-21, 0.0, 0.0, 0.0, -7.135978240889966e-14, -1.7566828704971067e-21, 6.771463301437169e-07, 0.0, -5.161763967316726e-15, -1.3197792499200382e-15, 0.0, 0.0, 0.0, 8.087022199413465e-08]
twist: 
  twist: 
    linear: 
      x: 0.25179992136
      y: -0.00941761590275
      z: 0.0
    angular: 
      x: 0.0
      y: 0.0
      z: -0.0599999910394
  covariance: [9.999999091677472e-10, 7.732272822819914e-13, 0.0, 0.0, 0.0, 8.715761072314906e-39, 7.732272822819932e-13, 1.611460083223381, 0.0, 0.0, 0.0, -2.7798319779800036e-29, 0.0, 0.0, 9.427722570833542e-07, -1.6455043870104157e-24, -1.6979480410682628e-25, 0.0, 0.0, 0.0, -1.6455043870104151e-24, 6.771464294122353e-07, -4.2940087707599813e-32, 0.0, 0.0, 0.0, -1.6979480410682621e-25, -4.282003425189121e-32, 6.771464294122353e-07, 0.0, 8.715761072314897e-39, -2.7798319779799935e-29, 0.0, 0.0, 0.0, 1.5984044798802011e-06]
---
header: 
  seq: 9051
  stamp: 
    secs: 1518210367
    nsecs: 612421513
  frame_id: "swarmone/map"
child_frame_id: "swarmone/base_link"
pose: 
  pose: 
    position: 
      x: 2.74485604012
      y: 9.22684951041
      z: 0.0
    orientation: 
      x: 0.0
      y: 0.0
      z: 0.674291350186
      w: 0.738465419003
  covariance: [2.2448804245223495, -0.11821772660031667, 0.0, 0.0, 0.0, -6.482952757293409e-12, -0.11821772660031672, 1.218807911056365, 0.0, 0.0, 0.0, 1.0800637504591485e-12, 0.0, 0.0, 8.924294999131089e-07, -6.198441276418016e-15, -1.2400763021706719e-13, 0.0, 0.0, 0.0, -6.198441276418018e-15, 8.924296077067857e-07, -7.145832602786668e-21, 0.0, 0.0, 0.0, -1.2400763021706719e-13, -7.145832602717076e-21, 8.924296077066433e-07, 0.0, -6.48295275729341e-12, 1.0800637504591481e-12, 0.0, 0.0, 0.0, 3.9081437485242074e-07]
twist: 
  twist: 
    linear: 
      x: 0.327599972439
      y: -0.0137075721836
      z: 0.0
    angular: 
      x: 0.0
      y: 0.0
      z: 0.119999983026
  covariance: [9.999999095006014e-10, 6.662190157469601e-13, 0.0, 0.0, 0.0, 1.467176706213132e-29, 6.66219015746963e-13, 1.4369205059207735, 0.0, 0.0, 0.0, 9.612623417436852e-18, 0.0, 0.0, 9.874155060576554e-07, -5.576880466933825e-23, -5.064246843081435e-24, 0.0, 0.0, 0.0, -5.576880466933831e-23, 8.924294998734408e-07, -2.50697421369027e-29, 0.0, 0.0, 0.0, -5.0642468430814375e-24, -2.5071123769734012e-29, 8.924294998734408e-07, 0.0, 1.4671767062131319e-29, 9.612623417436852e-18, 0.0, 0.0, 0.0, 7.797287536519785e-06]
---
header: 
  seq: 9052
  stamp: 
    secs: 1518210367
    nsecs: 711767912
  frame_id: "swarmone/map"
child_frame_id: "swarmone/base_link"
pose: 
  pose: 
    position: 
      x: 2.74929279281
      y: 9.26045975228
      z: 0.0
    orientation: 
      x: 0.0
      y: 0.0
      z: 0.560507815456
      w: 0.828149134403
  covariance: [2.5437877991963695, -0.1411531696389917, 0.0, 0.0, 0.0, -4.2066006837113776e-14, -0.14115316963899183, 1.3000053117824315, 0.0, 0.0, 0.0, 1.0422714063891102e-14, 0.0, 0.0, 8.410727782793929e-07, -8.231255094671187e-15, -2.1524791446482146e-13, 0.0, 0.0, 0.0, -8.231255094671186e-15, 8.410727108562482e-07, -1.114849882827222e-20, 0.0, 0.0, 0.0, -2.1524791446482143e-13, -1.1148498819825091e-20, 8.410727108559571e-07, 0.0, -4.2066006837113776e-14, 1.04227140638911e-14, 0.0, 0.0, 0.0, 2.406106699871366e-07]
twist: 
  twist: 
    linear: 
      x: 0.35319999763
      y: -0.0136032203228
      z: 0.0
    angular: 
      x: 0.0
      y: 0.0
      z: -0.0599999819344
  covariance: [9.999999087918527e-10, 6.116793009999199e-13, 0.0, 0.0, 0.0, 1.420822403899786e-36, 6.116793009999225e-13, 1.5572428214205902, 0.0, 0.0, 0.0, 1.0574625259942144e-24, 0.0, 0.0, 9.797661500646652e-07, -4.228668492137433e-23, -1.6913731100502897e-23, 0.0, 0.0, 0.0, -4.228668492137432e-23, 8.410727782443061e-07, -6.660624671040204e-29, 0.0, 0.0, 0.0, -1.6913731100502897e-23, -6.66054116371761e-29, 8.410727782443061e-07, 0.0, 1.4208224038997862e-36, 1.0574625259942146e-24, 0.0, 0.0, 0.0, 4.793213439840779e-06]
---
header: 
  seq: 9053
  stamp: 
    secs: 1518210367
    nsecs: 820996046
  frame_id: "swarmone/map"
child_frame_id: "swarmone/base_link"
pose: 
  pose: 
    position: 
      x: 2.77219544435
      y: 9.29307597105
      z: 0.0
    orientation: 
      x: 0.0
      y: 0.0
      z: 0.572938363837
      w: 0.819598457321
  covariance: [2.1261590377819997, -0.1406906554261777, 0.0, 0.0, 0.0, -1.4190403815404806e-10, -0.14069065542617776, 1.188596103820828, 0.0, 0.0, 0.0, 6.617077049734345e-11, 0.0, 0.0, 9.988445619568932e-07, -1.0667695310521805e-16, -2.3056760306130825e-15, 0.0, 0.0, 0.0, -1.0667695310521804e-16, 9.988445622204153e-07, -2.1288878161155545e-22, 0.0, 0.0, 0.0, -2.3056760306130825e-15, -2.1288878161586984e-22, 9.988445622204108e-07, 0.0, -1.4190403815404808e-10, 6.617077049734346e-11, 0.0, 0.0, 0.0, 4.327290283258012e-05]
twist: 
  twist: 
    linear: 
      x: 0.293893375249
      y: -0.0180924049009
      z: 0.0
    angular: 
      x: 0.0
      y: 0.0
      z: 0.0199999920529
  covariance: [0.0008715932227368434, 5.970225201962846e-07, 0.0, 0.0, 0.0, -2.932852846565533e-23, 5.970225201962871e-07, 1.3926684490916077, 0.0, 0.0, 0.0, -6.476562523422973e-18, 0.0, 0.0, 9.998842572426566e-07, -1.1621703495447052e-26, -3.653087598504812e-27, 0.0, 0.0, 0.0, -1.1621703495447055e-26, 9.988445618569384e-07, -4.1232782481749987e-32, 0.0, 0.0, 0.0, -3.653087598504811e-27, -4.122450274974345e-32, 9.988445618569384e-07, 0.0, -2.932852846565533e-23, -6.4765625234229794e-18, 0.0, 0.0, 0.0, 0.0008654366002806623]
---
header: 
  seq: 9054
  stamp: 
    secs: 1518210367
    nsecs: 912208319
  frame_id: "swarmone/map"
child_frame_id: "swarmone/base_link"
pose: 
  pose: 
    position: 
      x: 2.78248644625
      y: 9.31586929127
      z: 0.0
    orientation: 
      x: 0.0
      y: 0.0
      z: 0.613116907288
      w: 0.789992188567
  covariance: [2.3696437923183282, -0.19706283172498934, 0.0, 0.0, 0.0, -2.1756383189702678e-12, -0.19706283172498937, 1.2703175891495282, 0.0, 0.0, 0.0, 9.458923208428288e-13, 0.0, 0.0, 6.844333474091646e-07, -1.5052093785976897e-14, -2.5907077929094896e-13, 0.0, 0.0, 0.0, -1.5052093785976894e-14, 6.844333796045424e-07, -1.2358831739022136e-20, 0.0, 0.0, 0.0, -2.5907077929094906e-13, -1.2358831738132844e-20, 6.844333796043304e-07, 0.0, -2.1756383189702674e-12, 9.45892320842829e-13, 0.0, 0.0, 0.0, 8.444650070886884e-08]
twist: 
  twist: 
    linear: 
      x: 0.230900035773
      y: -0.0181653337921
      z: 0.0
    angular: 
      x: 0.0
      y: 0.0
      z: 0.0200000015317
  covariance: [9.999999093767129e-10, 6.342542656416328e-13, 0.0, 0.0, 0.0, 2.484466596452442e-30, 6.342542656416357e-13, 1.5004734849241326, 0.0, 0.0, 0.0, 5.364623073926294e-19, 0.0, 0.0, 9.450226165286049e-07, -6.486640835919928e-24, -1.6438922991586298e-24, 0.0, 0.0, 0.0, -6.486640835919931e-24, 6.844333473896274e-07, -2.1645441807373584e-30, 0.0, 0.0, 0.0, -1.6438922991586303e-24, -2.1643950913244664e-30, 6.844333473896274e-07, 0.0, 2.4844665964524406e-30, 5.364623073926299e-19, 0.0, 0.0, 0.0, 1.6699300536106637e-06]
---
header: 
  seq: 9055
  stamp: 
    secs: 1518210368
    nsecs:  12564898
  frame_id: "swarmone/map"
child_frame_id: "swarmone/base_link"
pose: 
  pose: 
    position: 
      x: 2.78984459179
      y: 9.33659689682
      z: 0.0
    orientation: 
      x: 0.0
      y: 0.0
      z: 0.601198841229
      w: 0.799099463962
  covariance: [2.6806207348420625, -0.2549485020496332, 0.0, 0.0, 0.0, -7.394914216047246e-15, -0.25494850204963315, 1.3599057351367896, 0.0, 0.0, 0.0, 2.6257951651108415e-15, 0.0, 0.0, 6.746420267695706e-07, -1.5149462230910735e-14, -2.022444270237587e-13, 0.0, 0.0, 0.0, -1.5149462230910735e-14, 6.746421227923236e-07, -9.417532005687828e-21, 0.0, 0.0, 0.0, -2.0224442702375875e-13, -9.417532008100291e-21, 6.746421227921986e-07, 0.0, -7.394914216047246e-15, 2.6257951651108415e-15, 0.0, 0.0, 0.0, 7.967812911096311e-08]
twist: 
  twist: 
    linear: 
      x: 0.17650002998
      y: -0.0182285767268
      z: 0.0
    angular: 
      x: 0.0
      y: 0.0
      z: 0.0599999960132
  covariance: [9.999999098149366e-10, 5.828011024713924e-13, 0.0, 0.0, 0.0, 2.3349964635863583e-37, 5.828011024713952e-13, 1.6257861518448702, 0.0, 0.0, 0.0, 5.726396213605963e-26, 0.0, 0.0, 9.419806317598373e-07, -4.445663237158107e-24, -1.2635537287918992e-24, 0.0, 0.0, 0.0, -4.445663237158104e-24, 6.746420267514551e-07, -1.2153908894343413e-30, 0.0, 0.0, 0.0, -1.2635537287918995e-24, -1.2151932008516409e-30, 6.746420267514551e-07, 0.0, 2.334996463586357e-37, 5.726396213605969e-26, 0.0, 0.0, 0.0, 1.5745626219706688e-06]
---
header: 
  seq: 9056
  stamp: 
    secs: 1518210368
    nsecs: 112099171
  frame_id: "swarmone/map"
child_frame_id: "swarmone/base_link"
pose: 
  pose: 
    position: 
      x: 2.80250464928
      y: 9.34919502771
      z: 0.0
    orientation: 
      x: 0.0
      y: 0.0
      z: 0.601197685353
      w: 0.799100333579
  covariance: [2.2202705678917356, -0.20734136479278353, 0.0, 0.0, 0.0, -4.019397964259104e-12, -0.2073413647927836, 1.232525864918351, 0.0, 0.0, 0.0, 1.6973074486558413e-12, 0.0, 0.0, 6.746382057986982e-07, -1.85424699398296e-14, -1.5165515694637984e-13, 0.0, 0.0, 0.0, -1.854246993982961e-14, 6.746380137629273e-07, -8.645496437469843e-21, 0.0, 0.0, 0.0, -1.5165515694637981e-13, -8.645496438424263e-21, 6.746380137628577e-07, 0.0, -4.019397964259104e-12, 1.697307448655841e-12, 0.0, 0.0, 0.0, 7.967812911064811e-08]
twist: 
  twist: 
    linear: 
      x: 0.152500013921
      y: -0.0222866030094
      z: 0.0
    angular: 
      x: 0.0
      y: 0.0
      z: -0.119999981994
  covariance: [9.999999090896223e-10, 7.65616895280893e-13, 0.0, 0.0, 0.0, 2.4110948206034857e-29, 7.656168952808959e-13, 1.4419077501566393, 0.0, 0.0, 0.0, 6.587784526166085e-18, 0.0, 0.0, 9.419806196035061e-07, -3.3673558911043974e-24, -9.486402570387452e-25, 0.0, 0.0, 0.0, -3.367355891104397e-24, 6.746382057807371e-07, -6.768993339022747e-31, 0.0, 0.0, 0.0, -9.48640257038745e-25, -6.770169684957644e-31, 6.746382057807371e-07, 0.0, 2.4110948206034848e-29, 6.5877845261660844e-18, 0.0, 0.0, 0.0, 1.5745626219686857e-06]
---
header: 
  seq: 9057
  stamp: 
    secs: 1518210368
    nsecs: 211757898
  frame_id: "swarmone/map"
child_frame_id: "swarmone/base_link"
pose: 
  pose: 
    position: 
      x: 2.80946264958
      y: 9.36622812241
      z: 0.0
    orientation: 
      x: 0.0
      y: 0.0
      z: 0.609159459919
      w: 0.793047761734
  covariance: [2.5074626376370444, -0.2682205550644493, 0.0, 0.0, 0.0, -4.465353701927213e-15, -0.26822055506444936, 1.3235418506252101, 0.0, 0.0, 0.0, 1.9664254820983368e-15, 0.0, 0.0, 6.695147685506075e-07, -1.8686186057346486e-14, -1.293576974706502e-13, 0.0, 0.0, 0.0, -1.8686186057346476e-14, 6.695148329490449e-07, -7.31450953836746e-21, 0.0, 0.0, 0.0, -1.2935769747065016e-13, -7.31450954171289e-21, 6.695148329489952e-07, 0.0, -4.465353701927213e-15, 1.9664254820983364e-15, 0.0, 0.0, 0.0, 7.729394330596461e-08]
twist: 
  twist: 
    linear: 
      x: 0.267799947806
      y: -0.0223461416417
      z: 0.0
    angular: 
      x: 0.0
      y: 0.0
      z: 0.0399999839463
  covariance: [9.999999091025827e-10, 7.034075438210333e-13, 0.0, 0.0, 0.0, 2.217023134798113e-36, 7.034075438210359e-13, 1.5629078491264967, 0.0, 0.0, 0.0, 6.884968353897228e-25, 0.0, 0.0, 9.403298086769262e-07, -2.7157355375991484e-24, -7.026520077452932e-25, 0.0, 0.0, 0.0, -2.71573553759915e-24, 6.695147685332891e-07, -4.133107788367161e-31, 0.0, 0.0, 0.0, -7.026520077452933e-25, -4.134845932606001e-31, 6.695147685332891e-07, 0.0, 2.2170231347981132e-36, 6.884968353897228e-25, 0.0, 0.0, 0.0, 1.526878906149658e-06]
---
header: 
  seq: 9058
  stamp: 
    secs: 1518210368
    nsecs: 318702698
  frame_id: "swarmone/map"
child_frame_id: "swarmone/base_link"
pose: 
  pose: 
    position: 
      x: 2.82301874137
      y: 9.39592219367
      z: 0.0
    orientation: 
      x: 0.0
      y: 0.0
      z: 0.699673510109
      w: 0.714462720687
  covariance: [2.1003699925455868, -0.2122521438699006, 0.0, 0.0, 0.0, -1.185676255790729e-10, -0.21225214386990066, 1.2001045186608617, 0.0, 0.0, 0.0, 7.577797588594617e-12, 0.0, 0.0, 9.983152185645781e-07, -2.5447072249100096e-16, -3.881769333146978e-15, 0.0, 0.0, 0.0, -2.54470722491001e-16, 9.98315218076724e-07, -5.863437853158611e-22, 0.0, 0.0, 0.0, -3.881769333146978e-15, -5.863437853164337e-22, 9.983152180767151e-07, 0.0, -1.185676255790729e-10, 7.577797588594617e-12, 0.0, 0.0, 0.0, 2.9673439419578722e-05]
twist: 
  twist: 
    linear: 
      x: 0.343030760501
      y: -0.0247858753002
      z: 0.0
    angular: 
      x: 0.0
      y: 0.0
      z: -0.0199999940538
  covariance: [0.0005955378027164587, 5.51845594151734e-07, 0.0, 0.0, 0.0, 6.838283184122516e-24, 5.518455941517349e-07, 1.3932608581618178, 0.0, 0.0, 0.0, -5.340770317137564e-18, 0.0, 0.0, 9.998311005738548e-07, -2.0110959653961746e-26, 8.98798279681355e-28, 0.0, 0.0, 0.0, -2.0110959653961743e-26, 9.983152184629488e-07, 1.2099039221094928e-32, 0.0, 0.0, 0.0, 8.987982796813551e-28, 1.2098618580650271e-32, 9.983152184629488e-07, 0.0, 6.838283184122513e-24, -5.3407703171375654e-18, 0.0, 0.0, 0.0, 0.0005934486852416002]
---
header: 
  seq: 9059
  stamp: 
    secs: 1518210368
    nsecs: 412216663
  frame_id: "swarmone/map"
child_frame_id: "swarmone/base_link"
pose: 
  pose: 
    position: 
      x: 2.8267745207
      y: 9.42874030375
      z: 0.0
    orientation: 
      x: 0.0
      y: 0.0
      z: 0.552200090138
      w: 0.833711617078
  covariance: [2.365155544020679, -0.23317275967308715, 0.0, 0.0, 0.0, -1.9470802325824423e-12, -0.23317275967308723, 1.2756977941678889, 0.0, 0.0, 0.0, 1.8074313931791515e-13, 0.0, 0.0, 6.746418338921863e-07, -2.0801535216010852e-14, -3.0057307147076885e-13, 0.0, 0.0, 0.0, -2.0801535216010846e-14, 6.746419259065578e-07, -1.9219377001791674e-20, 0.0, 0.0, 0.0, -3.0057307147076885e-13, -1.9219376996114764e-20, 6.746419259062814e-07, 0.0, -1.947080232582442e-12, 1.8074313931791515e-13, 0.0, 0.0, 0.0, 7.967812911191216e-08]
twist: 
  twist: 
    linear: 
      x: 0.361799997906
      y: -0.0249753033293
      z: 0.0
    angular: 
      x: 0.0
      y: 0.0
      z: 0.0599999877471
  covariance: [9.999999089431966e-10, 8.566447541880081e-13, 0.0, 0.0, 0.0, -5.874389251487387e-31, 8.5664475418801e-13, 1.5038506246153132, 0.0, 0.0, 0.0, 3.0926461679036423e-19, 0.0, 0.0, 9.419806311460614e-07, -6.3140331201897516e-24, -2.645259302708415e-24, 0.0, 0.0, 0.0, -6.3140331201897494e-24, 6.746418338729127e-07, -3.6201441335668325e-30, 0.0, 0.0, 0.0, -2.6452593027084144e-24, -3.620800662096474e-30, 6.746418338729127e-07, 0.0, -5.874389251487385e-31, 3.0926461679036433e-19, 0.0, 0.0, 0.0, 1.57456262196968e-06]
---
header: 
  seq: 9060
  stamp: 
    secs: 1518210368
    nsecs: 511928082
  frame_id: "swarmone/map"
child_frame_id: "swarmone/base_link"
pose: 
  pose: 
    position: 
      x: 2.84309466595
      y: 9.45982544722
      z: 0.0
    orientation: 
      x: 0.0
      y: 0.0
      z: 0.613117058069
      w: 0.789992071546
  covariance: [2.658341953327228, -0.31647871004744615, 0.0, 0.0, 0.0, -1.1177289590890062e-14, -0.3164787100474461, 1.3735394554067604, 0.0, 0.0, 0.0, 4.604809011752298e-15, 0.0, 0.0, 6.796125890377765e-07, -2.0949905864841192e-14, -3.1696203539920485e-13, 0.0, 0.0, 0.0, -2.0949905864841192e-14, 6.796126696370448e-07, -2.0727063430389405e-20, 0.0, 0.0, 0.0, -3.1696203539920475e-13, -2.0727063431199198e-20, 6.796126696367326e-07, 0.0, -1.1177289590890062e-14, 4.604809011752298e-15, 0.0, 0.0, 0.0, 8.206231488906717e-08]
twist: 
  twist: 
    linear: 
      x: 0.307900032562
      y: -0.0252356570309
      z: 0.0
    angular: 
      x: 0.0
      y: 0.0
      z: 0.0500000010074
  covariance: [9.999999091786046e-10, 7.877914743144685e-13, 0.0, 0.0, 0.0, -5.635840865036822e-38, 7.877914743144704e-13, 1.6284828797320177, 0.0, 0.0, 0.0, 3.366960796927764e-26, 0.0, 0.0, 9.435425711163991e-07, -7.486337769258771e-24, -1.8938455930167147e-24, 0.0, 0.0, 0.0, -7.48633776925877e-24, 6.79612589018194e-07, -2.9755178192869562e-30, 0.0, 0.0, 0.0, -1.8938455930167154e-24, -2.9755410437745142e-30, 6.79612589018194e-07, 0.0, -5.635840865036821e-38, 3.366960796927766e-26, 0.0, 0.0, 0.0, 1.6222463377903353e-06]
---
header: 
  seq: 9061
  stamp: 
    secs: 1518210368
    nsecs: 612316370
  frame_id: "swarmone/map"
child_frame_id: "swarmone/base_link"
pose: 
  pose: 
    position: 
      x: 2.85398607696
      y: 9.48519385108
      z: 0.0
    orientation: 
      x: 0.0
      y: 0.0
      z: 0.593177879588
      w: 0.80507142737
  covariance: [2.2075667543305904, -0.24635842221181123, 0.0, 0.0, 0.0, -7.35062155639153e-12, -0.24635842221181126, 1.2409584159450986, 0.0, 0.0, 0.0, 2.5177673860612116e-12, 0.0, 0.0, 6.771429846871958e-07, -2.1777622757205478e-14, -2.6658674624113476e-13, 0.0, 0.0, 0.0, -2.1777622757205478e-14, 6.771430641966684e-07, -1.7987105019398253e-20, 0.0, 0.0, 0.0, -2.665867462411347e-13, -1.7987105020738288e-20, 6.771430641964496e-07, 0.0, -7.350621556391532e-12, 2.517767386061213e-12, 0.0, 0.0, 0.0, 8.087022202493768e-08]
twist: 
  twist: 
    linear: 
      x: 0.242100035683
      y: -0.0262366142292
      z: 0.0
    angular: 
      x: 0.0
      y: 0.0
      z: 0.0499999973288
  covariance: [9.999999099430737e-10, 9.923393866375647e-13, 0.0, 0.0, 0.0, 2.510052701176978e-29, 9.923393866375667e-13, 1.4447488719153478, 0.0, 0.0, 0.0, 1.197077487800298e-17, 0.0, 0.0, 9.427722462551961e-07, -6.0475301527292186e-24, -1.8486903692483243e-24, 0.0, 0.0, 0.0, -6.0475301527292186e-24, 6.771429846681092e-07, -2.370217501697969e-30, 0.0, 0.0, 0.0, -1.8486903692483232e-24, -2.369583797383874e-30, 6.771429846681092e-07, 0.0, 2.5100527011769833e-29, 1.1970774878002982e-17, 0.0, 0.0, 0.0, 1.598404479879662e-06]
---
header: 
  seq: 9062
  stamp: 
    secs: 1518210368
    nsecs: 712564468
  frame_id: "swarmone/map"
child_frame_id: "swarmone/base_link"
pose: 
  pose: 
    position: 
      x: 2.86341381774
      y: 9.50625318265
      z: 0.0
    orientation: 
      x: 0.0
      y: 0.0
      z: 0.597196031155
      w: 0.802095318757
  covariance: [2.4941824691838974, -0.31410301232246907, 0.0, 0.0, 0.0, -7.429184355232423e-15, -0.3141030123224691, 1.3356751425725777, 0.0, 0.0, 0.0, 3.164473818551648e-15, 0.0, 0.0, 6.820413713845276e-07, -2.2005575770522727e-14, -2.0524492498464746e-13, 0.0, 0.0, 0.0, -2.200557577052273e-14, 6.820415147746015e-07, -1.420554307287986e-20, 0.0, 0.0, 0.0, -2.0524492498464744e-13, -1.4205543072568245e-20, 6.820415147744705e-07, 0.0, -7.429184355232421e-15, 3.164473818551648e-15, 0.0, 0.0, 0.0, 8.325440779532176e-08]
twist: 
  twist: 
    linear: 
      x: 0.186600028504
      y: -0.0265181112699
      z: 0.0
    angular: 
      x: 0.0
      y: 0.0
      z: 0.08999999601
  covariance: [9.99999909688278e-10, 9.110532815405804e-13, 0.0, 0.0, 0.0, 2.2930335154385644e-36, 9.110532815405818e-13, 1.566587996029695, 0.0, 0.0, 0.0, 1.2438507083217395e-24, 0.0, 0.0, 9.442924229974209e-07, -5.034291481812699e-24, -1.4791921091462618e-24, 0.0, 0.0, 0.0, -5.0342914818126965e-24, 6.820413713658547e-07, -1.5044974904631083e-30, 0.0, 0.0, 0.0, -1.479192109146261e-24, -1.504831749621764e-30, 6.820413713658547e-07, 0.0, 2.2930335154385674e-36, 1.2438507083217395e-24, 0.0, 0.0, 0.0, 1.6460881957010285e-06]
---
header: 
  seq: 9063
  stamp: 
    secs: 1518210368
    nsecs: 820227861
  frame_id: "swarmone/map"
child_frame_id: "swarmone/base_link"
pose: 
  pose: 
    position: 
      x: 2.87063821624
      y: 9.52193688273
      z: 0.0
    orientation: 
      x: 0.0
      y: 0.0
      z: 0.589395982315
      w: 0.807844277092
  covariance: [2.083641726303295, -0.2479786034051835, 0.0, 0.0, 0.0, -5.462455227797799e-11, -0.24797860340518352, 1.2082394951950655, 0.0, 0.0, 0.0, 3.302477727413328e-11, 0.0, 0.0, 9.987136499810136e-07, -2.32421516678801e-16, -1.1923564299615783e-15, 0.0, 0.0, 0.0, -2.3242151667880113e-16, 9.987136512728341e-07, -2.154560353171161e-22, 0.0, 0.0, 0.0, -1.1923564299615787e-15, -2.1545603526899505e-22, 9.98713651272833e-07, 0.0, -5.462455227797799e-11, 3.302477727413328e-11, 0.0, 0.0, 0.0, 3.8865707325238326e-05]
twist: 
  twist: 
    linear: 
      x: 0.137373559629
      y: -0.0263163419142
      z: 0.0
    angular: 
      x: 0.0
      y: 0.0
      z: 0.080000001
  covariance: [0.0007820112043149685, 8.906185238905453e-07, 0.0, 0.0, 0.0, -1.0917862403458352e-23, 8.906185238905457e-07, 1.3939272210251388, 0.0, 0.0, 0.0, -2.7286390604015273e-18, 0.0, 0.0, 9.99871119553303e-07, -6.2491294943128415e-27, -7.425220402853132e-28, 0.0, 0.0, 0.0, -6.249129494312839e-27, 9.987136498858496e-07, -4.066788439964728e-33, 0.0, 0.0, 0.0, -7.42522040285313e-28, -4.06668739442285e-33, 9.987136498858496e-07, 0.0, -1.0917862403458355e-23, -2.728639060401528e-18, 0.0, 0.0, 0.0, 0.0007772932515868141]
---
header: 
  seq: 9064
  stamp: 
    secs: 1518210368
    nsecs: 912423611
  frame_id: "swarmone/map"
child_frame_id: "swarmone/base_link"
pose: 
  pose: 
    position: 
      x: 2.87620967302
      y: 9.53380504569
      z: 0.0
    orientation: 
      x: 0.0
      y: 0.0
      z: 0.849480410921
      w: 0.527620158315
  covariance: [2.33044092761535, -0.30923762051474624, 0.0, 0.0, 0.0, -8.545409853251374e-13, -0.30923762051474624, 1.2959867442734816, 0.0, 0.0, 0.0, 4.69145761109136e-13, 0.0, 0.0, 6.796123793157611e-07, -2.2061817443710187e-14, -1.1008791413532895e-13, 0.0, 0.0, 0.0, -2.20618174437102e-14, 6.796124688200866e-07, -7.581641774278274e-21, 0.0, 0.0, 0.0, -1.1008791413532891e-13, -7.581641774929991e-21, 6.796124688200504e-07, 0.0, -8.545409853251376e-13, 4.69145761109136e-13, 0.0, 0.0, 0.0, 8.206231491795348e-08]
twist: 
  twist: 
    linear: 
      x: 0.145099995787
      y: -0.0265008484806
      z: 0.0
    angular: 
      x: 0.0
      y: 0.0
      z: 0.0600000128031
  covariance: [9.99999909473243e-10, 1.0534492136071282e-12, 0.0, 0.0, 0.0, 9.160613337685281e-31, 1.0534492136071288e-12, 1.502878425633425, 0.0, 0.0, 0.0, 2.016518626759906e-19, 0.0, 0.0, 9.435425704647344e-07, -2.5000436921529464e-24, 1.2624872785371533e-24, 0.0, 0.0, 0.0, -2.5000436921529475e-24, 6.796123792976653e-07, 6.734359514801342e-31, 0.0, 0.0, 0.0, 1.262487278537154e-24, 6.732337959558907e-31, 6.796123792976653e-07, 0.0, 9.160613337685287e-31, 2.016518626759906e-19, 0.0, 0.0, 0.0, 1.622246337790476e-06]
---
header: 
  seq: 9065
  stamp: 
    secs: 1518210369
    nsecs:  11971951
  frame_id: "swarmone/map"
child_frame_id: "swarmone/base_link"
pose: 
  pose: 
    position: 
      x: 2.87272975654
      y: 9.55116807848
      z: 0.0
    orientation: 
      x: 0.0
      y: 0.0
      z: 0.609159637295
      w: 0.793047625487
  covariance: [2.612263464124074, -0.26138050843604305, 0.0, 0.0, 0.0, -4.300313111189659e-15, -0.26138050843604305, 1.3542160516904924, 0.0, 0.0, 0.0, 3.152678708220296e-16, 0.0, 0.0, 6.720984272581033e-07, -2.2255780051714124e-14, -1.1733476504369538e-13, 0.0, 0.0, 0.0, -2.2255780051714112e-14, 6.720983789625944e-07, -7.964377116361783e-21, 0.0, 0.0, 0.0, -1.1733476504369538e-13, -7.964377117219277e-21, 6.720983789625541e-07, 0.0, -4.300313111189658e-15, 3.1526787082202983e-16, 0.0, 0.0, 0.0, 7.848603619926116e-08]
twist: 
  twist: 
    linear: 
      x: 0.266199942778
      y: -0.0265930047927
      z: 0.0
    angular: 
      x: 0.0
      y: 0.0
      z: -0.0299999909829
  covariance: [9.999999090139096e-10, 9.683706074557712e-13, 0.0, 0.0, 0.0, 8.711159046927009e-38, 9.683706074557716e-13, 1.627165359052708, 0.0, 0.0, 0.0, 2.1762707949688527e-26, 0.0, 0.0, 9.41166798167548e-07, -2.5991977201335276e-24, -6.64043483873265e-25, 0.0, 0.0, 0.0, -2.5991977201335283e-24, 6.720984272406546e-07, -3.413018690648068e-31, 0.0, 0.0, 0.0, -6.640434838732649e-25, -3.4092072947611886e-31, 6.720984272406546e-07, 0.0, 8.711159046927011e-38, 2.1762707949688527e-26, 0.0, 0.0, 0.0, 1.5507207640597033e-06]
---
header: 
  seq: 9066
  stamp: 
    secs: 1518210369
    nsecs: 112697840
  frame_id: "swarmone/map"
child_frame_id: "swarmone/base_link"
pose: 
  pose: 
    position: 
      x: 2.88332276633
      y: 9.5805840163
      z: 0.0
    orientation: 
      x: 0.0
      y: 0.0
      z: 0.670587037171
      w: 0.741830860492
  covariance: [2.1775650725632816, -0.21006459378915907, 0.0, 0.0, 0.0, -6.2390755903842705e-12, -0.21006459378915907, 1.226501912094105, 0.0, 0.0, 0.0, 2.3726121108248558e-12, 0.0, 0.0, 6.89108392719484e-07, -2.291963988458566e-14, -2.2716578333096384e-13, 0.0, 0.0, 0.0, -2.2919639884585655e-14, 6.891083927132856e-07, -1.675140589529397e-20, 0.0, 0.0, 0.0, -2.271657833309638e-13, -1.6751405895293648e-20, 6.891083927131212e-07, 0.0, -6.239075590384269e-12, 2.372612110824856e-12, 0.0, 0.0, 0.0, 8.683068650874346e-08]
twist: 
  twist: 
    linear: 
      x: 0.338499969927
      y: -0.0275676867316
      z: 0.0
    angular: 
      x: 0.0
      y: 0.0
      z: 4.87751863898e-09
  covariance: [9.999999102712187e-10, 9.520620719443618e-13, 0.0, 0.0, 0.0, 3.622515428189211e-29, 9.520620719443612e-13, 1.4492649739453962, 0.0, 0.0, 0.0, 9.83271940545804e-18, 0.0, 0.0, 9.464270364620362e-07, -6.304518895593435e-24, -6.104443579482276e-25, 0.0, 0.0, 0.0, -6.304518895593433e-24, 6.891083926999033e-07, -6.9698530808634535e-31, 0.0, 0.0, 0.0, -6.104443579482275e-25, -6.971650102380588e-31, 6.891083926999033e-07, 0.0, 3.622515428189213e-29, 9.832719405458047e-18, 0.0, 0.0, 0.0, 1.7176137694307785e-06]
---
header: 
  seq: 9067
  stamp: 
    secs: 1518210369
    nsecs: 212268353
  frame_id: "swarmone/map"
child_frame_id: "swarmone/base_link"
pose: 
  pose: 
    position: 
      x: 2.88955178017
      y: 9.61465497034
      z: 0.0
    orientation: 
      x: 0.0
      y: 0.0
      z: 0.539632121092
      w: 0.841900928783
  covariance: [2.4725241158052715, -0.24380889229457603, 0.0, 0.0, 0.0, -2.1081671354779917e-14, -0.24380889229457597, 1.3099918616046597, 0.0, 0.0, 0.0, 9.552383632266146e-15, 0.0, 0.0, 8.44027767381846e-07, -1.660796989099911e-14, -2.104490225713894e-13, 0.0, 0.0, 0.0, -1.660796989099911e-14, 8.440277565202845e-07, -2.24089521393204e-20, 0.0, 0.0, 0.0, -2.1044902257138944e-13, -2.2408952139411582e-20, 8.440277565200024e-07, 0.0, -2.1081671354779917e-14, 9.552383632266147e-15, 0.0, 0.0, 0.0, 2.4657113446782683e-07]
twist: 
  twist: 
    linear: 
      x: 0.357499996527
      y: -0.0277967815318
      z: 0.0
    angular: 
      x: 0.0
      y: 0.0
      z: -0.00999999900675
  covariance: [9.999999090142938e-10, 8.732268920581142e-13, 0.0, 0.0, 0.0, 3.3381767116153074e-36, 8.732268920581139e-13, 1.5705060831701056, 0.0, 0.0, 0.0, 1.0296056960251604e-24, 0.0, 0.0, 9.80242708363736e-07, -4.299256793214658e-23, -1.9731321877461616e-23, 0.0, 0.0, 0.0, -4.299256793214658e-23, 8.440277673465017e-07, -7.83253311531448e-29, 0.0, 0.0, 0.0, -1.9731321877461616e-23, -7.832430550786226e-29, 8.440277673465017e-07, 0.0, 3.33817671161531e-36, 1.0296056960251614e-24, 0.0, 0.0, 0.0, 4.912422729391724e-06]
---
header: 
  seq: 9068
  stamp: 
    secs: 1518210369
    nsecs: 319726944
  frame_id: "swarmone/map"
child_frame_id: "swarmone/base_link"
pose: 
  pose: 
    position: 
      x: 2.90404625265
      y: 9.64695177808
      z: 0.0
    orientation: 
      x: 0.0
      y: 0.0
      z: 0.605440389901
      w: 0.795890654723
  covariance: [2.062834677982735, -0.21365688810995037, 0.0, 0.0, 0.0, -1.3051775501693997e-10, -0.21365688810995032, 1.1936454042560423, 0.0, 0.0, 0.0, 5.3326082336963556e-11, 0.0, 0.0, 9.987471591820364e-07, -2.3849957198645876e-16, -2.511111811349599e-15, 0.0, 0.0, 0.0, -2.384995719864588e-16, 9.987471604553709e-07, -4.780681073232116e-22, 0.0, 0.0, 0.0, -2.5111118113495994e-15, -4.780681073079949e-22, 9.987471604553656e-07, 0.0, -1.3051775501693997e-10, 5.3326082336963556e-11, 0.0, 0.0, 0.0, 3.9906411082345614e-05]
twist: 
  twist: 
    linear: 
      x: 0.296672149292
      y: -0.0257843696844
      z: 0.0
    angular: 
      x: 0.0
      y: 0.0
      z: 0.0799999909731
  covariance: [0.0008031417488822779, 7.883026239050013e-07, 0.0, 0.0, 0.0, -1.5421128605026284e-23, 7.883026239050005e-07, 1.4029191188883683, 0.0, 0.0, 0.0, -6.089768319785129e-18, 0.0, 0.0, 9.998744827229948e-07, -1.2946822924131675e-26, -2.303446181692297e-27, 0.0, 0.0, 0.0, -1.2946822924131678e-26, 9.987471590821302e-07, -2.6798113286857283e-32, 0.0, 0.0, 0.0, -2.3034461816922975e-27, -2.6799280680282224e-32, 9.987471590821302e-07, 0.0, -1.5421128605026267e-23, -6.089768319785132e-18, 0.0, 0.0, 0.0, 0.0007981071935423801]
---
header: 
  seq: 9069
  stamp: 
    secs: 1518210369
    nsecs: 412328959
  frame_id: "swarmone/map"
child_frame_id: "swarmone/base_link"
pose: 
  pose: 
    position: 
      x: 2.91333002455
      y: 9.67098953628
      z: 0.0
    orientation: 
      x: 0.0
      y: 0.0
      z: 0.605186870338
      w: 0.796083445356
  covariance: [2.3133448313817104, -0.2670158952283439, 0.0, 0.0, 0.0, -2.0530010077656144e-12, -0.2670158952283438, 1.278127316923993, 0.0, 0.0, 0.0, 7.637679803657086e-13, 0.0, 0.0, 6.820411632869052e-07, -2.1571837944891263e-14, -2.522303350847851e-13, 0.0, 0.0, 0.0, -2.1571837944891266e-14, 6.82041275459811e-07, -1.7114694501382184e-20, 0.0, 0.0, 0.0, -2.52230335084785e-13, -1.7114694501893792e-20, 6.820412754596124e-07, 0.0, -2.0530010077656144e-12, 7.637679803657088e-13, 0.0, 0.0, 0.0, 8.325440782619803e-08]
twist: 
  twist: 
    linear: 
      x: 0.238700029906
      y: -0.0259999720011
      z: 0.0
    angular: 
      x: 0.0
      y: 0.0
      z: 0.0700000008793
  covariance: [9.999999100782323e-10, 9.064292423519464e-13, 0.0, 0.0, 0.0, 1.3352376989847651e-30, 9.064292423519456e-13, 1.5128704615188866, 0.0, 0.0, 0.0, 4.672646900768916e-19, 0.0, 0.0, 9.442924223582122e-07, -6.186031600428886e-24, -1.6905450750510993e-24, 0.0, 0.0, 0.0, -6.186031600428889e-24, 6.820411632676043e-07, -2.12695709158397e-30, 0.0, 0.0, 0.0, -1.690545075051099e-24, -2.1267907219163467e-30, 6.820411632676043e-07, 0.0, 1.3352376989847651e-30, 4.672646900768916e-19, 0.0, 0.0, 0.0, 1.6460881957012387e-06]
---
header: 
  seq: 9070
  stamp: 
    secs: 1518210369
    nsecs: 512069225
  frame_id: "swarmone/map"
child_frame_id: "swarmone/base_link"
pose: 
  pose: 
    position: 
      x: 2.92190782422
      y: 9.69180625622
      z: 0.0
    orientation: 
      x: 0.0
      y: 0.0
      z: 0.62098627411
      w: 0.783821438446
  covariance: [2.617874200268314, -0.33381780418048307, 0.0, 0.0, 0.0, -7.357405010756607e-15, -0.33381780418048285, 1.3715995721477414, 0.0, 0.0, 0.0, 2.768160899823519e-15, 0.0, 0.0, 6.771464304684138e-07, -2.1786454681086298e-14, -1.9957346131651907e-13, 0.0, 0.0, 0.0, -2.17864546810863e-14, 6.771465115083698e-07, -1.3468181417061487e-20, 0.0, 0.0, 0.0, -1.995734613165191e-13, -1.346818141341516e-20, 6.771465115082478e-07, 0.0, -7.357405010756606e-15, 2.7681608998235186e-15, 0.0, 0.0, 0.0, 8.087022199415385e-08]
twist: 
  twist: 
    linear: 
      x: 0.185900025955
      y: -0.0262146810553
      z: 0.0
    angular: 
      x: 0.0
      y: 0.0
      z: 0.0500000020063
  covariance: [9.999999092043007e-10, 8.319605210084369e-13, 0.0, 0.0, 0.0, 1.2665159573121364e-37, 8.319605210084358e-13, 1.6379940817732443, 0.0, 0.0, 0.0, 5.030098716480839e-26, 0.0, 0.0, 9.427722570867481e-07, -4.67465290439326e-24, -1.0723620555406263e-24, 0.0, 0.0, 0.0, -4.6746529043932616e-24, 6.771464304501329e-07, -1.0380307245934504e-30, 0.0, 0.0, 0.0, -1.0723620555406265e-24, -1.0386398048264873e-30, 6.771464304501329e-07, 0.0, 1.2665159573121355e-37, 5.0300987164808394e-26, 0.0, 0.0, 0.0, 1.598404479880209e-06]
---
header: 
  seq: 9071
  stamp: 
    secs: 1518210369
    nsecs: 612760305
  frame_id: "swarmone/map"
child_frame_id: "swarmone/base_link"
pose: 
  pose: 
    position: 
      x: 2.92420753254
      y: 9.70396487234
      z: 0.0
    orientation: 
      x: 0.0
      y: 0.0
      z: 0.593178157908
      w: 0.805071222303
  covariance: [2.180986355086152, -0.25589410997969486, 0.0, 0.0, 0.0, -4.221130727250773e-12, -0.2558941099796949, 1.2369507836674007, 0.0, 0.0, 0.0, 1.5777197004209748e-12, 0.0, 0.0, 8.422672877072235e-07, -1.4349266573598207e-14, -1.0945192951496419e-13, 0.0, 0.0, 0.0, -1.4349266573598207e-14, 8.422673222041741e-07, -9.957699084974547e-21, 0.0, 0.0, 0.0, -1.0945192951496417e-13, -9.957699084836997e-21, 8.422673222040995e-07, 0.0, -4.2211307272507724e-12, 1.5777197004209753e-12, 0.0, 0.0, 0.0, 2.429948558213497e-07]
twist: 
  twist: 
    linear: 
      x: 0.136200022519
      y: -0.0238805720984
      z: 0.0
    angular: 
      x: 0.0
      y: 0.0
      z: 0.029999998371
  covariance: [9.999999102373351e-10, 9.951133794810338e-13, 0.0, 0.0, 0.0, 1.9470453806276334e-29, 9.95113379481032e-13, 1.4539097928075027, 0.0, 0.0, 0.0, 7.074121695953333e-18, 0.0, 0.0, 9.799595044674629e-07, -2.3582172832436248e-23, -7.288252702513927e-24, 0.0, 0.0, 0.0, -2.3582172832436266e-23, 8.422672876745327e-07, -1.5880271839225612e-29, 0.0, 0.0, 0.0, -7.28825270251393e-24, -1.5881666444175256e-29, 8.422672876745327e-07, 0.0, 1.947045380627633e-29, 7.074121695953333e-18, 0.0, 0.0, 0.0, 4.840897155661178e-06]
---
header: 
  seq: 9072
  stamp: 
    secs: 1518210369
    nsecs: 712517738
  frame_id: "swarmone/map"
child_frame_id: "swarmone/base_link"
pose: 
  pose: 
    position: 
      x: 2.93018469083
      y: 9.71494206837
      z: 0.0
    orientation: 
      x: 0.0
      y: 0.0
      z: 0.613117632184
      w: 0.789991625971
  covariance: [2.4655433851614097, -0.3239133635341359, 0.0, 0.0, 0.0, -1.1880595734554718e-14, -0.323913363534136, 1.3316439270454499, 0.0, 0.0, 0.0, 5.854678442085541e-15, 0.0, 0.0, 8.50157142395265e-07, -1.3929273777058194e-14, -7.419324092728427e-14, 0.0, 0.0, 0.0, -1.3929273777058188e-14, 8.501571874027508e-07, -6.897072527614493e-21, 0.0, 0.0, 0.0, -7.419324092728425e-14, -6.897072528929798e-21, 8.501571874027154e-07, 0.0, -1.188059573455472e-14, 5.85467844208554e-15, 0.0, 0.0, 0.0, 2.5968415632314317e-07]
twist: 
  twist: 
    linear: 
      x: 0.0931000181333
      y: -0.0240146016573
      z: 0.0
    angular: 
      x: 0.0
      y: 0.0
      z: 0.0399999990021
  covariance: [9.999999092000374e-10, 9.125579820967057e-13, 0.0, 0.0, 0.0, 1.8346313962815467e-36, 9.125579820967043e-13, 1.5755820111959498, 0.0, 0.0, 0.0, 7.576939154055786e-25, 0.0, 0.0, 9.81216011250098e-07, -1.8502623320949122e-23, -4.712828162708868e-24, 0.0, 0.0, 0.0, -1.8502623320949122e-23, 8.50157142362217e-07, -7.921303014142755e-30, 0.0, 0.0, 0.0, -4.7128281627088664e-24, -7.922873273043636e-30, 8.50157142362217e-07, 0.0, 1.8346313962815454e-36, 7.576939154055785e-25, 0.0, 0.0, 0.0, 5.17468316640366e-06]
---
header: 
  seq: 9073
  stamp: 
    secs: 1518210369
    nsecs: 819149971
  frame_id: "swarmone/map"
child_frame_id: "swarmone/base_link"
pose: 
  pose: 
    position: 
      x: 2.92658498093
      y: 9.72024396046
      z: 0.0
    orientation: 
      x: 0.0
      y: 0.0
      z: 0.613227067131
      w: 0.789906680652
  covariance: [2.066761008407195, -0.2501615072661417, 0.0, 0.0, 0.0, -1.8092537824880472e-11, -0.2501615072661417, 1.2023620239345798, 0.0, 0.0, 0.0, 1.6251095671810956e-11, 0.0, 0.0, 9.985667425237574e-07, -2.321533489187848e-16, -5.2018229130619045e-16, 0.0, 0.0, 0.0, -2.321533489187848e-16, 9.98566743241685e-07, -8.426560215892605e-23, 0.0, 0.0, 0.0, -5.201822913061906e-16, -8.426560213901026e-23, 9.985667432416848e-07, 0.0, -1.8092537824880475e-11, 1.6251095671810956e-11, 0.0, 0.0, 0.0, 3.488052115573031e-05]
twist: 
  twist: 
    linear: 
      x: 0.0536057536259
      y: -0.0190895251777
      z: 0.0
    angular: 
      x: 0.0
      y: 0.0
      z: 0.0399999999996
  covariance: [0.0007011044645260493, 7.775616719750626e-07, 0.0, 0.0, 0.0, -5.703758820633656e-24, 7.775616719750615e-07, 1.4017107499219565, 0.0, 0.0, 0.0, -9.122838093296062e-19, 0.0, 0.0, 9.998563699881024e-07, -2.8893441881437038e-27, 4.927528528512648e-28, 0.0, 0.0, 0.0, -2.8893441881437038e-27, 9.985667424297995e-07, 1.1216286303202107e-33, 0.0, 0.0, 0.0, 4.927528528512647e-28, 1.1240432548538054e-33, 9.985667424297995e-07, 0.0, -5.7037588206336546e-24, -9.122838093296062e-19, 0.0, 0.0, 0.0, 0.0006975899205931615]
---
header: 
  seq: 9074
  stamp: 
    secs: 1518210369
    nsecs: 911742449
  frame_id: "swarmone/map"
child_frame_id: "swarmone/base_link"
pose: 
  pose: 
    position: 
      x: 2.92921473001
      y: 9.7233474942
      z: 0.0
    orientation: 
      x: 0.0
      y: 0.0
      z: 0.613117041513
      w: 0.789992084395
