header: 
  seq: 6425
  stamp: 
    secs: 1518210105
    nsecs:  12543440
  frame_id: "swarmone/map"
child_frame_id: "swarmone/base_link"
pose: 
  pose: 
    position: 
      x: 0.251803352592
      y: 4.51793889988
      z: 0.0
    orientation: 
      x: 0.0
      y: 0.0
      z: 0.674288150833
      w: 0.738468340314
  covariance: [2.655345087196114, -0.1416736945472734, 0.0, 0.0, 0.0, -5.117319395787377e-18, -0.14167369454727333, 1.3125586791328259, 0.0, 0.0, 0.0, -5.558878364856716e-17, 0.0, 0.0, 6.720984458257433e-07, 1.2707079537241414e-15, -1.2698755515957881e-17, 0.0, 0.0, 0.0, 1.2707079537241416e-15, 6.720985121970226e-07, 4.9212872343077614e-26, 0.0, 0.0, 0.0, -1.2698755515957884e-17, 4.9213481022352884e-26, 6.720985121970226e-07, 0.0, -5.117319395787377e-18, -5.558878364856716e-17, 0.0, 0.0, 0.0, 7.848603621312247e-08]
twist: 
  twist: 
    linear: 
      x: 1.37644589161e-12
      y: 0.00152522713632
      z: 0.0
    angular: 
      x: 0.0
      y: 0.0
      z: 0.0399999999995
  covariance: [9.999999097055521e-10, 4.4731253703327535e-13, 0.0, 0.0, 0.0, -3.089239853573553e-39, 4.4731253703327403e-13, 1.5796707832098864, 0.0, 0.0, 0.0, 5.6627413905542485e-30, 0.0, 0.0, 9.411667982273184e-07, 1.1879753896565292e-28, -1.4669927357216546e-27, 0.0, 0.0, 0.0, 1.187975389656529e-28, 6.720984458085382e-07, -6.441030147021408e-35, 0.0, 0.0, 0.0, -1.4669927357216544e-27, 6.441341551617548e-35, 6.720984458085382e-07, 0.0, -3.089239853573554e-39, 5.662741390554267e-30, 0.0, 0.0, 0.0, 1.550720764060396e-06]
---
header: 
  seq: 6426
  stamp: 
    secs: 1518210105
    nsecs: 112289667
  frame_id: "swarmone/map"
child_frame_id: "swarmone/base_link"
pose: 
  pose: 
    position: 
      x: 0.256916960088
      y: 4.53613270024
      z: 0.0
    orientation: 
      x: 0.0
      y: 0.0
      z: 0.674288625854
      w: 0.738467906577
  covariance: [2.1985116984487636, -0.10666213406666779, 0.0, 0.0, 0.0, 3.3134493694909985e-15, -0.10666213406666782, 1.1897833449337072, 0.0, 0.0, 0.0, 4.1154853366166693e-14, 0.0, 0.0, 8.416719293694322e-07, -1.0853323534440707e-15, -1.0841190670614343e-17, 0.0, 0.0, 0.0, -1.0853323534440709e-15, 8.416719774553973e-07, -7.431927015273944e-26, 0.0, 0.0, 0.0, -1.0841190670614342e-17, -7.431888210330669e-26, 8.416719774553973e-07, 0.0, 3.3134493694909973e-15, 4.115485336616668e-14, 0.0, 0.0, 0.0, 2.4180276290883927e-07]
twist: 
  twist: 
    linear: 
      x: 1.62921337594e-12
      y: -0.00179826948043
      z: 0.0
    angular: 
      x: 0.0
      y: 0.0
      z: 0.0399999998046
  covariance: [9.99999909317044e-10, 5.052543485666058e-13, 0.0, 0.0, 0.0, -9.111021365389929e-31, 5.052543485666048e-13, 1.3981641397299756, 0.0, 0.0, 0.0, 1.5499814915918301e-21, 0.0, 0.0, 9.79863290829689e-07, -2.018267890565324e-28, 1.995761021928529e-27, 0.0, 0.0, 0.0, -2.018267890565325e-28, 8.416719293377256e-07, 1.433611168133153e-34, 0.0, 0.0, 0.0, 1.99576102192853e-27, -1.4335372247687123e-34, 8.416719293377256e-07, 0.0, -9.111021365389932e-31, 1.5499814915918322e-21, 0.0, 0.0, 0.0, 4.817055297750067e-06]
---
header: 
  seq: 6427
  stamp: 
    secs: 1518210105
    nsecs: 212835550
  frame_id: "swarmone/map"
child_frame_id: "swarmone/base_link"
pose: 
  pose: 
    position: 
      x: 0.257121958518
      y: 4.53611441993
      z: 0.0
    orientation: 
      x: 0.0
      y: 0.0
      z: 0.677972503615
      w: 0.73508726308
  covariance: [2.4946757091653975, -0.12984233581674498, 0.0, 0.0, 0.0, 1.659905730769644e-17, -0.129842335816745, 1.2720096946841968, 0.0, 0.0, 0.0, 2.0725180901841674e-16, 0.0, 0.0, 8.398592004315328e-07, -1.3964188626055698e-15, -9.949195119867686e-18, 0.0, 0.0, 0.0, -1.39641886260557e-15, 8.3985924893823e-07, -8.67570003686924e-26, 0.0, 0.0, 0.0, -9.949195119867689e-18, -8.675715020825037e-26, 8.3985924893823e-07, 0.0, 1.659905730769644e-17, 2.072518090184167e-16, 0.0, 0.0, 0.0, 2.3822648421937858e-07]
twist: 
  twist: 
    linear: 
      x: 1.47254494907e-12
      y: -0.00229556535779
      z: 0.0
    angular: 
      x: 0.0
      y: 0.0
      z: 0.0400000000006
  covariance: [9.99999909984605e-10, 4.638278330398352e-13, 0.0, 0.0, 0.0, -8.508958754338764e-38, 4.638278330398339e-13, 1.517845237745424, 0.0, 0.0, 0.0, 1.6363422849105878e-28, 0.0, 0.0, 9.795690269102692e-07, -2.2574339048997377e-28, 2.5609772540826778e-27, 0.0, 0.0, 0.0, -2.2574339048997377e-28, 8.398592004000229e-07, 8.372741148750373e-34, 0.0, 0.0, 0.0, 2.5609772540826778e-27, -7.658467240679276e-34, 8.398592004000229e-07, 0.0, -8.508958754338766e-38, 1.6363422849105898e-28, 0.0, 0.0, 0.0, 4.745529724021638e-06]
---
header: 
  seq: 6428
  stamp: 
    secs: 1518210105
    nsecs: 314648628
  frame_id: "swarmone/map"
child_frame_id: "swarmone/base_link"
pose: 
  pose: 
    position: 
      x: 0.261708591137
      y: 4.55487127236
      z: 0.0
    orientation: 
      x: 0.0
      y: 0.0
      z: 0.674320634137
      w: 0.73843867882
  covariance: [2.07318234985188, -0.09663829614048344, 0.0, 0.0, 0.0, 3.742645334281816e-14, -0.0966382961404835, 1.151599123419551, 0.0, 0.0, 0.0, 4.0326969813924624e-13, 0.0, 0.0, 9.954880670734113e-07, -8.381078248563457e-17, -3.9784562924559406e-21, 0.0, 0.0, 0.0, -8.381078248563458e-17, 9.95488069436654e-07, -7.562898365332191e-29, 0.0, 0.0, 0.0, -3.9784562924559406e-21, -7.56598101288291e-29, 9.954880694366538e-07, 0.0, 3.7426453342818173e-14, 4.032696981392463e-13, 0.0, 0.0, 0.0, 1.1075550385069453e-05]
twist: 
  twist: 
    linear: 
      x: 3.84719246428e-07
      y: -0.00517085209452
      z: 0.0
    angular: 
      x: 0.0
      y: 0.0
      z: 0.0399999999987
  covariance: [0.0002204720076254449, 1.1524631987714951e-07, 0.0, 0.0, 0.0, -6.214574957767957e-26, 1.1524631987714938e-07, 1.3451504918936976, 0.0, 0.0, 0.0, 4.301072171794862e-22, 0.0, 0.0, 9.995457828502677e-07, -3.8621790306095835e-29, 4.239760777200466e-28, 0.0, 0.0, 0.0, -3.8621790306095874e-29, 9.95488066980615e-07, 6.720355730712031e-36, 0.0, 0.0, 0.0, 4.239760777200467e-28, 5.836479740927715e-36, 9.95488066980615e-07, 0.0, -6.214574957767954e-26, 4.301072171794862e-22, 0.0, 0.0, 0.0, 0.0002214918599852512]
---
header: 
  seq: 6429
  stamp: 
    secs: 1518210105
    nsecs: 412328005
  frame_id: "swarmone/map"
child_frame_id: "swarmone/base_link"
pose: 
  pose: 
    position: 
      x: 0.262238121633
      y: 4.55482306809
      z: 0.0
    orientation: 
      x: 0.0
      y: 0.0
      z: 0.663135710735
      w: 0.748499184467
  covariance: [2.3437379429095655, -0.11758446768560268, 0.0, 0.0, 0.0, 1.055428593688097e-15, -0.11758446768560273, 1.2313389109960218, 0.0, 0.0, 0.0, 1.1788441156947628e-14, 0.0, 0.0, 6.796125355778074e-07, -4.756190736528294e-15, -1.453348761619238e-17, 0.0, 0.0, 0.0, -4.756190736528292e-15, 6.796126016568079e-07, -2.1576086627230713e-25, 0.0, 0.0, 0.0, -1.4533487616192373e-17, -2.1576133759654353e-25, 6.79612601656808e-07, 0.0, 1.0554285936880972e-15, 1.1788441156947628e-14, 0.0, 0.0, 0.0, 8.206231490061236e-08]
twist: 
  twist: 
    linear: 
      x: 1.58327714275e-12
      y: -0.00571613253273
      z: 0.0
    angular: 
      x: 0.0
      y: 0.0
      z: 0.0399999998532
  covariance: [9.999999093653544e-10, 4.815584010053958e-13, 0.0, 0.0, 0.0, 5.963192003166901e-33, 4.815584010053951e-13, 1.4581946441467155, 0.0, 0.0, 0.0, -9.940642333972572e-24, 0.0, 0.0, 9.435425709501022e-07, -6.983401060300207e-28, 5.6096535945637766e-27, 0.0, 0.0, 0.0, -6.983401060300207e-28, 6.79612535559966e-07, 1.0718902660752534e-34, 0.0, 0.0, 0.0, 5.6096535945637766e-27, 2.769621150481132e-35, 6.79612535559966e-07, 0.0, 5.963192003166905e-33, -9.940642333972572e-24, 0.0, 0.0, 0.0, 1.6222463377904937e-06]
---
header: 
  seq: 6430
  stamp: 
    secs: 1518210105
    nsecs: 512227297
  frame_id: "swarmone/map"
child_frame_id: "swarmone/base_link"
pose: 
  pose: 
    position: 
      x: 0.262832705472
      y: 4.55475123405
      z: 0.0
    orientation: 
      x: 0.0
      y: 0.0
      z: 0.681639001087
      w: 0.7316886443
  covariance: [2.6562505421846883, -0.14716983401158415, 0.0, 0.0, 0.0, 1.8156217816491493e-17, -0.1471698340115842, 1.3138640245653979, 0.0, 0.0, 0.0, 1.9170898332421689e-16, 0.0, 0.0, 6.668900748839683e-07, -5.2280683638636554e-15, -1.317899547387144e-17, 0.0, 0.0, 0.0, -5.228068363863655e-15, 6.668901580048043e-07, -2.068440317891704e-25, 0.0, 0.0, 0.0, -1.3178995473871443e-17, -2.068450664349455e-25, 6.668901580048044e-07, 0.0, 1.8156217816491493e-17, 1.9170898332421689e-16, 0.0, 0.0, 0.0, 7.610185041529838e-08]
twist: 
  twist: 
    linear: 
      x: 1.43342349234e-12
      y: -0.00627380384357
      z: 0.0
    angular: 
      x: 0.0
      y: 0.0
      z: 0.0499999990005
  covariance: [9.999999093729544e-10, 4.4271390642484083e-13, 0.0, 0.0, 0.0, 6.2132831645401e-40, 4.4271390642484053e-13, 1.5806121418485692, 0.0, 0.0, 0.0, -1.1679487839881184e-30, 0.0, 0.0, 9.394686606755072e-07, -4.354867664632763e-28, 5.9293132983012666e-27, 0.0, 0.0, 0.0, -4.354867664632766e-28, 6.668900748671231e-07, 8.977048848900814e-35, 0.0, 0.0, 0.0, 5.9293132983012666e-27, -2.3469128310979836e-35, 6.668900748671231e-07, 0.0, 6.213283164540107e-40, -1.1679487839881184e-30, 0.0, 0.0, 0.0, 1.5030370482397444e-06]
---
header: 
  seq: 6431
  stamp: 
    secs: 1518210105
    nsecs: 611709833
  frame_id: "swarmone/map"
child_frame_id: "swarmone/base_link"
pose: 
  pose: 
    position: 
      x: 0.269518453718
      y: 4.57375704736
      z: 0.0
    orientation: 
      x: 0.0
      y: 0.0
      z: 0.674288162222
      w: 0.738468329915
  covariance: [2.1977906658396544, -0.10776786196586674, 0.0, 0.0, 0.0, 1.62218431690566e-14, -0.10776786196586685, 1.189866441323653, 0.0, 0.0, 0.0, 2.433923613397838e-13, 0.0, 0.0, 6.746385614873591e-07, -8.492484426082423e-15, -1.5591323826632226e-17, 0.0, 0.0, 0.0, -8.492484426082423e-15, 6.746386278405664e-07, -4.070401604651288e-25, 0.0, 0.0, 0.0, -1.5591323826632226e-17, -4.0704007662531453e-25, 6.746386278405666e-07, 0.0, 1.6221843169056605e-14, 2.433923613397838e-13, 0.0, 0.0, 0.0, 7.967812911179695e-08]
twist: 
  twist: 
    linear: 
      x: 1.70281168587e-12
      y: -0.0101969338811
      z: 0.0
    angular: 
      x: 0.0
      y: 0.0
      z: 0.0399999997999
  covariance: [9.99999909051719e-10, 5.127835512922276e-13, 0.0, 0.0, 0.0, 4.1100730764123676e-30, 5.127835512922275e-13, 1.3979762387973225, 0.0, 0.0, 0.0, -1.2010662352346569e-21, 0.0, 0.0, 9.419806207352871e-07, -9.17884263788603e-28, 9.880619539723934e-27, 0.0, 0.0, 0.0, -9.178842637886026e-28, 6.746385614698535e-07, 3.569938304484449e-35, 0.0, 0.0, 0.0, 9.880619539723932e-27, 2.205909633859834e-34, 6.746385614698535e-07, 0.0, 4.1100730764123655e-30, -1.2010662352346683e-21, 0.0, 0.0, 0.0, 1.574562621968599e-06]
---
header: 
  seq: 6432
  stamp: 
    secs: 1518210105
    nsecs: 712733269
  frame_id: "swarmone/map"
child_frame_id: "swarmone/base_link"
pose: 
  pose: 
    position: 
      x: 0.270577350743
      y: 4.57366104587
      z: 0.0
    orientation: 
      x: 0.0
      y: 0.0
      z: 0.677972044471
      w: 0.735087686548
  covariance: [2.495331586325521, -0.131170617470693, 0.0, 0.0, 0.0, 2.9022362589547294e-17, -0.13117061747069314, 1.2725042101691615, 0.0, 0.0, 0.0, 3.428780273712145e-16, 0.0, 0.0, 6.796126224632466e-07, -9.02985880229586e-15, -1.4292023984002287e-17, 0.0, 0.0, 0.0, -9.029858802295863e-15, 6.796126888088318e-07, -4.0281518489576564e-25, 0.0, 0.0, 0.0, -1.4292023984002287e-17, -4.0281472151561286e-25, 6.79612688808832e-07, 0.0, 2.902236258954729e-17, 3.4287802737121444e-16, 0.0, 0.0, 0.0, 8.20623149151169e-08]
twist: 
  twist: 
    linear: 
      x: 1.53832774359e-12
      y: -0.0108524095866
      z: 0.0
    angular: 
      x: 0.0
      y: 0.0
      z: 0.0400000000002
  covariance: [9.999999104517898e-10, 4.706052013551376e-13, 0.0, 0.0, 0.0, 3.7226361297302938e-37, 4.706052013551372e-13, 1.5182222637432605, 0.0, 0.0, 0.0, -1.1874624084945143e-28, 0.0, 0.0, 9.435425712202194e-07, -8.830753587393818e-28, 1.0695469699053188e-26, 0.0, 0.0, 0.0, -8.830753587393818e-28, 6.796126224455535e-07, 2.3126087292220185e-34, 0.0, 0.0, 0.0, 1.0695469699053186e-26, 4.648011879677536e-35, 6.796126224455535e-07, 0.0, 3.7226361297302913e-37, -1.1874624084945255e-28, 0.0, 0.0, 0.0, 1.6222463377916378e-06]
---
header: 
  seq: 6433
  stamp: 
    secs: 1518210105
    nsecs: 815066099
  frame_id: "swarmone/map"
child_frame_id: "swarmone/base_link"
pose: 
  pose: 
    position: 
      x: 0.276329563537
      y: 4.59476621886
      z: 0.0
    orientation: 
      x: 0.0
      y: 0.0
      z: 0.67432595809
      w: 0.738433817107
  covariance: [2.0745298074897596, -0.09760059949304248, 0.0, 0.0, 0.0, 5.469107632164597e-13, -0.09760059949304259, 1.1522473513380016, 0.0, 0.0, 0.0, 5.882231349618401e-12, 0.0, 0.0, 9.96072811409755e-07, -3.7697560862733224e-16, -2.4543129407323556e-21, 0.0, 0.0, 0.0, -3.7697560862733214e-16, 9.960728140054311e-07, -2.418014503414871e-28, 0.0, 0.0, 0.0, -2.4543129407323548e-21, -2.418419442465604e-28, 9.960728140054311e-07, 0.0, 5.469107632164598e-13, 5.882231349618401e-12, 0.0, 0.0, 0.0, 1.2878017782021475e-05]
twist: 
  twist: 
    linear: 
      x: 4.70909603016e-07
      y: -0.0140163385437
      z: 0.0
    angular: 
      x: 0.0
      y: 0.0
      z: 0.0399999999995
  covariance: [0.0002534646756585344, 1.3586889722869917e-07, 0.0, 0.0, 0.0, -1.121409808517358e-24, 1.3586889722869898e-07, 1.3457714713236086, 0.0, 0.0, 0.0, 6.405238639284321e-21, 0.0, 0.0, 9.996047324230541e-07, -2.5487370827119304e-28, 2.799256843847452e-27, 0.0, 0.0, 0.0, -2.5487370827119304e-28, 9.960728113129552e-07, 1.9184498090854708e-34, 0.0, 0.0, 0.0, 2.79925684384745e-27, 1.856711902369412e-34, 9.960728113129552e-07, 0.0, -1.1214098085173583e-24, 6.405238639284344e-21, 0.0, 0.0, 0.0, 0.00025754074914540755]
---
header: 
  seq: 6434
  stamp: 
    secs: 1518210105
    nsecs: 912458420
  frame_id: "swarmone/map"
child_frame_id: "swarmone/base_link"
pose: 
  pose: 
    position: 
      x: 0.277722886335
      y: 4.59464010718
      z: 0.0
    orientation: 
      x: 0.0
      y: 0.0
      z: 0.677971992695
      w: 0.735087734302
  covariance: [2.344389499812129, -0.11857119741911544, 0.0, 0.0, 0.0, 3.246440567742912e-15, -0.11857119741911558, 1.231768002165946, 0.0, 0.0, 0.0, 3.5991215717690684e-14, 0.0, 0.0, 6.867900157929961e-07, -1.22161525618363e-14, -1.5452202997696485e-17, 0.0, 0.0, 0.0, -1.2216152561836298e-14, 6.867900654466254e-07, -6.026993589575822e-25, 0.0, 0.0, 0.0, -1.5452202997696488e-17, -6.026997047714697e-25, 6.867900654466259e-07, 0.0, 3.2464405677429114e-15, 3.599121571769069e-14, 0.0, 0.0, 0.0, 8.563859358985432e-08]
twist: 
  twist: 
    linear: 
      x: 1.68616569952e-12
      y: -0.0147131665706
      z: 0.0
    angular: 
      x: 0.0
      y: 0.0
      z: 0.0300000010306
  covariance: [9.99999909410125e-10, 4.940423796671019e-13, 0.0, 0.0, 0.0, 1.0101780006974204e-31, 4.940423796671012e-13, 1.4585016732424205, 0.0, 0.0, 0.0, -1.643087387287497e-22, 0.0, 0.0, 9.457339167691861e-07, -1.2191646291690231e-27, 1.4823448655392765e-26, 0.0, 0.0, 0.0, -1.2191646291690219e-27, 6.867900157746612e-07, 1.696110389170519e-34, 0.0, 0.0, 0.0, 1.482344865539276e-26, 3.501442350835487e-34, 6.867900157746612e-07, 0.0, 1.0101780006974208e-31, -1.643087387287501e-22, 0.0, 0.0, 0.0, 1.693771911521032e-06]
---
header: 
  seq: 6435
  stamp: 
    secs: 1518210106
    nsecs:  11966467
  frame_id: "swarmone/map"
child_frame_id: "swarmone/base_link"
pose: 
  pose: 
    position: 
      x: 0.279217521765
      y: 4.59451942361
      z: 0.0
    orientation: 
      x: 0.0
      y: 0.0
      z: 0.674288150148
      w: 0.738468340939
  covariance: [2.656977879955576, -0.14164369385997655, 0.0, 0.0, 0.0, 4.21053407421203e-17, -0.1416436938599766, 1.3130847799274896, 0.0, 0.0, 0.0, 4.953715108746639e-16, 0.0, 0.0, 6.72098426166363e-07, -1.2850658060244425e-14, -1.397624250708673e-17, 0.0, 0.0, 0.0, -1.2850658060244425e-14, 6.720984925372064e-07, -5.477464671283941e-25, 0.0, 0.0, 0.0, -1.397624250708673e-17, -5.4774639686000525e-25, 6.72098492537207e-07, 0.0, 4.21053407421203e-17, 4.953715108746639e-16, 0.0, 0.0, 0.0, 7.848603619846496e-08]
twist: 
  twist: 
    linear: 
      x: 1.52712589549e-12
      y: -0.0154251306886
      z: 0.0
    angular: 
      x: 0.0
      y: 0.0
      z: 0.0399999989946
  covariance: [9.999999089835856e-10, 4.5442357809419206e-13, 0.0, 0.0, 0.0, 1.0434237932489998e-38, 4.5442357809419155e-13, 1.5804356466475373, 0.0, 0.0, 0.0, -1.9124161639030157e-29, 0.0, 0.0, 9.411667981640274e-07, -1.365617579128563e-27, 1.4820511119616537e-26, 0.0, 0.0, 0.0, -1.365617579128562e-27, 6.720984261491658e-07, 3.428188069900886e-34, 0.0, 0.0, 0.0, 1.482051111961652e-26, 2.27090068892673e-34, 6.720984261491658e-07, 0.0, 1.0434237932490002e-38, -1.9124161639030202e-29, 0.0, 0.0, 0.0, 1.5507207640596633e-06]
---
header: 
  seq: 6436
  stamp: 
    secs: 1518210106
    nsecs: 112737417
  frame_id: "swarmone/map"
child_frame_id: "swarmone/base_link"
pose: 
  pose: 
    position: 
      x: 0.28153957338
      y: 4.61607466393
      z: 0.0
    orientation: 
      x: 0.0
      y: 0.0
      z: 0.677972048006
      w: 0.735087683289
  covariance: [2.2045673303042777, -0.10701506996523981, 0.0, 0.0, 0.0, 3.487572274471988e-14, -0.10701506996523978, 1.1916643573180221, 0.0, 0.0, 0.0, 3.9678850952945075e-13, 0.0, 0.0, 6.820385237225296e-07, -1.3477426831146263e-14, -1.695026807303582e-17, 0.0, 0.0, 0.0, -1.3477426831146261e-14, 6.820385900279856e-07, -7.185827226213225e-25, 0.0, 0.0, 0.0, -1.695026807303582e-17, -7.18582582723783e-25, 6.820385900279862e-07, 0.0, 3.4875722744719896e-14, 3.967885095294507e-13, 0.0, 0.0, 0.0, 8.325440782727575e-08]
twist: 
  twist: 
    linear: 
      x: 1.82800811231e-12
      y: -0.0162076025703
      z: 0.0
    angular: 
      x: 0.0
      y: 0.0
      z: 0.040000000294
  covariance: [9.999999103339854e-10, 5.129546606450076e-13, 0.0, 0.0, 0.0, 9.889118390907098e-30, 5.129546606450067e-13, 1.4009833452017877, 0.0, 0.0, 0.0, -1.525382636774312e-20, 0.0, 0.0, 9.442924142522763e-07, -1.3236928007776744e-27, 1.6095784709632782e-26, 0.0, 0.0, 0.0, -1.3236928007776744e-27, 6.820385237045242e-07, 3.219245096407768e-34, 0.0, 0.0, 0.0, 1.6095784709632782e-26, 2.711607988972106e-34, 6.820385237045242e-07, 0.0, 9.889118390907098e-30, -1.525382636774316e-20, 0.0, 0.0, 0.0, 1.6460881957003095e-06]
---
header: 
  seq: 6437
  stamp: 
    secs: 1518210106
    nsecs: 212735415
  frame_id: "swarmone/map"
child_frame_id: "swarmone/base_link"
pose: 
  pose: 
    position: 
      x: 0.283190535455
      y: 4.61594139577
      z: 0.0
    orientation: 
      x: 0.0
      y: 0.0
      z: 0.674288157893
      w: 0.738468333868
  covariance: [2.500093466654701, -0.1285778250204221, 0.0, 0.0, 0.0, 4.6388643292968145e-17, -0.12857782502042212, 1.273239677416008, 0.0, 0.0, 0.0, 5.448354956363748e-16, 0.0, 0.0, 6.771464372019471e-07, -1.4085602708730748e-14, -1.5195055210252884e-17, 0.0, 0.0, 0.0, -1.4085602708730748e-14, 6.771465035250705e-07, -6.629453919133925e-25, 0.0, 0.0, 0.0, -1.5195055210252887e-17, -6.629440143336553e-25, 6.771465035250711e-07, 0.0, 4.638864329296815e-17, 5.448354956363748e-16, 0.0, 0.0, 0.0, 8.08702219993219e-08]
twist: 
  twist: 
    linear: 
      x: 1.65307464643e-12
      y: -0.0169197313584
      z: 0.0
    angular: 
      x: 0.0
      y: 0.0
      z: 0.0399999999995
  covariance: [9.999999094457897e-10, 4.711902215173957e-13, 0.0, 0.0, 0.0, 9.059921628800706e-37, 4.71190221517395e-13, 1.5201560161828405, 0.0, 0.0, 0.0, -1.5778199217769263e-27, 0.0, 0.0, 9.427722571079114e-07, -1.5230208577754503e-27, 1.6530341268532293e-26, 0.0, 0.0, 0.0, -1.5230208577754505e-27, 6.771464371844137e-07, 3.0868743869629663e-34, 0.0, 0.0, 0.0, 1.65303412685323e-26, 4.185810692080053e-34, 6.771464371844137e-07, 0.0, 9.059921628800702e-37, -1.5778199217769304e-27, 0.0, 0.0, 0.0, 1.5984044798804673e-06]
---
header: 
  seq: 6438
  stamp: 
    secs: 1518210106
    nsecs: 314901829
  frame_id: "swarmone/map"
child_frame_id: "swarmone/base_link"
pose: 
  pose: 
    position: 
      x: 0.287563482633
      y: 4.63731317502
      z: 0.0
    orientation: 
      x: 0.0
      y: 0.0
      z: 0.678003993392
      w: 0.735058218745
  covariance: [2.0781781819646117, -0.09690266929813601, 0.0, 0.0, 0.0, 2.2828049951495015e-13, -0.09690266929813607, 1.1532167234732627, 0.0, 0.0, 0.0, 2.711165313515671e-12, 0.0, 0.0, 9.954333049007638e-07, -5.455475896383186e-16, -1.4864246398336222e-21, 0.0, 0.0, 0.0, -5.455475896383188e-16, 9.954333073408349e-07, -1.9067906400030132e-28, 0.0, 0.0, 0.0, -1.4864246398336218e-21, -1.9066011191928607e-28, 9.95433307340835e-07, 0.0, 2.282804995149502e-13, 2.711165313515671e-12, 0.0, 0.0, 0.0, 1.0947996829851873e-05]
twist: 
  twist: 
    linear: 
      x: 4.2786945043e-07
      y: -0.0188950719659
      z: 0.0
    angular: 
      x: 0.0
      y: 0.0
      z: 0.0400000000002
  covariance: [0.00021778955357075114, 1.1562461909224819e-07, 0.0, 0.0, 0.0, -4.3721767820576485e-25, 1.1562461909224803e-07, 1.347275395553024, 0.0, 0.0, 0.0, 1.917862333159127e-21, 0.0, 0.0, 9.995402068902323e-07, -2.30780647045555e-28, 2.850080941752535e-27, 0.0, 0.0, 0.0, -2.30780647045555e-28, 9.954333048075762e-07, 1.593758998755347e-34, 0.0, 0.0, 0.0, 2.8500809417525353e-27, 1.6134954952280698e-34, 9.954333048075762e-07, 0.0, -4.372176782057647e-25, 1.9178623331591323e-21, 0.0, 0.0, 0.0, 0.00021894078118886486]
---
header: 
  seq: 6439
  stamp: 
    secs: 1518210106
    nsecs: 411944628
  frame_id: "swarmone/map"
child_frame_id: "swarmone/base_link"
pose: 
  pose: 
    position: 
      x: 0.289425962094
      y: 4.63716193551
      z: 0.0
    orientation: 
      x: 0.0
      y: 0.0
      z: 0.670587410487
      w: 0.741830523028
  covariance: [2.3477143341432454, -0.11634141770495113, 0.0, 0.0, 0.0, 3.3212161804211873e-15, -0.11634141770495113, 1.2322552198048247, 0.0, 0.0, 0.0, 4.1250853947259983e-14, 0.0, 0.0, 6.771463579254809e-07, -1.6330397131654873e-14, -1.62612793510478e-17, 0.0, 0.0, 0.0, -1.633039713165487e-14, 6.771464241862194e-07, -8.225391276262824e-25, 0.0, 0.0, 0.0, -1.6261279351047794e-17, -8.2253900530837125e-25, 6.771464241862204e-07, 0.0, 3.3212161804211877e-15, 4.125085394725999e-14, 0.0, 0.0, 0.0, 8.087022199164763e-08]
twist: 
  twist: 
    linear: 
      x: 1.78360750242e-12
      y: -0.0196159994292
      z: 0.0
    angular: 
      x: 0.0
      y: 0.0
      z: 0.039999999897
  covariance: [9.999999087025772e-10, 4.894203008537825e-13, 0.0, 0.0, 0.0, 3.994432929984185e-32, 4.894203008537815e-13, 1.4596751131954644, 0.0, 0.0, 0.0, -4.2905837311934907e-23, 0.0, 0.0, 9.427722568585068e-07, -1.9558025773906405e-27, 1.9147335850830117e-26, 0.0, 0.0, 0.0, -1.9558025773906405e-27, 6.771463579078005e-07, 5.4440376631388625e-34, 0.0, 0.0, 0.0, 1.9147335850830108e-26, 5.613355636365171e-34, 6.771463579078005e-07, 0.0, 3.994432929984187e-32, -4.290583731193508e-23, 0.0, 0.0, 0.0, 1.5984044798796696e-06]
---
header: 
  seq: 6440
  stamp: 
    secs: 1518210106
    nsecs: 512827635
  frame_id: "swarmone/map"
child_frame_id: "swarmone/base_link"
pose: 
  pose: 
    position: 
      x: 0.291432497688
      y: 4.63695938581
      z: 0.0
    orientation: 
      x: 0.0
      y: 0.0
      z: 0.674288210974
      w: 0.7384682854
  covariance: [2.6647080503333407, -0.14284722990726145, 0.0, 0.0, 0.0, 6.247337424158943e-17, -0.1428472299072614, 1.3151066600690446, 0.0, 0.0, 0.0, 6.553972651938488e-16, 0.0, 0.0, 6.820413872523258e-07, -1.693481455447629e-14, -1.49596759023527e-17, 0.0, 0.0, 0.0, -1.693481455447629e-14, 6.82041470061871e-07, -7.967705712065771e-25, 0.0, 0.0, 0.0, -1.4959675902352694e-17, -7.967698182533971e-25, 6.820414700618718e-07, 0.0, 6.247337424158943e-17, 6.553972651938487e-16, 0.0, 0.0, 0.0, 8.325440780787766e-08]
twist: 
  twist: 
    linear: 
      x: 1.61328718803e-12
      y: -0.0203654539618
      z: 0.0
    angular: 
      x: 0.0
      y: 0.0
      z: 0.0499999990089
  covariance: [9.999999103403648e-10, 4.4967095922526243e-13, 0.0, 0.0, 0.0, 4.1158092497229836e-39, 4.496709592252615e-13, 1.5834097334019412, 0.0, 0.0, 0.0, -4.9722748533723055e-30, 0.0, 0.0, 9.442924230461417e-07, -1.857825596940183e-27, 2.0207622657550353e-26, 0.0, 0.0, 0.0, -1.857825596940182e-27, 6.820413872344601e-07, 5.740861423917466e-34, 0.0, 0.0, 0.0, 2.020762265755034e-26, 5.383928675149961e-34, 6.820413872344601e-07, 0.0, 4.1158092497229856e-39, -4.972274853372325e-30, 0.0, 0.0, 0.0, 1.6460881957016561e-06]
---
header: 
  seq: 6441
  stamp: 
    secs: 1518210106
    nsecs: 612731934
  frame_id: "swarmone/map"
child_frame_id: "swarmone/base_link"
pose: 
  pose: 
    position: 
      x: 0.294590042674
      y: 4.65686545564
      z: 0.0
    orientation: 
      x: 0.0
      y: 0.0
      z: 0.674288089222
      w: 0.738468396571
  covariance: [2.2081954350087813, -0.10764755188831567, 0.0, 0.0, 0.0, 4.5609130954998703e-14, -0.10764755188831564, 1.1928109498742252, 0.0, 0.0, 0.0, 5.206808353196603e-13, 0.0, 0.0, 6.746389550349694e-07, -1.783503274688216e-14, -1.7253876721274532e-17, 0.0, 0.0, 0.0, -1.7835032746882162e-14, 6.746390048008033e-07, -9.459316254681362e-25, 0.0, 0.0, 0.0, -1.7253876721274532e-17, -9.4593173576175e-25, 6.746390048008041e-07, 0.0, 4.5609130954998703e-14, 5.206808353196602e-13, 0.0, 0.0, 0.0, 7.967812912306232e-08]
twist: 
  twist: 
    linear: 
      x: 1.87554879871e-12
      y: -0.0214144683876
      z: 0.0
    angular: 
      x: 0.0
      y: 0.0
      z: 0.0300000017805
  covariance: [9.99999909480243e-10, 5.104270934786417e-13, 0.0, 0.0, 0.0, 1.3782840610128283e-29, 5.104270934786405e-13, 1.402199037727656, 0.0, 0.0, 0.0, -2.0963347637016555e-20, 0.0, 0.0, 9.419806219874864e-07, -1.909640927158731e-27, 2.0752014188124857e-26, 0.0, 0.0, 0.0, -1.909640927158731e-27, 6.746389550174589e-07, 6.318590339459541e-34, 0.0, 0.0, 0.0, 2.0752014188124854e-26, 5.317774136566397e-34, 6.746389550174589e-07, 0.0, 1.3782840610128288e-29, -2.0963347637016576e-20, 0.0, 0.0, 0.0, 1.574562621968994e-06]
---
header: 
  seq: 6442
  stamp: 
    secs: 1518210106
    nsecs: 712542057
  frame_id: "swarmone/map"
child_frame_id: "swarmone/base_link"
pose: 
  pose: 
    position: 
      x: 0.296755704076
      y: 4.65666872131
      z: 0.0
    orientation: 
      x: 0.0
      y: 0.0
      z: 0.677972513338
      w: 0.735087254112
  covariance: [2.503280944349329, -0.13078208450584816, 0.0, 0.0, 0.0, 1.1665309986664848e-16, -0.1307820845058481, 1.2744490071733507, 0.0, 0.0, 0.0, 1.410554443065682e-15, 0.0, 0.0, 8.416727023725827e-07, -1.3375718974432622e-14, -1.1279561860788474e-17, 0.0, 0.0, 0.0, -1.337571897443262e-14, 8.416727505013766e-07, -9.52915774049472e-25, 0.0, 0.0, 0.0, -1.1279561860788471e-17, -9.529160379352822e-25, 8.416727505013776e-07, 0.0, 1.1665309986664848e-16, 1.4105544430656821e-15, 0.0, 0.0, 0.0, 2.418027628905126e-07]
twist: 
  twist: 
    linear: 
      x: 1.69638535532e-12
      y: -0.022159799181
      z: 0.0
    angular: 
      x: 0.0
      y: 0.0
      z: 0.039999998998
  covariance: [9.999999092597446e-10, 4.689256353583662e-13, 0.0, 0.0, 0.0, 1.2651871048233288e-36, 4.689256353583652e-13, 1.5212028353471039, 0.0, 0.0, 0.0, -2.1715296348376478e-27, 0.0, 0.0, 9.798632920806555e-07, -2.0162595735570876e-27, 2.4642389456301486e-26, 0.0, 0.0, 0.0, -2.0162595735570876e-27, 8.416727023408983e-07, 1.485035598903348e-33, 0.0, 0.0, 0.0, 2.4642389456301486e-26, 1.1418327841539564e-33, 8.416727023408983e-07, 0.0, 1.2651871048233293e-36, -2.1715296348376496e-27, 0.0, 0.0, 0.0, 4.81705529775134e-06]
---
header: 
  seq: 6443
  stamp: 
    secs: 1518210106
    nsecs: 814499140
  frame_id: "swarmone/map"
child_frame_id: "swarmone/base_link"
pose: 
  pose: 
    position: 
      x: 0.299390187756
      y: 4.67853919283
      z: 0.0
    orientation: 
      x: 0.0
      y: 0.0
      z: 0.674319841863
      w: 0.7384394023
  covariance: [2.082228184636593, -0.09746193821027538, 0.0, 0.0, 0.0, 3.136726078162218e-13, -0.09746193821027535, 1.1545551450178293, 0.0, 0.0, 0.0, 3.3773992792417674e-12, 0.0, 0.0, 9.953747854855266e-07, -7.125295972571554e-16, 1.2074294431936953e-22, 0.0, 0.0, 0.0, -7.125295972571552e-16, 9.953747879366399e-07, 9.733599915857232e-31, 0.0, 0.0, 0.0, 1.2074294431937047e-22, 9.928010132366496e-31, 9.9537478793664e-07, 0.0, 3.1367260781622176e-13, 3.3773992792417678e-12, 0.0, 0.0, 0.0, 1.080732945213444e-05]
twist: 
  twist: 
    linear: 
      x: 4.32323753533e-07
      y: -0.0227328271768
      z: 0.0
    angular: 
      x: 0.0
      y: 0.0
      z: 0.0399999999987
  covariance: [0.0002150114074340659, 1.1368367273972761e-07, 0.0, 0.0, 0.0, -5.03509947016488e-25, 1.136836727397274e-07, 1.348618668935218, 0.0, 0.0, 0.0, 3.537949194453332e-21, 0.0, 0.0, 9.995342843882822e-07, -3.3446329139391103e-28, 3.6736318458296885e-27, 0.0, 0.0, 0.0, -3.344632913939109e-28, 9.953747853924894e-07, 2.9523965017549675e-34, 0.0, 0.0, 0.0, 3.6736318458296914e-27, 3.0189986554054418e-34, 9.953747853924894e-07, 0.0, -5.035099470164883e-25, 3.537949194453337e-21, 0.0, 0.0, 0.0, 0.00021612744195546627]
---
header: 
  seq: 6444
  stamp: 
    secs: 1518210106
    nsecs: 912026167
  frame_id: "swarmone/map"
child_frame_id: "swarmone/base_link"
pose: 
  pose: 
    position: 
      x: 0.301633023072
      y: 4.67833540621
      z: 0.0
    orientation: 
      x: 0.0
      y: 0.0
      z: 0.674288580094
      w: 0.73846794836
  covariance: [2.3534026270811754, -0.11848431914936082, 0.0, 0.0, 0.0, 4.479579224913472e-15, -0.1184843191493608, 1.2341817182454098, 0.0, 0.0, 0.0, 4.9495386021654896e-14, 0.0, 0.0, 8.335022038400178e-07, -1.4646198210064763e-14, -1.253955899716985e-17, 0.0, 0.0, 0.0, -1.464619821006476e-14, 8.335022535966724e-07, -1.1030629031463812e-24, 0.0, 0.0, 0.0, -1.2539558997169848e-17, -1.1030617824387557e-24, 8.335022535966737e-07, 0.0, 4.47957922491347e-15, 4.94953860216549e-14, 0.0, 0.0, 0.0, 2.2630555525391932e-07]
twist: 
  twist: 
    linear: 
      x: 1.82462171525e-12
      y: -0.0234507122263
      z: 0.0
    angular: 
      x: 0.0
      y: 0.0
      z: 0.0399999999832
  covariance: [9.999999091599667e-10, 4.872107197926411e-13, 0.0, 0.0, 0.0, 4.875252585765027e-32, 4.872107197926402e-13, 1.461664057669629, 0.0, 0.0, 0.0, -8.070032250308183e-23, 0.0, 0.0, 9.78522848275853e-07, -2.4329288369612252e-27, 2.6470786278010135e-26, 0.0, 0.0, 0.0, -2.4329288369612245e-27, 8.335022038091242e-07, 2.7562483405513742e-33, 0.0, 0.0, 0.0, 2.6470786278010135e-26, 5.595828254473235e-34, 8.335022038091242e-07, 0.0, 4.8752525857650246e-32, -8.070032250308194e-23, 0.0, 0.0, 0.0, 4.507111144919165e-06]
---
header: 
  seq: 6445
  stamp: 
    secs: 1518210107
    nsecs:  12056828
  frame_id: "swarmone/map"
child_frame_id: "swarmone/base_link"
pose: 
  pose: 
    position: 
      x: 0.304005863203
      y: 4.67811974726
      z: 0.0
    orientation: 
      x: 0.0
      y: 0.0
      z: 0.674288146987
      w: 0.738468343826
  covariance: [2.6685323467156956, -0.14334880981558118, 0.0, 0.0, 0.0, 1.3151598216497664e-16, -0.14334880981558118, 1.316146217324582, 0.0, 0.0, 0.0, 1.4522314845735217e-15, 0.0, 0.0, 6.7464201821571e-07, -2.0144109191005586e-14, -1.5198158114015535e-17, 0.0, 0.0, 0.0, -2.014410919100558e-14, 6.746420845671144e-07, -9.409752181936203e-25, 0.0, 0.0, 0.0, -1.5198158114015538e-17, -9.40976513555703e-25, 6.746420845671157e-07, 0.0, 1.315159821649766e-16, 1.4522314845735215e-15, 0.0, 0.0, 0.0, 7.967812910515026e-08]
twist: 
  twist: 
    linear: 
      x: 1.65170602754e-12
      y: -0.0241870245197
      z: 0.0
    angular: 
      x: 0.0
      y: 0.0
      z: 0.0399999999996
  covariance: [9.999999095037562e-10, 4.479177531472581e-13, 0.0, 0.0, 0.0, 6.289218742678019e-39, 4.4791775314725743e-13, 1.5844293885289795, 0.0, 0.0, 0.0, -1.1740158449296507e-29, 0.0, 0.0, 9.419806317325103e-07, -2.1518640880744464e-27, 2.3438911387130887e-26, 0.0, 0.0, 0.0, -2.151864088074446e-27, 6.746420181982501e-07, 7.039370180419048e-34, 0.0, 0.0, 0.0, 2.343891138713089e-26, 7.842214074655804e-34, 6.746420181982501e-07, 0.0, 6.289218742678018e-39, -1.1740158449296523e-29, 0.0, 0.0, 0.0, 1.5745626219703726e-06]
---
header: 
  seq: 6446
  stamp: 
    secs: 1518210107
    nsecs: 111961842
  frame_id: "swarmone/map"
child_frame_id: "swarmone/base_link"
pose: 
  pose: 
    position: 
      x: 0.30582252961
      y: 4.70008799641
      z: 0.0
    orientation: 
      x: 0.0
      y: 0.0
      z: 0.677972047938
      w: 0.735087683352
  covariance: [2.2115278450054183, -0.1080333281838417, 0.0, 0.0, 0.0, 5.144725076414669e-14, -0.10803332818384173, 1.1938776806819682, 0.0, 0.0, 0.0, 5.839568484424413e-13, 0.0, 0.0, 6.820382056497243e-07, -2.006290191310601e-14, -1.7916821965306318e-17, 0.0, 0.0, 0.0, -2.0062901913106e-14, 6.82038271955144e-07, -1.130701583304297e-24, 0.0, 0.0, 0.0, -1.7916821965306315e-17, -1.1307018117103862e-24, 6.820382719551453e-07, 0.0, 5.144725076414668e-14, 5.839568484424414e-13, 0.0, 0.0, 0.0, 8.325440780776268e-08]
twist: 
  twist: 
    linear: 
      x: 1.95077823321e-12
      y: -0.0241270958318
      z: 0.0
    angular: 
      x: 0.0
      y: 0.0
      z: 0.0400000002938
  covariance: [9.999999094760136e-10, 5.0792832075271e-13, 0.0, 0.0, 0.0, 1.6094670142597077e-29, 5.079283207527093e-13, 1.40278095691019, 0.0, 0.0, 0.0, -2.4329920048893797e-20, 0.0, 0.0, 9.442924132753489e-07, -1.9617460734944933e-27, 2.3961307309807843e-26, 0.0, 0.0, 0.0, -1.9617460734944915e-27, 6.820382056317145e-07, 6.7892657672229285e-34, 0.0, 0.0, 0.0, 2.396130730980783e-26, 7.507467841143109e-34, 6.820382056317145e-07, 0.0, 1.6094670142597082e-29, -2.4329920048893794e-20, 0.0, 0.0, 0.0, 1.646088195699478e-06]
---
header: 
  seq: 6447
  stamp: 
    secs: 1518210107
    nsecs: 211729765
  frame_id: "swarmone/map"
child_frame_id: "swarmone/base_link"
pose: 
  pose: 
    position: 
      x: 0.308256951424
      y: 4.69989130936
      z: 0.0
    orientation: 
      x: 0.0
      y: 0.0
      z: 0.674288263549
      w: 0.738468237394
  covariance: [2.5070276303038423, -0.12966249866037896, 0.0, 0.0, 0.0, 8.445947958437806e-17, -0.12966249866037896, 1.275279768837402, 0.0, 0.0, 0.0, 9.79377439826598e-16, 0.0, 0.0, 7.377142163012885e-07, -1.9754010670023953e-14, -1.5456725477279898e-17, 0.0, 0.0, 0.0, -1.9754010670023953e-14, 7.377142796731262e-07, -1.164124561692525e-24, 0.0, 0.0, 0.0, -1.5456725477279892e-17, -1.1641251624920548e-24, 7.377142796731278e-07, 0.0, 8.44594795843781e-17, 9.793774398265981e-16, 0.0, 0.0, 0.0, 1.1663300886008002e-07]
twist: 
  twist: 
    linear: 
      x: 1.76443380712e-12
      y: -0.0248336557849
      z: 0.0
    angular: 
      x: 0.0
      y: 0.0
      z: 0.0399999999995
  covariance: [9.9999990921764e-10, 4.665985260968601e-13, 0.0, 0.0, 0.0, 1.4786228654323905e-36, 4.665985260968596e-13, 1.5217504252447833, 0.0, 0.0, 0.0, -2.5221835733654345e-27, 0.0, 0.0, 9.59393500786361e-07, -2.572358782528567e-27, 2.80102820421642e-26, 0.0, 0.0, 0.0, -2.5723587825285675e-27, 7.377142162792156e-07, 1.414227044967557e-33, 0.0, 0.0, 0.0, 2.80102820421642e-26, 1.1056163163457745e-33, 7.377142162792156e-07, 0.0, 1.4786228654323909e-36, -2.5221835733654342e-27, 0.0, 0.0, 0.0, 2.313660217184917e-06]
---
header: 
  seq: 6448
  stamp: 
    secs: 1518210107
    nsecs: 316117764
  frame_id: "swarmone/map"
child_frame_id: "swarmone/base_link"
pose: 
  pose: 
    position: 
      x: 0.309593801195
      y: 4.72186886396
      z: 0.0
    orientation: 
      x: 0.0
      y: 0.0
      z: 0.674327718294
      w: 0.738432209712
  covariance: [2.0912855329834765, -0.09824179780938758, 0.0, 0.0, 0.0, 5.751346466014037e-13, -0.09824179780938755, 1.1574856218447587, 0.0, 0.0, 0.0, 6.191095751809662e-12, 0.0, 0.0, 9.972179376444903e-07, -4.777201345632727e-16, -8.012341664018833e-22, 0.0, 0.0, 0.0, -4.777201345632729e-16, 9.97217938734617e-07, -1.449860541565185e-28, 0.0, 0.0, 0.0, -8.012341664018831e-22, -1.4497980141479687e-28, 9.97217938734617e-07, 0.0, 5.751346466014037e-13, 6.191095751809661e-12, 0.0, 0.0, 0.0, 1.7968244273629364e-05]
twist: 
  twist: 
    linear: 
      x: 7.42590687551e-07
      y: -0.0243607975996
      z: 0.0
    angular: 
      x: 0.0
      y: 0.0
      z: 0.0300000009917
  covariance: [0.00035911084347717395, 1.887628006005083e-07, 0.0, 0.0, 0.0, -1.6308643332190269e-24, 1.8876280060050803e-07, 1.3513834717114341, 0.0, 0.0, 0.0, 6.6518505788953286e-21, 0.0, 0.0, 9.997206431722814e-07, -2.2366450486378094e-28, 2.456616844156813e-27, 0.0, 0.0, 0.0, -2.2366450486378103e-28, 9.972179375510147e-07, 2.2559874572276024e-34, 0.0, 0.0, 0.0, 2.456616844156814e-27, 2.2200257203917484e-34, 9.972179375510147e-07, 0.0, -1.6308643332190267e-24, 6.6518505788953466e-21, 0.0, 0.0, 0.0, 0.0003593454824217758]
---
header: 
  seq: 6449
  stamp: 
    secs: 1518210107
    nsecs: 411984682
  frame_id: "swarmone/map"
child_frame_id: "swarmone/base_link"
pose: 
  pose: 
    position: 
      x: 0.311950188967
      y: 4.72165471617
      z: 0.0
    orientation: 
      x: 0.0
      y: 0.0
      z: 0.674288221994
      w: 0.738468275338
  covariance: [2.3585209297697127, -0.11897802940410782, 0.0, 0.0, 0.0, 7.695248977486284e-15, -0.11897802940410776, 1.235765093767288, 0.0, 0.0, 0.0, 8.503024738503642e-14, 0.0, 0.0, 6.844334799337771e-07, -2.077506192522199e-14, -1.7148207245641318e-17, 0.0, 0.0, 0.0, -2.0775061925221988e-14, 6.844335626847849e-07, -1.1289651297299583e-24, 0.0, 0.0, 0.0, -1.7148207245641315e-17, -1.1289663730957229e-24, 6.844335626847863e-07, 0.0, 7.695248977486284e-15, 8.503024738503642e-14, 0.0, 0.0, 0.0, 8.44465006874385e-08]
twist: 
  twist: 
    linear: 
      x: 1.8794701208e-12
      y: -0.025001294464
      z: 0.0
    angular: 
      x: 0.0
      y: 0.0
      z: 0.0499999979677
  covariance: [9.999999089435235e-10, 4.84973613631514e-13, 0.0, 0.0, 0.0, 1.4608741741640358e-31, 4.849736136315133e-13, 1.462589915601282, 0.0, 0.0, 0.0, -2.4017214216064844e-22, 0.0, 0.0, 9.450226169309642e-07, -2.296165752173036e-27, 2.4991228137354078e-26, 0.0, 0.0, 0.0, -2.2961657521730356e-27, 6.84433479915599e-07, 7.826378332137579e-34, 0.0, 0.0, 0.0, 2.4991228137354078e-26, 9.04746722780639e-34, 6.84433479915599e-07, 0.0, 1.460874174164036e-31, -2.4017214216064915e-22, 0.0, 0.0, 0.0, 1.6699300536103541e-06]
---
header: 
  seq: 6450
  stamp: 
    secs: 1518210107
    nsecs: 511988401
  frame_id: "swarmone/map"
child_frame_id: "swarmone/base_link"
pose: 
  pose: 
    position: 
      x: 0.314473421389
      y: 4.72142537696
      z: 0.0
    orientation: 
      x: 0.0
      y: 0.0
      z: 0.674288197024
      w: 0.738468298138
  covariance: [2.6740002441977984, -0.14389030423608867, 0.0, 0.0, 0.0, 7.387599626529182e-17, -0.14389030423608862, 1.3177137879917125, 0.0, 0.0, 0.0, 8.1632568597235e-16, 0.0, 0.0, 6.695147780056044e-07, -2.138934633853139e-14, -1.565824372924746e-17, 0.0, 0.0, 0.0, -2.1389346338531392e-14, 6.695148609862557e-07, -1.0134113518972627e-24, 0.0, 0.0, 0.0, -1.5658243729247458e-17, -1.0134104115411749e-24, 6.695148609862572e-07, 0.0, 7.387599626529181e-17, 8.163256859723499e-16, 0.0, 0.0, 0.0, 7.729394331291059e-08]
twist: 
  twist: 
    linear: 
      x: 1.70141930601e-12
      y: -0.0256694278179
      z: 0.0
    angular: 
      x: 0.0
      y: 0.0
      z: 0.0499999999998
  covariance: [9.99999909475581e-10, 4.458496053890205e-13, 0.0, 0.0, 0.0, 1.4498363415247293e-38, 4.4584960538901983e-13, 1.5853559002198025, 0.0, 0.0, 0.0, -2.6876278850711725e-29, 0.0, 0.0, 9.40329808707748e-07, -2.2438702221740064e-27, 2.4447090387586407e-26, 0.0, 0.0, 0.0, -2.2438702221740068e-27, 6.695147779885752e-07, 7.94132404591955e-34, 0.0, 0.0, 0.0, 2.44470903875864e-26, 8.053208975733148e-34, 6.695147779885752e-07, 0.0, 1.4498363415247298e-38, -2.6876278850711803e-29, 0.0, 0.0, 0.0, 1.5268789061500052e-06]
---
header: 
  seq: 6451
  stamp: 
    secs: 1518210107
    nsecs: 611933231
  frame_id: "swarmone/map"
child_frame_id: "swarmone/base_link"
pose: 
  pose: 
    position: 
      x: 0.317585020345
      y: 4.7432121156
      z: 0.0
    orientation: 
      x: 0.0
      y: 0.0
      z: 0.677972044982
      w: 0.735087686077
  covariance: [2.216226279687092, -0.10839515152924946, 0.0, 0.0, 0.0, 5.532275227933426e-14, -0.10839515152924936, 1.1954518797688398, 0.0, 0.0, 0.0, 6.322140874701625e-13, 0.0, 0.0, 6.796091980349288e-07, -2.1845024705521458e-14, -1.833031530782712e-17, 0.0, 0.0, 0.0, -2.1845024705521464e-14, 6.796092643827638e-07, -1.2499984945161173e-24, 0.0, 0.0, 0.0, -1.833031530782712e-17, -1.2499983056449437e-24, 6.796092643827653e-07, 0.0, 5.532275227933426e-14, 6.322140874701627e-13, 0.0, 0.0, 0.0, 8.206231491169737e-08]
twist: 
  twist: 
    linear: 
      x: 1.99380522671e-12
      y: -0.0262538976113
      z: 0.0
    angular: 
      x: 0.0
      y: 0.0
      z: 0.0400000012556
  covariance: [9.999999095107906e-10, 5.058476919630344e-13, 0.0, 0.0, 0.0, 1.6816437375101755e-29, 5.058476919630336e-13, 1.40345495864536, 0.0, 0.0, 0.0, -2.533714849447287e-20, 0.0, 0.0, 9.435425605817434e-07, -2.1171389193536174e-27, 2.5876464253284026e-26, 0.0, 0.0, 0.0, -2.117138919353617e-27, 6.796091980170825e-07, 8.032810546596295e-34, 0.0, 0.0, 0.0, 2.5876464253284026e-26, 8.075093439509528e-34, 6.796091980170825e-07, 0.0, 1.6816437375101758e-29, -2.5337148494472876e-20, 0.0, 0.0, 0.0, 1.6222463377893777e-06]
---
header: 
  seq: 6452
  stamp: 
    secs: 1518210107
    nsecs: 711716413
  frame_id: "swarmone/map"
child_frame_id: "swarmone/base_link"
pose: 
  pose: 
    position: 
      x: 0.320228976923
      y: 4.74299848274
      z: 0.0
    orientation: 
      x: 0.0
      y: 0.0
      z: 0.677972048242
      w: 0.73508768307
  covariance: [2.512130029443558, -0.13006409389539467, 0.0, 0.0, 0.0, 6.953454423551985e-17, -0.1300640938953946, 1.2768699695265526, 0.0, 0.0, 0.0, 8.645942684394832e-16, 0.0, 0.0, 6.771464315907894e-07, -2.2404893793450013e-14, -1.653650604469194e-17, 0.0, 0.0, 0.0, -2.240489379345002e-14, 6.771464979709637e-07, -1.1475796093961766e-24, 0.0, 0.0, 0.0, -1.653650604469194e-17, -1.1475794629524268e-24, 6.771464979709652e-07, 0.0, 6.953454423551985e-17, 8.645942684394833e-16, 0.0, 0.0, 0.0, 8.087022199501052e-08]
twist: 
  twist: 
    linear: 
      x: 1.80329216864e-12
      y: -0.0269128815638
      z: 0.0
    angular: 
      x: 0.0
      y: 0.0
      z: 0.0399999999999
  covariance: [9.999999092320766e-10, 4.646493386552423e-13, 0.0, 0.0, 0.0, 1.5443835680262456e-36, 4.646493386552418e-13, 1.5224631968779037, 0.0, 0.0, 0.0, -2.6255778576961098e-27, 0.0, 0.0, 9.427722570902796e-07, -2.1505228724965005e-27, 2.631719668728218e-26, 0.0, 0.0, 0.0, -2.1505228724965008e-27, 6.771464315732524e-07, 7.8065332505766e-34, 0.0, 0.0, 0.0, 2.631719668728217e-26, 8.324516750891264e-34, 6.771464315732524e-07, 0.0, 1.5443835680262456e-36, -2.6255778576961105e-27, 0.0, 0.0, 0.0, 1.5984044798802517e-06]
---
header: 
  seq: 6453
  stamp: 
    secs: 1518210107
    nsecs: 814824104
  frame_id: "swarmone/map"
child_frame_id: "swarmone/base_link"
pose: 
  pose: 
    position: 
      x: 0.324868326488
      y: 4.76455075963
      z: 0.0
    orientation: 
      x: 0.0
      y: 0.0
      z: 0.678006654047
      w: 0.735055764598
  covariance: [2.0943808769010483, -0.09732368139439965, 0.0, 0.0, 0.0, 3.756821052853591e-13, -0.09732368139439962, 1.1584745933708205, 0.0, 0.0, 0.0, 4.467858464384887e-12, 0.0, 0.0, 9.957817977074559e-07, -7.8285871725446e-16, 2.327224703489009e-22, 0.0, 0.0, 0.0, -7.828587172544597e-16, 9.957817999439123e-07, 2.4275018128701433e-29, 0.0, 0.0, 0.0, 2.3272247034889982e-22, 2.43055623368595e-29, 9.957817999439128e-07, 0.0, 3.7568210528535915e-13, 4.4678584643848896e-12, 0.0, 0.0, 0.0, 1.1850412235999858e-05]
twist: 
  twist: 
    linear: 
      x: 4.95934440029e-07
      y: -0.0283528218146
      z: 0.0
    angular: 
      x: 0.0
      y: 0.0
      z: 0.0399999999999
  covariance: [0.00023597122290730903, 1.2282851285825e-07, 0.0, 0.0, 0.0, -7.715472961442393e-25, 1.2282851285824994e-07, 1.351682388258549, 0.0, 0.0, 0.0, 3.2077182687289347e-21, 0.0, 0.0, 9.995755246507528e-07, -3.273625098420247e-28, 4.0430063314245486e-27, 0.0, 0.0, 0.0, -3.2736250984202487e-28, 9.957817976142905e-07, 3.5452738289114878e-34, 0.0, 0.0, 0.0, 4.043006331424549e-27, 3.5366468959264537e-34, 9.957817976142905e-07, 0.0, -7.715472961442394e-25, 3.20771826872893e-21, 0.0, 0.0, 0.0, 0.00023698906762685388]
---
header: 
  seq: 6454
  stamp: 
    secs: 1518210107
    nsecs: 912801743
  frame_id: "swarmone/map"
child_frame_id: "swarmone/base_link"
pose: 
  pose: 
    position: 
      x: 0.327669636455
      y: 4.76432436979
      z: 0.0
    orientation: 
      x: 0.0
      y: 0.0
      z: 0.67797206225
      w: 0.735087670151
  covariance: [2.3683022129376243, -0.11703206361595425, 0.0, 0.0, 0.0, 5.342795796019401e-15, -0.11703206361595425, 1.2382766211443526, 0.0, 0.0, 0.0, 6.637326488804387e-14, 0.0, 0.0, 6.867900308371129e-07, -2.4091908517898713e-14, -1.7547701061398892e-17, 0.0, 0.0, 0.0, -2.4091908517898713e-14, 6.867900970418892e-07, -1.349770471793556e-24, 0.0, 0.0, 0.0, -1.754770106139889e-17, -1.3497705735279708e-24, 6.867900970418911e-07, 0.0, 5.342795796019401e-15, 6.637326488804389e-14, 0.0, 0.0, 0.0, 8.563859359672685e-08]
twist: 
  twist: 
    linear: 
      x: 1.90635898519e-12
      y: -0.0290162736244
      z: 0.0
    angular: 
      x: 0.0
      y: 0.0
      z: 0.0399999999816
  covariance: [9.999999098150677e-10, 4.794190441241036e-13, 0.0, 0.0, 0.0, 6.944426912430352e-32, 4.794190441241031e-13, 1.4654151456131634, 0.0, 0.0, 0.0, -7.641163335378665e-23, 0.0, 0.0, 9.457339168143585e-07, -2.3886805189553153e-27, 2.9235187896823687e-26, 0.0, 0.0, 0.0, -2.388680518955316e-27, 6.867900308187691e-07, 1.1213148254712635e-33, 0.0, 0.0, 0.0, 2.923518789682369e-26, 1.0535398130050682e-33, 6.867900308187691e-07, 0.0, 6.944426912430352e-32, -7.641163335378665e-23, 0.0, 0.0, 0.0, 1.6937719115214128e-06]
---
header: 
  seq: 6455
  stamp: 
    secs: 1518210108
    nsecs:  11866808
  frame_id: "swarmone/map"
child_frame_id: "swarmone/base_link"
pose: 
  pose: 
    position: 
      x: 0.330567906528
      y: 4.76409006127
      z: 0.0
    orientation: 
      x: 0.0
      y: 0.0
      z: 0.67428826008
      w: 0.738468240561
  covariance: [2.6819494390498884, -0.13990003359500125, 0.0, 0.0, 0.0, 1.0159421524869024e-16, -0.13990003359500125, 1.3191987494301425, 0.0, 0.0, 0.0, 1.1778489834292669e-15, 0.0, 0.0, 7.360637099762605e-07, -2.3666322482923823e-14, -1.5051276194111646e-17, 0.0, 0.0, 0.0, -2.3666322482923816e-14, 7.360637734866177e-07, -1.3496001187825362e-24, 0.0, 0.0, 0.0, -1.5051276194111643e-17, -1.3496002995534054e-24, 7.360637734866198e-07, 0.0, 1.0159421524869024e-16, 1.177848983429267e-15, 0.0, 0.0, 0.0, 1.1544091595035309e-07]
twist: 
  twist: 
    linear: 
      x: 1.72727086337e-12
      y: -0.0296870871431
      z: 0.0
    angular: 
      x: 0.0
      y: 0.0
      z: 0.0399999999995
  covariance: [9.99999908538522e-10, 4.410408677646179e-13, 0.0, 0.0, 0.0, 7.281158285990987e-39, 4.410408677646176e-13, 1.587148477465223, 0.0, 0.0, 0.0, -8.995895605144714e-30, 0.0, 0.0, 9.589965320850353e-07, -3.062400477149348e-27, 3.3400042245147064e-26, 0.0, 0.0, 0.0, -3.062400477149349e-27, 7.360637099543152e-07, 1.8676608420881725e-33, 0.0, 0.0, 0.0, 3.340004224514707e-26, 1.6548585591023717e-33, 7.360637099543152e-07, 0.0, 7.28115828599099e-39, -8.995895605144714e-30, 0.0, 0.0, 0.0, 2.2898183592740506e-06]
---
header: 
  seq: 6456
  stamp: 
    secs: 1518210108
    nsecs: 111732244
  frame_id: "swarmone/map"
child_frame_id: "swarmone/base_link"
pose: 
  pose: 
    position: 
      x: 0.333724078735
      y: 4.78583341156
      z: 0.0
    orientation: 
      x: 0.0
      y: 0.0
      z: 0.674288143436
      w: 0.738468347068
  covariance: [2.224033271430926, -0.10586721558895264, 0.0, 0.0, 0.0, 6.462970882175983e-14, -0.10586721558895268, 1.197479786797279, 0.0, 0.0, 0.0, 7.320726105368005e-13, 0.0, 0.0, 6.720952353796106e-07, -2.50622416708279e-14, -1.8536106768865245e-17, 0.0, 0.0, 0.0, -2.5062241670827886e-14, 6.720953017520815e-07, -1.4169596135946371e-24, 0.0, 0.0, 0.0, -1.853610676886524e-17, -1.4169603040933932e-24, 6.720953017520834e-07, 0.0, 6.46297088217598e-14, 7.320726105368005e-13, 0.0, 0.0, 0.0, 7.848603622621425e-08]
twist: 
  twist: 
    linear: 
      x: 2.01528886894e-12
      y: -0.0300828323818
      z: 0.0
    angular: 
      x: 0.0
      y: 0.0
      z: 0.0399999998037
  covariance: [9.999999094391197e-10, 4.93619979512686e-13, 0.0, 0.0, 0.0, 2.782470105356645e-29, 4.936199795126857e-13, 1.4059924912156665, 0.0, 0.0, 0.0, -4.558749823723499e-20, 0.0, 0.0, 9.411667878874049e-07, -2.653354209913242e-27, 2.890608331591965e-26, 0.0, 0.0, 0.0, -2.6533542099132422e-27, 6.72095235362262e-07, 1.0480158723833398e-33, 0.0, 0.0, 0.0, 2.8906083315919645e-26, 1.1762107150016225e-33, 6.72095235362262e-07, 0.0, 2.782470105356647e-29, -4.5587498237234994e-20, 0.0, 0.0, 0.0, 1.5507207640588105e-06]
---
header: 
  seq: 6457
  stamp: 
    secs: 1518210108
    nsecs: 212195396
  frame_id: "swarmone/map"
child_frame_id: "swarmone/base_link"
pose: 
  pose: 
    position: 
      x: 0.3367672789
      y: 4.78555680699
      z: 0.0
    orientation: 
      x: 0.0
      y: 0.0
      z: 0.674288205089
      w: 0.738468290774
  covariance: [2.522685745232521, -0.12902081159545073, 0.0, 0.0, 0.0, 8.681002108171803e-17, -0.12902081159545076, 1.2796144945404582, 0.0, 0.0, 0.0, 9.587730610812653e-16, 0.0, 0.0, 6.746420295632221e-07, -2.561015817088327e-14, -1.6835796955522103e-17, 0.0, 0.0, 0.0, -2.561015817088328e-14, 6.746421125019087e-07, -1.3252058917449506e-24, 0.0, 0.0, 0.0, -1.6835796955522103e-17, -1.3252061181080346e-24, 6.746421125019108e-07, 0.0, 8.681002108171803e-17, 9.587730610812653e-16, 0.0, 0.0, 0.0, 7.967812911304877e-08]
twist: 
  twist: 
    linear: 
      x: 1.8216394952e-12
      y: -0.0307502329931
      z: 0.0
    angular: 
      x: 0.0
      y: 0.0
      z: 0.0499999990045
  covariance: [9.99999909904575e-10, 4.5316620400395044e-13, 0.0, 0.0, 0.0, 2.5347458745506834e-36, 4.531662040039503e-13, 1.5259877419651193, 0.0, 0.0, 0.0, -4.694798388905471e-27, 0.0, 0.0, 9.419806317687353e-07, -2.7328176346494378e-27, 2.979864010267872e-26, 0.0, 0.0, 0.0, -2.732817634649439e-27, 6.746420295458578e-07, 1.1957755229464771e-33, 0.0, 0.0, 0.0, 2.9798640102678724e-26, 1.2050931483577881e-33, 6.746420295458578e-07, 0.0, 2.5347458745506854e-36, -4.6947983889054726e-27, 0.0, 0.0, 0.0, 1.5745626219707734e-06]
---
header: 
  seq: 6458
  stamp: 
    secs: 1518210108
    nsecs: 315339088
  frame_id: "swarmone/map"
child_frame_id: "swarmone/base_link"
pose: 
  pose: 
    position: 
      x: 0.341218269153
      y: 4.80716111842
      z: 0.0
    orientation: 
      x: 0.0
      y: 0.0
      z: 0.674340676647
      w: 0.738420376086
  covariance: [2.1006026107548554, -0.09763315455688179, 0.0, 0.0, 0.0, 7.957170894675215e-13, -0.09763315455688182, 1.1606416830789805, 0.0, 0.0, 0.0, 8.582287101847643e-12, 0.0, 0.0, 9.972000885009464e-07, -6.096362998256829e-16, 2.053411934506166e-21, 0.0, 0.0, 0.0, -6.096362998256828e-16, 9.972000900213377e-07, 4.372592352306201e-28, 0.0, 0.0, 0.0, 2.053411934506165e-21, 4.372798110909416e-28, 9.972000900213375e-07, 0.0, 7.957170894675216e-13, 8.582287101847642e-12, 0.0, 0.0, 0.0, 1.7863342550286634e-05]
twist: 
  twist: 
    linear: 
      x: 7.55627334839e-07
      y: -0.0318258206078
      z: 0.0
    angular: 
      x: 0.0
      y: 0.0
      z: 0.040000001004
  covariance: [0.0003567807940479712, 1.8303058415920256e-07, 0.0, 0.0, 0.0, -2.250287502297589e-24, 1.830305841592024e-07, 1.3536935392405383, 0.0, 0.0, 0.0, 9.520011492450332e-21, 0.0, 0.0, 9.997188271387041e-07, -3.0081386190430143e-28, 3.304199955319275e-27, 0.0, 0.0, 0.0, -3.0081386190430125e-28, 9.972000884068194e-07, 3.921216967538019e-34, 0.0, 0.0, 0.0, 3.3041999553192744e-27, 3.973828716951366e-34, 9.972000884068194e-07, 0.0, -2.250287502297589e-24, 9.52001149245035e-21, 0.0, 0.0, 0.0, 0.00035724739892568084]
---
header: 
  seq: 6459
  stamp: 
    secs: 1518210108
    nsecs: 412065983
  frame_id: "swarmone/map"
child_frame_id: "swarmone/base_link"
pose: 
  pose: 
    position: 
      x: 0.344315272551
      y: 4.80687956872
      z: 0.0
    orientation: 
      x: 0.0
      y: 0.0
      z: 0.674288157532
      w: 0.738468334197
  covariance: [2.3711952781647905, -0.1185306520314651, 0.0, 0.0, 0.0, 9.97614304657001e-15, -0.11853065203146508, 1.2396114178725595, 0.0, 0.0, 0.0, 1.1016554023780591e-13, 0.0, 0.0, 6.820412796813811e-07, -2.700410600837977e-14, -1.7723184426054157e-17, 0.0, 0.0, 0.0, -2.7004106008379767e-14, 6.820413459300752e-07, -1.5052213082407235e-24, 0.0, 0.0, 0.0, -1.7723184426054164e-17, -1.5052219646187128e-24, 6.820413459300774e-07, 0.0, 9.976143046570008e-15, 1.1016554023780591e-13, 0.0, 0.0, 0.0, 8.325440780869934e-08]
twist: 
  twist: 
    linear: 
      x: 1.92340053593e-12
      y: -0.0324742207524
      z: 0.0
    angular: 
      x: 0.0
      y: 0.0
      z: 0.0399999999726
  covariance: [9.99999909774111e-10, 4.729703496778068e-13, 0.0, 0.0, 0.0, 1.985432311983763e-31, 4.729703496778063e-13, 1.4660475093662253, 0.0, 0.0, 0.0, -3.368164030589032e-22, 0.0, 0.0, 9.44292422715608e-07, -2.9553199606955057e-27, 3.222520784316881e-26, 0.0, 0.0, 0.0, -2.955319960695505e-27, 6.820412796633603e-07, 1.2606456578969885e-33, 0.0, 0.0, 0.0, 3.222520784316881e-26, 1.5665658501491958e-33, 6.820412796633603e-07, 0.0, 1.985432311983762e-31, -3.3681640305890386e-22, 0.0, 0.0, 0.0, 1.6460881957010399e-06]
---
header: 
  seq: 6460
  stamp: 
    secs: 1518210108
    nsecs: 512053728
  frame_id: "swarmone/map"
child_frame_id: "swarmone/base_link"
pose: 
  pose: 
    position: 
      x: 0.347582332026
      y: 4.80658251481
      z: 0.0
    orientation: 
      x: 0.0
      y: 0.0
      z: 0.674288091527
      w: 0.738468394466
  covariance: [2.687857927833031, -0.14343648288053903, 0.0, 0.0, 0.0, 9.708456679657644e-17, -0.14343648288053903, 1.32153635693321, 0.0, 0.0, 0.0, 1.0714748573427737e-15, 0.0, 0.0, 6.77146436934745e-07, -2.759269222186735e-14, -1.600725258644408e-17, 0.0, 0.0, 0.0, -2.7592692221867357e-14, 6.771464866768148e-07, -1.3680517975860325e-24, 0.0, 0.0, 0.0, -1.6007252586444083e-17, -1.3680513611204199e-24, 6.771464866768171e-07, 0.0, 9.708456679657645e-17, 1.0714748573427739e-15, 0.0, 0.0, 0.0, 8.087022199911684e-08]
twist: 
  twist: 
    linear: 
      x: 1.74121497047e-12
      y: -0.0331444778163
      z: 0.0
    angular: 
      x: 0.0
      y: 0.0
      z: 0.030000001
  covariance: [9.999999094597302e-10, 4.3479376318799744e-13, 0.0, 0.0, 0.0, 1.969231174167191e-38, 4.3479376318799693e-13, 1.5889821945731346, 0.0, 0.0, 0.0, -3.7677514611647275e-29, 0.0, 0.0, 9.427722571070717e-07, -2.967328623893633e-27, 3.238325750278656e-26, 0.0, 0.0, 0.0, -2.9673286238936322e-27, 6.771464369172014e-07, 1.4294256331605184e-33, 0.0, 0.0, 0.0, 3.238325750278656e-26, 1.4175408729970062e-33, 6.771464369172014e-07, 0.0, 1.96923117416719e-38, -3.767751461164734e-29, 0.0, 0.0, 0.0, 1.598404479880457e-06]
---
header: 
  seq: 6461
  stamp: 
    secs: 1518210108
    nsecs: 611773729
  frame_id: "swarmone/map"
child_frame_id: "swarmone/base_link"
pose: 
  pose: 
    position: 
      x: 0.350584916021
      y: 4.83001094311
      z: 0.0
    orientation: 
      x: 0.0
      y: 0.0
      z: 0.674288572485
      w: 0.738467955308
  covariance: [2.2260897351141273, -0.10811984537310668, 0.0, 0.0, 0.0, 7.07912374643545e-14, -0.10811984537310665, 1.1987524416516726, 0.0, 0.0, 0.0, 7.974042996154633e-13, 0.0, 0.0, 8.32168828206653e-07, -2.0832468469577464e-14, -1.427371584725812e-17, 0.0, 0.0, 0.0, -2.0832468469577464e-14, 8.321688782255475e-07, -1.7718387144540803e-24, 0.0, 0.0, 0.0, -1.4273715847258123e-17, -1.7718384186313532e-24, 8.321688782255501e-07, 0.0, 7.079123746435451e-14, 7.974042996154635e-13, 0.0, 0.0, 0.0, 2.2392136947341812e-07]
twist: 
  twist: 
    linear: 
      x: 2.06327097809e-12
      y: -0.0331806417092
      z: 0.0
    angular: 
      x: 0.0
      y: 0.0
      z: 0.03999999884
  covariance: [9.99999909286203e-10, 4.958885909553182e-13, 0.0, 0.0, 0.0, 2.2669179503867482e-29, 4.958885909553173e-13, 1.4060190617945132, 0.0, 0.0, 0.0, -3.4915865349734395e-20, 0.0, 0.0, 9.783006211372897e-07, -3.443140653395096e-27, 3.753238414523187e-26, 0.0, 0.0, 0.0, -3.443140653395095e-27, 8.321688281758801e-07, 2.702047696768304e-33, 0.0, 0.0, 0.0, 3.7532384145231864e-26, 3.871683574757117e-33, 8.321688281758801e-07, 0.0, 2.2669179503867488e-29, -3.49158653497345e-20, 0.0, 0.0, 0.0, 4.459427429097725e-06]
---
header: 
  seq: 6462
  stamp: 
    secs: 1518210108
    nsecs: 712532043
  frame_id: "swarmone/map"
child_frame_id: "swarmone/base_link"
pose: 
  pose: 
    position: 
      x: 0.353947110174
      y: 4.82970531085
      z: 0.0
    orientation: 
      x: 0.0
      y: 0.0
      z: 0.674288178679
      w: 0.738468314888
  covariance: [2.525698506681566, -0.13157609018954156, 0.0, 0.0, 0.0, 1.9014362966659302e-16, -0.1315760901895415, 1.2811706099253677, 0.0, 0.0, 0.0, 2.0977056045465268e-15, 0.0, 0.0, 6.958743405276847e-07, -2.797669514449442e-14, -1.716332536676896e-17, 0.0, 0.0, 0.0, -2.7976695144494412e-14, 6.958744064069462e-07, -1.5788541699068546e-24, 0.0, 0.0, 0.0, -1.7163325366768956e-17, -1.5788532521372465e-24, 6.958744064069488e-07, 0.0, 1.9014362966659302e-16, 2.0977056045465268e-15, 0.0, 0.0, 0.0, 9.040696517916973e-08]
twist: 
  twist: 
    linear: 
      x: 1.8644016791e-12
      y: -0.0338322708185
      z: 0.0
    angular: 
      x: 0.0
      y: 0.0
      z: 0.0399999999996
  covariance: [9.999999101932717e-10, 4.551383950941848e-13, 0.0, 0.0, 0.0, 2.1065402638503808e-36, 4.551383950941836e-13, 1.52636480664371, 0.0, 0.0, 0.0, -3.665774581942064e-27, 0.0, 0.0, 9.484041159625238e-07, -3.2030061635021635e-27, 3.49424479251636e-26, 0.0, 0.0, 0.0, -3.2030061635021624e-27, 6.958743405087479e-07, 1.6666312309654196e-33, 0.0, 0.0, 0.0, 3.494244792516359e-26, 1.8078820098711874e-33, 6.958743405087479e-07, 0.0, 2.1065402638503818e-36, -3.6657745819420745e-27, 0.0, 0.0, 0.0, 1.7891393431624976e-06]
---
header: 
  seq: 6463
  stamp: 
    secs: 1518210108
    nsecs: 818231106
  frame_id: "swarmone/map"
child_frame_id: "swarmone/base_link"
pose: 
  pose: 
    position: 
      x: 0.35802536844
      y: 4.85104552858
      z: 0.0
    orientation: 
      x: 0.0
      y: 0.0
      z: 0.674360403303
      w: 0.738402360815
  covariance: [2.110781848367257, -0.09995860084526119, 0.0, 0.0, 0.0, 1.4818004059326682e-12, -0.09995860084526115, 1.1643671920937417, 0.0, 0.0, 0.0, 1.594127173104825e-11, 0.0, 0.0, 9.984720511053457e-07, -3.58690949536835e-16, 5.994568899729156e-22, 0.0, 0.0, 0.0, -3.58690949536835e-16, 9.984720517004128e-07, 1.375891422307574e-28, 0.0, 0.0, 0.0, 5.994568899729155e-22, 1.3759103033586871e-28, 9.98472051700413e-07, 0.0, 1.4818004059326684e-12, 1.5941271731048246e-11, 0.0, 0.0, 0.0, 3.272282803255113e-05]
twist: 
  twist: 
    linear: 
      x: 1.40827772624e-06
      y: -0.0344124868497
      z: 0.0
    angular: 
      x: 0.0
      y: 0.0
      z: 0.0300000010082
  covariance: [0.0006572479528612043, 3.396821486485544e-07, 0.0, 0.0, 0.0, -7.623259931001433e-24, 3.396821486485534e-07, 1.3570326303796532, 0.0, 0.0, 0.0, 1.6798778518232894e-20, 0.0, 0.0, 9.998468570084947e-07, -1.7149715307875602e-28, 1.883744983549193e-27, 0.0, 0.0, 0.0, -1.7149715307875602e-28, 9.984720510112581e-07, 2.3569729930620603e-34, 0.0, 0.0, 0.0, 1.8837449835491935e-27, 2.3907079587498866e-34, 9.984720510112581e-07, 0.0, -7.623259931001434e-24, 1.6798778518232948e-20, 0.0, 0.0, 0.0, 0.0006544361577757781]
---
header: 
  seq: 6464
  stamp: 
    secs: 1518210108
    nsecs: 912524462
  frame_id: "swarmone/map"
child_frame_id: "swarmone/base_link"
pose: 
  pose: 
    position: 
      x: 0.361285742825
      y: 4.85075543668
      z: 0.0
    orientation: 
      x: 0.0
      y: 0.0
      z: 0.685289364787
      w: 0.728270888139
