header: 
  seq: 4558
  stamp: 
    secs: 1518209918
    nsecs: 312723398
  frame_id: "swarmone/odom"
child_frame_id: "swarmone/base_link"
pose: 
  pose: 
    position: 
      x: 0.519207790532
      y: 4.06266748535
      z: 0.0
    orientation: 
      x: 0.0
      y: 0.0
      z: 0.696136583252
      w: 0.717909365768
  covariance: [9746679227.948282, -573425645.2378607, 0.0, 0.0, 0.0, 5.30962051965936e-31, -573425645.2378615, 33960675.50653995, 0.0, 0.0, 0.0, -1.635682672953918e-32, 0.0, 0.0, 8.595874122532161e-07, 9.219821367755923e-37, 7.988967169997242e-30, 0.0, 0.0, 0.0, 9.219821367755924e-37, 7.680285763260731e-07, 3.078251477632288e-31, 0.0, 0.0, 0.0, 7.988967169997241e-30, -3.078251477632288e-31, 7.680285763260731e-07, 0.0, 5.30962051965936e-31, -1.635682672953918e-32, 0.0, 0.0, 0.0, 5.622910095057624e-06]
twist: 
  twist: 
    linear: 
      x: -1.9569948431e-24
      y: 0.0
      z: 0.0
    angular: 
      x: 0.0
      y: 0.0
      z: 2.13222916547e-05
  covariance: [9.999996264296621e-10, 0.0, 0.0, 0.0, 0.0, 0.0, 0.0, 315555.40938457067, 0.0, 0.0, 0.0, 0.0, 0.0, 0.0, 8.094467834031903e-07, 1.3690798369008604e-39, 4.217580667083401e-41, 0.0, 0.0, 0.0, 1.3690798369008608e-39, 5.896149955460861e-07, -1.2353652479775616e-34, 0.0, 0.0, 0.0, 4.217580667083403e-41, 1.2353652479775616e-34, 5.896149955460861e-07, 0.0, 0.0, 0.0, 0.0, 0.0, 0.0, 9.994669424439908e-10]
---
header: 
  seq: 4559
  stamp: 
    secs: 1518209918
    nsecs: 412184477
  frame_id: "swarmone/odom"
child_frame_id: "swarmone/base_link"
pose: 
  pose: 
    position: 
      x: 0.519207790532
      y: 4.06266748535
      z: 0.0
    orientation: 
      x: 0.0
      y: 0.0
      z: 0.696135977336
      w: 0.717909953308
  covariance: [9757361465.131783, -573898104.2509891, 0.0, 0.0, 0.0, 4.779865097827514e-31, -573898104.25099, 33979646.05444504, 0.0, 0.0, 0.0, -1.4724030861315382e-32, 0.0, 0.0, 7.821285677242785e-07, 5.684520787283517e-37, 8.961930278876693e-30, 0.0, 0.0, 0.0, 5.684520787283517e-37, 6.71578824929392e-07, -2.827738023242679e-31, 0.0, 0.0, 0.0, 8.961930278876696e-30, 2.827738023242679e-31, 6.71578824929392e-07, 0.0, 4.779865097827515e-31, -1.4724030861315382e-32, 0.0, 0.0, 0.0, 3.0909047849914007e-06]
twist: 
  twist: 
    linear: 
      x: -1.83767655894e-24
      y: 0.0
      z: 0.0
    angular: 
      x: 0.0
      y: 0.0
      z: 3.87608625142e-05
  covariance: [9.999996223517241e-10, 0.0, 0.0, 0.0, 0.0, 0.0, 0.0, 315762.0460112777, 0.0, 0.0, 0.0, 0.0, 0.0, 0.0, 7.190911555864051e-07, 8.272306939331766e-40, 2.5483672026140435e-41, 0.0, 0.0, 0.0, 8.272306939331767e-40, 5.036562963303672e-07, 9.605299264465971e-35, 0.0, 0.0, 0.0, 2.548367202614044e-41, -9.605299264465971e-35, 5.036562963303672e-07, 0.0, 0.0, 0.0, 0.0, 0.0, 0.0, 9.990309779500178e-10]
---
header: 
  seq: 4560
  stamp: 
    secs: 1518209918
    nsecs: 512776375
  frame_id: "swarmone/odom"
child_frame_id: "swarmone/base_link"
pose: 
  pose: 
    position: 
      x: 0.519207790532
      y: 4.06266748535
      z: 0.0
    orientation: 
      x: 0.0
      y: 0.0
      z: 0.69613546385
      w: 0.71791045122
  covariance: [9768174664.017908, -574376276.4070238, 0.0, 0.0, 0.0, 1.915796080476542e-31, -574376276.4070246, 33998844.79411286, 0.0, 0.0, 0.0, -5.901569201534677e-33, 0.0, 0.0, 5.908507943616042e-07, 1.462364011822909e-37, 7.542638190048554e-30, 0.0, 0.0, 0.0, 1.4623640118229092e-37, 4.928971606521777e-07, 5.65832282173534e-31, 0.0, 0.0, 0.0, 7.542638190048554e-30, -5.65832282173534e-31, 4.928971606521777e-07, 0.0, 1.915796080476542e-31, -5.9015692015346764e-33, 0.0, 0.0, 0.0, 9.451375730768073e-07]
twist: 
  twist: 
    linear: 
      x: -1.7244432412e-24
      y: 0.0
      z: 0.0
    angular: 
      x: 0.0
      y: 0.0
      z: 0.000126297437307
  covariance: [9.999996268552294e-10, 0.0, 0.0, 0.0, 0.0, 0.0, 0.0, 315971.12372003857, 0.0, 0.0, 0.0, 0.0, 0.0, 0.0, 5.303759693267844e-07, 1.3243420293575252e-40, 4.079773284815141e-42, 0.0, 0.0, 0.0, 1.324342029357526e-40, 3.965390095743331e-07, -7.48471759818783e-39, 0.0, 0.0, 0.0, 4.079773284815141e-42, 7.48471759818783e-39, 3.965390095743331e-07, 0.0, 0.0, 0.0, 0.0, 0.0, 0.0, 9.968425624991631e-10]
---
header: 
  seq: 4561
  stamp: 
    secs: 1518209918
    nsecs: 612196922
  frame_id: "swarmone/odom"
child_frame_id: "swarmone/base_link"
pose: 
  pose: 
    position: 
      x: 0.519207790532
      y: 4.06266748535
      z: 0.0
    orientation: 
      x: 0.0
      y: 0.0
      z: 0.696135484389
      w: 0.717910431303
  covariance: [9778871351.727093, -574849216.7854164, 0.0, 0.0, 0.0, 1.072660483451989e-31, -574849216.7854172, 34017832.18090287, 0.0, 0.0, 0.0, -3.304423820833699e-33, 0.0, 0.0, 6.047315769096114e-07, 1.5266314656731973e-37, 7.215286151315773e-30, 0.0, 0.0, 0.0, 1.5266314656731978e-37, 5.036977031613702e-07, -2.032508821919315e-31, 0.0, 0.0, 0.0, 7.215286151315776e-30, 2.032508821919315e-31, 5.036977031613702e-07, 0.0, 1.0726604834519887e-31, -3.304423820833699e-33, 0.0, 0.0, 0.0, 1.0309682615514035e-06]
twist: 
  twist: 
    linear: 
      x: -1.61934878322e-24
      y: 0.0
      z: 0.0
    angular: 
      x: 0.0
      y: 0.0
      z: 0.00011583360653
  covariance: [9.999996221884207e-10, 0.0, 0.0, 0.0, 0.0, 0.0, 0.0, 316177.8574737486, 0.0, 0.0, 0.0, 0.0, 0.0, 0.0, 5.426653548162609e-07, 1.4531189167015067e-40, 4.476484529568861e-42, 0.0, 0.0, 0.0, 1.4531189167015071e-40, 4.0170279084870093e-07, 1.4406308986386582e-35, 0.0, 0.0, 0.0, 4.476484529568862e-42, -1.4406308986386582e-35, 4.0170279084870093e-07, 0.0, 0.0, 0.0, 0.0, 0.0, 0.0, 9.971041583847437e-10]
---
header: 
  seq: 4562
  stamp: 
    secs: 1518209918
    nsecs: 712623835
  frame_id: "swarmone/odom"
child_frame_id: "swarmone/base_link"
pose: 
  pose: 
    position: 
      x: 0.519207790532
      y: 4.06266748535
      z: 0.0
    orientation: 
      x: 0.0
      y: 0.0
      z: 0.699716302288
      w: 0.714420811785
  covariance: [9789685813.08793, -575327267.4631417, 0.0, 0.0, 0.0, 9.982736287912813e-32, -575327267.4631425, 34037022.175409615, 0.0, 0.0, 0.0, -2.4255694529857177e-33, 0.0, 0.0, 5.932315684813974e-07, 8.87643938467821e-38, 6.67266028038444e-30, 0.0, 0.0, 0.0, 8.876439384678207e-38, 4.947297836237096e-07, -7.957887647581512e-32, 0.0, 0.0, 0.0, 6.67266028038444e-30, 7.957887647581512e-32, 4.947297836237096e-07, 0.0, 9.982736287912813e-32, -2.4255694529857184e-33, 0.0, 0.0, 0.0, 9.594426878225793e-07]
twist: 
  twist: 
    linear: 
      x: -1.51972371977e-24
      y: 0.0
      z: 0.0
    angular: 
      x: 0.0
      y: 0.0
      z: 0.000124424128151
  covariance: [9.999996262044963e-10, 0.0, 0.0, 0.0, 0.0, 0.0, 0.0, 316386.77537858847, 0.0, 0.0, 0.0, 0.0, 0.0, 0.0, 5.324698659062335e-07, 1.1987315135883994e-40, 2.4934795520003697e-42, 0.0, 0.0, 0.0, 1.1987315135883994e-40, 3.974058422106399e-07, -1.9295458735674575e-35, 0.0, 0.0, 0.0, 2.4934795520003694e-42, 1.9295458735674575e-35, 3.974058422106399e-07, 0.0, 0.0, 0.0, 0.0, 0.0, 0.0, 9.968893952517755e-10]
---
header: 
  seq: 4563
  stamp: 
    secs: 1518209918
    nsecs: 812222719
  frame_id: "swarmone/odom"
child_frame_id: "swarmone/base_link"
pose: 
  pose: 
    position: 
      x: 0.519207790532
      y: 4.06266748535
      z: 0.0
    orientation: 
      x: 0.0
      y: 0.0
      z: 0.696135467874
      w: 0.717910447318
  covariance: [9800423312.748566, -575748106.7257609, 0.0, 0.0, 0.0, 9.065215383463474e-32, -575748106.7257618, 34049883.73823489, 0.0, 0.0, 0.0, -2.490025536716294e-33, 0.0, 0.0, 5.932315113986765e-07, 1.2225790057846026e-37, 6.210503095372278e-30, 0.0, 0.0, 0.0, 1.2225790057846026e-37, 4.947296074594286e-07, 1.9250539865539846e-32, 0.0, 0.0, 0.0, 6.2105030953722796e-30, -1.9250539865539846e-32, 4.947296074594286e-07, 0.0, 9.065215383463473e-32, -2.4900255367162937e-33, 0.0, 0.0, 0.0, 9.594426878211976e-07]
twist: 
  twist: 
    linear: 
      x: -1.42695003114e-24
      y: 0.0
      z: 0.0
    angular: 
      x: 0.0
      y: 0.0
      z: 0.000124424127652
  covariance: [9.99999622906044e-10, 0.0, 0.0, 0.0, 0.0, 0.0, 0.0, 316594.0616147673, 0.0, 0.0, 0.0, 0.0, 0.0, 0.0, 5.324697527997432e-07, 1.1153723194133162e-40, 3.435868899511915e-42, 0.0, 0.0, 0.0, 1.1153723194133166e-40, 3.9740509142887993e-07, 2.40536921345339e-35, 0.0, 0.0, 0.0, 3.435868899511915e-42, -2.40536921345339e-35, 3.9740509142887993e-07, 0.0, 0.0, 0.0, 0.0, 0.0, 0.0, 9.968893952517354e-10]
---
header: 
  seq: 4564
  stamp: 
    secs: 1518209918
    nsecs: 912821531
  frame_id: "swarmone/odom"
child_frame_id: "swarmone/base_link"
pose: 
  pose: 
    position: 
      x: 0.519207790532
      y: 4.06266748535
      z: 0.0
    orientation: 
      x: 0.0
      y: 0.0
      z: 0.696135470696
      w: 0.717910444581
  covariance: [9811275358.965446, -576227619.3716244, 0.0, 0.0, 0.0, 8.682046171512412e-32, -576227619.3716252, 34069128.613639824, 0.0, 0.0, 0.0, -2.6745785284085167e-33, 0.0, 0.0, 5.955848191094919e-07, 1.1834458646632777e-37, 5.921841209131001e-30, 0.0, 0.0, 0.0, 1.1834458646632775e-37, 4.965492798696993e-07, -1.1268938591727863e-31, 0.0, 0.0, 0.0, 5.921841209131001e-30, 1.1268938591727863e-31, 4.965492798696993e-07, 0.0, 8.682046171512414e-32, -2.6745785284085164e-33, 0.0, 0.0, 0.0, 9.73747802568962e-07]
twist: 
  twist: 
    linear: 
      x: -1.33902045307e-24
      y: 0.0
      z: 0.0
    angular: 
      x: 0.0
      y: 0.0
      z: 0.00012260557866
  covariance: [9.9999962688259e-10, 0.0, 0.0, 0.0, 0.0, 0.0, 0.0, 316803.5207977462, 0.0, 0.0, 0.0, 0.0, 0.0, 0.0, 5.345452191026234e-07, 1.0890468506130682e-40, 3.354922973008971e-42, 0.0, 0.0, 0.0, 1.0890468506130686e-40, 3.9827049825203543e-07, 2.39324323974412e-35, 0.0, 0.0, 0.0, 3.354922973008973e-42, -2.3932432397441195e-35, 3.9827049825203543e-07, 0.0, 0.0, 0.0, 0.0, 0.0, 0.0, 9.969348590145596e-10]
---
header: 
  seq: 4565
  stamp: 
    secs: 1518209919
    nsecs:  11729956
  frame_id: "swarmone/odom"
child_frame_id: "swarmone/base_link"
pose: 
  pose: 
    position: 
      x: 0.519207790532
      y: 4.06266748535
      z: 0.0
    orientation: 
      x: 0.0
      y: 0.0
      z: 0.699716305686
      w: 0.714420808458
  covariance: [9821954412.902708, -576699392.794931, 0.0, 0.0, 0.0, 8.050950749370857e-32, -576699392.794932, 34088060.36316553, 0.0, 0.0, 0.0, -1.9431659754538415e-33, 0.0, 0.0, 5.955847033447909e-07, 7.376580927179723e-38, 5.463546149880397e-30, 0.0, 0.0, 0.0, 7.376580927179722e-38, 4.9654892121299e-07, 1.0832025292842333e-31, 0.0, 0.0, 0.0, 5.463546149880397e-30, -1.0832025292842333e-31, 4.9654892121299e-07, 0.0, 8.050950749370857e-32, -1.943165975453842e-33, 0.0, 0.0, 0.0, 9.73747802566131e-07]
twist: 
  twist: 
    linear: 
      x: -1.25780961989e-24
      y: 0.0
      z: 0.0
    angular: 
      x: 0.0
      y: 0.0
      z: 0.000122605577621
  covariance: [9.999996201130766e-10, 0.0, 0.0, 0.0, 0.0, 0.0, 0.0, 317009.55043543305, 0.0, 0.0, 0.0, 0.0, 0.0, 0.0, 5.345449891183193e-07, 1.005030018385487e-40, 2.0905040681599592e-42, 0.0, 0.0, 0.0, 1.0050300183854865e-40, 3.9826896278229266e-07, 3.860282635087352e-35, 0.0, 0.0, 0.0, 2.090504068159958e-42, -3.860282635087352e-35, 3.9826896278229266e-07, 0.0, 0.0, 0.0, 0.0, 0.0, 0.0, 9.969348590144798e-10]
---
header: 
  seq: 4566
  stamp: 
    secs: 1518209919
    nsecs: 112214327
  frame_id: "swarmone/odom"
child_frame_id: "swarmone/base_link"
pose: 
  pose: 
    position: 
      x: 0.519207790532
      y: 4.06266748535
      z: 0.0
    orientation: 
      x: 0.0
      y: 0.0
      z: 0.699716306288
      w: 0.714420807868
  covariance: [9832815929.73718, -577124787.795803, 0.0, 0.0, 0.0, 7.683844963150086e-32, -577124787.7958038, 34101057.14710062, 0.0, 0.0, 0.0, -1.598171426999509e-33, 0.0, 0.0, 5.955848113975114e-07, 7.036899963945172e-38, 5.2139704509002345e-30, 0.0, 0.0, 0.0, 7.036899963945171e-38, 4.96549256020485e-07, 3.8856844317119295e-32, 0.0, 0.0, 0.0, 5.213970450900235e-30, -3.8856844317119295e-32, 4.96549256020485e-07, 0.0, 7.683844963150086e-32, -1.598171426999509e-33, 0.0, 0.0, 0.0, 9.737478025687738e-07]
twist: 
  twist: 
    linear: 
      x: -1.18038658247e-24
      y: 0.0
      z: 0.0
    angular: 
      x: 0.0
      y: 0.0
      z: 0.000122605578588
  covariance: [9.999996264310644e-10, 0.0, 0.0, 0.0, 0.0, 0.0, 0.0, 317218.954278082, 0.0, 0.0, 0.0, 0.0, 0.0, 0.0, 5.345452037831522e-07, 9.591216745082769e-41, 1.994906659949201e-42, 0.0, 0.0, 0.0, 9.591216745082773e-41, 3.982703960006172e-07, -1.401342607223391e-35, 0.0, 0.0, 0.0, 1.9949066599492015e-42, 1.401342607223391e-35, 3.982703960006172e-07, 0.0, 0.0, 0.0, 0.0, 0.0, 0.0, 9.969348590145542e-10]
---
header: 
  seq: 4567
  stamp: 
    secs: 1518209919
    nsecs: 211730957
  frame_id: "swarmone/odom"
child_frame_id: "swarmone/base_link"
pose: 
  pose: 
    position: 
      x: 0.519207790532
      y: 4.06266748535
      z: 0.0
    orientation: 
      x: 0.0
      y: 0.0
      z: 0.696135478144
      w: 0.717910437359
  covariance: [9843582295.730165, -577546346.3170185, 0.0, 0.0, 0.0, 7.280121146292391e-32, -577546346.3170192, 34113936.16694103, 0.0, 0.0, 0.0, -2.004372400122799e-33, 0.0, 0.0, 6.002104754291418e-07, 1.0069308668197035e-37, 4.896089352220427e-30, 0.0, 0.0, 0.0, 1.0069308668197035e-37, 5.001489454356138e-07, -1.8667986030995236e-31, 0.0, 0.0, 0.0, 4.896089352220427e-30, 1.8667986030995236e-31, 5.001489454356138e-07, 0.0, 7.280121146292391e-32, -2.0043724001227994e-33, 0.0, 0.0, 0.0, 1.0023580320593632e-06]
twist: 
  twist: 
    linear: 
      x: -1.10838477244e-24
      y: 0.0
      z: 0.0
    angular: 
      x: 0.0
      y: 0.0
      z: 0.000119123426055
  covariance: [9.999996225750968e-10, 0.0, 0.0, 0.0, 0.0, 0.0, 0.0, 317426.43227124005, 0.0, 0.0, 0.0, 0.0, 0.0, 0.0, 5.386409483281681e-07, 9.429896445678342e-41, 2.904931286585688e-42, 0.0, 0.0, 0.0, 9.429896445678342e-41, 3.999911110595998e-07, -4.8555178160002815e-36, 0.0, 0.0, 0.0, 2.904931286585689e-42, 4.8555178160002815e-36, 3.999911110595998e-07, 0.0, 0.0, 0.0, 0.0, 0.0, 0.0, 9.970219128566845e-10]
---
header: 
  seq: 4568
  stamp: 
    secs: 1518209919
    nsecs: 312192440
  frame_id: "swarmone/odom"
child_frame_id: "swarmone/base_link"
pose: 
  pose: 
    position: 
      x: 0.519207790532
      y: 4.06266748535
      z: 0.0
    orientation: 
      x: 0.0
      y: 0.0
      z: 0.692537242672
      w: 0.721382123089
  covariance: [9854457624.023651, -578026480.5563562, 0.0, 0.0, 0.0, 7.031318042204377e-32, -578026480.5563569, 34133197.7263712, 0.0, 0.0, 0.0, -2.637458110904649e-33, 0.0, 0.0, 6.024839462321436e-07, 1.2886894919815208e-37, 4.663942986308995e-30, 0.0, 0.0, 0.0, 1.2886894919815204e-37, 5.019298507780689e-07, 3.4256687994012237e-32, 0.0, 0.0, 0.0, 4.663942986308995e-30, -3.4256687994012237e-32, 5.019298507780689e-07, 0.0, 7.031318042204378e-32, -2.637458110904649e-33, 0.0, 0.0, 0.0, 1.0166631468070406e-06]
twist: 
  twist: 
    linear: 
      x: -1.04017363782e-24
      y: 0.0
      z: 0.0
    angular: 
      x: 0.0
      y: 0.0
      z: 0.000117455485181
  covariance: [9.999996263408339e-10, 0.0, 0.0, 0.0, 0.0, 0.0, 0.0, 317635.97188931843, 0.0, 0.0, 0.0, 0.0, 0.0, 0.0, 5.406620972066461e-07, 9.184198373932818e-41, 3.74886308454922e-42, 0.0, 0.0, 0.0, 9.184198373932826e-41, 4.00849064127192e-07, -9.65748996459042e-35, 0.0, 0.0, 0.0, 3.748863084549221e-42, 9.65748996459042e-35, 4.00849064127192e-07, 0.0, 0.0, 0.0, 0.0, 0.0, 0.0, 9.970636114131411e-10]
---
header: 
  seq: 4569
  stamp: 
    secs: 1518209919
    nsecs: 412208557
  frame_id: "swarmone/odom"
child_frame_id: "swarmone/base_link"
pose: 
  pose: 
    position: 
      x: 0.519207790532
      y: 4.06266748535
      z: 0.0
    orientation: 
      x: 0.0
      y: 0.0
      z: 0.692537238634
      w: 0.721382126965
  covariance: [9865290392.122934, -578558888.4115152, 0.0, 0.0, 0.0, 6.537589628140891e-32, -578558888.4115158, 34158612.85889319, 0.0, 0.0, 0.0, -2.668562107840649e-33, 0.0, 0.0, 6.002105088560873e-07, 1.1814705097949703e-37, 4.3361645160593154e-30, 0.0, 0.0, 0.0, 1.1814705097949701e-37, 5.001490498650132e-07, -1.7284541256347895e-31, 0.0, 0.0, 0.0, 4.3361645160593154e-30, 1.7284541256347895e-31, 5.001490498650132e-07, 0.0, 6.537589628140891e-32, -2.668562107840649e-33, 0.0, 0.0, 0.0, 1.002358032060201e-06]
twist: 
  twist: 
    linear: 
      x: -9.76425424842e-25
      y: 0.0
      z: 0.0
    angular: 
      x: 0.0
      y: 0.0
      z: 0.000119123426345
  covariance: [9.999996245750018e-10, 0.0, 0.0, 0.0, 0.0, 0.0, 0.0, 317844.674159047, 0.0, 0.0, 0.0, 0.0, 0.0, 0.0, 5.386410150963704e-07, 8.348675420118387e-41, 3.4078415580834076e-42, 0.0, 0.0, 0.0, 8.348675420118387e-41, 3.999915622917448e-07, -2.8975591028228236e-35, 0.0, 0.0, 0.0, 3.4078415580834063e-42, 2.8975591028228236e-35, 3.999915622917448e-07, 0.0, 0.0, 0.0, 0.0, 0.0, 0.0, 9.970219128567069e-10]
---
header: 
  seq: 4570
  stamp: 
    secs: 1518209919
    nsecs: 512820721
  frame_id: "swarmone/odom"
child_frame_id: "swarmone/base_link"
pose: 
  pose: 
    position: 
      x: 0.519207790532
      y: 4.06266748535
      z: 0.0
    orientation: 
      x: 0.0
      y: 0.0
      z: 0.692537228315
      w: 0.721382136872
  covariance: [9876197315.60434, -579094884.5395417, 0.0, 0.0, 0.0, 5.968788371957064e-32, -579094884.5395422, 34184197.37509882, 0.0, 0.0, 0.0, -2.4363845636511865e-33, 0.0, 0.0, 5.932315811155094e-07, 1.0512956025411217e-37, 4.030863196306532e-30, 0.0, 0.0, 0.0, 1.0512956025411217e-37, 4.947298224903551e-07, 1.3693301508329743e-31, 0.0, 0.0, 0.0, 4.030863196306532e-30, -1.3693301508329743e-31, 4.947298224903551e-07, 0.0, 5.968788371957064e-32, -2.436384563651186e-33, 0.0, 0.0, 0.0, 9.59442687822884e-07]
twist: 
  twist: 
    linear: 
      x: -9.16249391284e-25
      y: 0.0
      z: 0.0
    angular: 
      x: 0.0
      y: 0.0
      z: 0.000124424128269
  covariance: [9.999996269353776e-10, 0.0, 0.0, 0.0, 0.0, 0.0, 0.0, 318054.71240891004, 0.0, 0.0, 0.0, 0.0, 0.0, 0.0, 5.324698909347814e-07, 7.236796635731811e-41, 2.953984177132772e-42, 0.0, 0.0, 0.0, 7.236796635731812e-41, 3.9740600824911147e-07, -3.8160809978962406e-35, 0.0, 0.0, 0.0, 2.953984177132772e-42, 3.8160809978962406e-35, 3.9740600824911147e-07, 0.0, 0.0, 0.0, 0.0, 0.0, 0.0, 9.968893952517844e-10]
---
header: 
  seq: 4571
  stamp: 
    secs: 1518209919
    nsecs: 612316370
  frame_id: "swarmone/odom"
child_frame_id: "swarmone/base_link"
pose: 
  pose: 
    position: 
      x: 0.519207790532
      y: 4.06266748535
      z: 0.0
    orientation: 
      x: 0.0
      y: 0.0
      z: 0.692537248954
      w: 0.721382117059
  covariance: [9886992675.226679, -579625342.6657295, 0.0, 0.0, 0.0, 5.783046920788875e-32, -579625342.6657299, 34209515.67303536, 0.0, 0.0, 0.0, -2.3605688560663236e-33, 0.0, 0.0, 6.069540054197421e-07, 1.0951599214363053e-37, 3.854324974883327e-30, 0.0, 0.0, 0.0, 1.0951599214363053e-37, 5.054532780403586e-07, -3.3020747235410645e-32, 0.0, 0.0, 0.0, 3.854324974883327e-30, 3.3020747235410645e-32, 5.054532780403586e-07, 0.0, 5.783046920788876e-32, -2.3605688560663236e-33, 0.0, 0.0, 0.0, 1.0452733762976319e-06]
twist: 
  twist: 
    linear: 
      x: -8.60369120201e-25
      y: 0.0
      z: 0.0
    angular: 
      x: 0.0
      y: 0.0
      z: 0.000114255909684
  covariance: [9.999996224913142e-10, 0.0, 0.0, 0.0, 0.0, 0.0, 0.0, 318262.51079849247, 0.0, 0.0, 0.0, 0.0, 0.0, 0.0, 5.446513600477731e-07, 7.930535425637524e-41, 3.2371608942254475e-42, 0.0, 0.0, 0.0, 7.930535425637524e-41, 4.025550847768765e-07, 9.674736771069839e-38, 0.0, 0.0, 0.0, 3.237160894225447e-42, -9.674736771069839e-38, 4.025550847768765e-07, 0.0, 0.0, 0.0, 0.0, 0.0, 0.0, 9.971436008266678e-10]
---
header: 
  seq: 4572
  stamp: 
    secs: 1518209919
    nsecs: 712573528
  frame_id: "swarmone/odom"
child_frame_id: "swarmone/base_link"
pose: 
  pose: 
    position: 
      x: 0.519207790532
      y: 4.06266748535
      z: 0.0
    orientation: 
      x: 0.0
      y: 0.0
      z: 0.699716301693
      w: 0.714420812368
  covariance: [9897880194.6897, -580160255.679377, 0.0, 0.0, 0.0, 5.319926922437737e-32, -580160255.6793773, 34235043.51403822, 0.0, 0.0, 0.0, -1.4821080378833788e-33, 0.0, 0.0, 5.932315568610008e-07, 4.709849128278347e-38, 3.539229024579811e-30, 0.0, 0.0, 0.0, 4.709849128278348e-38, 4.947297477794766e-07, 1.160376697247777e-31, 0.0, 0.0, 0.0, 3.53922902457981e-30, -1.160376697247777e-31, 4.947297477794766e-07, 0.0, 5.319926922437737e-32, -1.4821080378833788e-33, 0.0, 0.0, 0.0, 9.594426878222988e-07]
twist: 
  twist: 
    linear: 
      x: -8.07520960037e-25
      y: 0.0
      z: 0.0
    angular: 
      x: 0.0
      y: 0.0
      z: 0.000124424128044
  covariance: [9.999996255330072e-10, 0.0, 0.0, 0.0, 0.0, 0.0, 0.0, 318471.9911445967, 0.0, 0.0, 0.0, 0.0, 0.0, 0.0, 5.324698428844757e-07, 6.358213264240126e-41, 1.3226861468096006e-42, 0.0, 0.0, 0.0, 6.358213264240124e-41, 3.9740568945964686e-07, -2.37566196513318e-35, 0.0, 0.0, 0.0, 1.3226861468095997e-42, 2.3756619651331795e-35, 3.9740568945964686e-07, 0.0, 0.0, 0.0, 0.0, 0.0, 0.0, 9.968893952517675e-10]
---
header: 
  seq: 4573
  stamp: 
    secs: 1518209919
    nsecs: 812196493
  frame_id: "swarmone/odom"
child_frame_id: "swarmone/base_link"
pose: 
  pose: 
    position: 
      x: 0.519207790532
      y: 4.06266748535
      z: 0.0
    orientation: 
      x: 0.0
      y: 0.0
      z: 0.696135478143
      w: 0.71791043736
  covariance: [9908715003.64695, -580584063.8446485, 0.0, 0.0, 0.0, 4.961809251316776e-32, -580584063.844649, 34247986.51289673, 0.0, 0.0, 0.0, -1.3677052232789318e-33, 0.0, 0.0, 6.002104825691096e-07, 6.895971723602878e-38, 3.353070496505569e-30, 0.0, 0.0, 0.0, 6.895971723602877e-38, 5.001489677470502e-07, -1.7419281711193375e-31, 0.0, 0.0, 0.0, 3.353070496505569e-30, 1.7419281711193375e-31, 5.001489677470502e-07, 0.0, 4.961809251316775e-32, -1.367705223278932e-33, 0.0, 0.0, 0.0, 1.0023580320595417e-06]
twist: 
  twist: 
    linear: 
      x: -7.58213173334e-25
      y: 0.0
      z: 0.0
    angular: 
      x: 0.0
      y: 0.0
      z: 0.000119123426121
  covariance: [9.99999623002924e-10, 0.0, 0.0, 0.0, 0.0, 0.0, 0.0, 318680.23741841654, 0.0, 0.0, 0.0, 0.0, 0.0, 0.0, 5.386409625870336e-07, 6.457988116337499e-41, 1.9894219217959377e-42, 0.0, 0.0, 0.0, 6.457988116337495e-41, 3.999912073724932e-07, -9.151696149721531e-35, 0.0, 0.0, 0.0, 1.9894219217959358e-42, 9.151696149721531e-35, 3.999912073724932e-07, 0.0, 0.0, 0.0, 0.0, 0.0, 0.0, 9.970219128566893e-10]
---
header: 
  seq: 4574
  stamp: 
    secs: 1518209919
    nsecs: 911718130
  frame_id: "swarmone/odom"
child_frame_id: "swarmone/base_link"
pose: 
  pose: 
    position: 
      x: 0.519207790532
      y: 4.06266748535
      z: 0.0
    orientation: 
      x: 0.0
      y: 0.0
      z: 0.699716309096
      w: 0.714420805118
  covariance: [9919545455.431545, -581061769.3343223, 0.0, 0.0, 0.0, 4.67696540444761e-32, -581061769.3343229, 34267140.055294685, 0.0, 0.0, 0.0, -1.130322000904328e-33, 0.0, 0.0, 5.979109142245781e-07, 4.286784609635515e-38, 3.1292233351516086e-30, 0.0, 0.0, 0.0, 4.286784609635513e-38, 4.983554579578366e-07, -9.339325031590207e-32, 0.0, 0.0, 0.0, 3.1292233351516072e-30, 9.339325031590207e-32, 4.983554579578366e-07, 0.0, 4.6769654044476104e-32, -1.130322000904328e-33, 0.0, 0.0, 0.0, 9.880529173132712e-07]
twist: 
  twist: 
    linear: 
      x: -7.11961008147e-25
      y: 0.0
      z: 0.0
    angular: 
      x: 0.0
      y: 0.0
      z: 0.000120839421496
  covariance: [9.999996225952997e-10, 0.0, 0.0, 0.0, 0.0, 0.0, 0.0, 318888.36250535556, 0.0, 0.0, 0.0, 0.0, 0.0, 0.0, 5.366020617070497e-07, 5.892049331912693e-41, 1.2255592872467452e-42, 0.0, 0.0, 0.0, 5.892049331912694e-41, 3.9913155404183244e-07, -1.4915145453995385e-35, 0.0, 0.0, 0.0, 1.2255592872467447e-42, 1.4915145453995385e-35, 3.9913155404183244e-07, 0.0, 0.0, 0.0, 0.0, 0.0, 0.0, 9.969790129491133e-10]
---
header: 
  seq: 4575
  stamp: 
    secs: 1518209920
    nsecs:  12236357
  frame_id: "swarmone/odom"
child_frame_id: "swarmone/base_link"
pose: 
  pose: 
    position: 
      x: 0.519207790532
      y: 4.06266748535
      z: 0.0
    orientation: 
      x: 0.0
      y: 0.0
      z: 0.696135474715
      w: 0.717910440684
  covariance: [9930496783.881084, -581489926.5601143, 0.0, 0.0, 0.0, 4.4139612521157447e-32, -581489926.5601149, 34280213.541739136, 0.0, 0.0, 0.0, -1.2124262361672244e-33, 0.0, 0.0, 5.979109813294793e-07, 6.016372539778931e-38, 2.9677637749886944e-30, 0.0, 0.0, 0.0, 6.016372539778933e-38, 4.983556667450959e-07, -3.9571886557461406e-32, 0.0, 0.0, 0.0, 2.9677637749886937e-30, 3.9571886557461406e-32, 4.983556667450959e-07, 0.0, 4.413961252115745e-32, -1.2124262361672246e-33, 0.0, 0.0, 0.0, 9.880529173149312e-07]
twist: 
  twist: 
    linear: 
      x: -6.68122882901e-25
      y: 0.0
      z: 0.0
    angular: 
      x: 0.0
      y: 0.0
      z: 0.000120839422097
  covariance: [9.999996265648038e-10, 0.0, 0.0, 0.0, 0.0, 0.0, 0.0, 319098.6636773909, 0.0, 0.0, 0.0, 0.0, 0.0, 0.0, 5.366021953781077e-07, 5.586559206516743e-41, 1.720950808171391e-42, 0.0, 0.0, 0.0, 5.58655920651674e-41, 3.991324518356828e-07, 3.368847472711772e-35, 0.0, 0.0, 0.0, 1.7209508081713905e-42, -3.368847472711772e-35, 3.991324518356828e-07, 0.0, 0.0, 0.0, 0.0, 0.0, 0.0, 9.969790129491586e-10]
---
header: 
  seq: 4576
  stamp: 
    secs: 1518209920
    nsecs: 112531424
  frame_id: "swarmone/odom"
child_frame_id: "swarmone/base_link"
pose: 
  pose: 
    position: 
      x: 0.519207790532
      y: 4.06266748535
      z: 0.0
    orientation: 
      x: 0.0
      y: 0.0
      z: 0.699716414705
      w: 0.714420701683
  covariance: [9941430601.93187, -581971978.6752373, 0.0, 0.0, 0.0, 5.370879243539951e-32, -581971978.6752379, 34299536.57982266, 0.0, 0.0, 0.0, -1.2550049624010173e-33, 0.0, 0.0, 6.587578018538823e-07, 6.102691621053801e-38, 3.0756027371981614e-30, 0.0, 0.0, 0.0, 6.102691621053802e-38, 5.485681143793336e-07, 6.822993659450772e-33, 0.0, 0.0, 0.0, 3.0756027371981617e-30, -6.822993659450772e-33, 5.485681143793336e-07, 0.0, 5.370879243539951e-32, -1.2550049624010173e-33, 0.0, 0.0, 0.0, 1.4315114744437537e-06]
twist: 
  twist: 
    linear: 
      x: -6.27068882945e-25
      y: 0.0
      z: 0.0
    angular: 
      x: 0.0
      y: 0.0
      z: 8.35356644128e-05
  covariance: [9.99999625683247e-10, 0.0, 0.0, 0.0, 0.0, 0.0, 0.0, 319308.59009432694, 0.0, 0.0, 0.0, 0.0, 0.0, 0.0, 5.924375984187368e-07, 1.0237340357400388e-40, 2.1289118567410516e-42, 0.0, 0.0, 0.0, 1.023734035740039e-40, 4.2468210822235603e-07, 2.415143803284632e-35, 0.0, 0.0, 0.0, 2.1289118567410513e-42, -2.415143803284632e-35, 4.2468210822235603e-07, 0.0, 0.0, 0.0, 0.0, 0.0, 0.0, 9.979116073514554e-10]
---
header: 
  seq: 4577
  stamp: 
    secs: 1518209920
    nsecs: 212400675
  frame_id: "swarmone/odom"
child_frame_id: "swarmone/base_link"
pose: 
  pose: 
    position: 
      x: 0.519207790532
      y: 4.06266748535
      z: 0.0
    orientation: 
      x: 0.0
      y: 0.0
      z: 0.699716302881
      w: 0.714420811205
  covariance: [9952330365.29943, -582397901.5141419, 0.0, 0.0, 0.0, 4.366715519960258e-32, -582397901.5141424, 34312538.65387773, 0.0, 0.0, 0.0, -9.082296515393547e-34, 0.0, 0.0, 5.932315302131716e-07, 3.416308623280967e-38, 2.5695482611508655e-30, 0.0, 0.0, 0.0, 3.416308623280966e-38, 4.94729665693572e-07, 2.3156016196170222e-31, 0.0, 0.0, 0.0, 2.5695482611508648e-30, -2.3156016196170222e-31, 4.94729665693572e-07, 0.0, 4.366715519960258e-32, -9.082296515393547e-34, 0.0, 0.0, 0.0, 9.594426878216637e-07]
twist: 
  twist: 
    linear: 
      x: -5.88690532972e-25
      y: 0.0
      z: 0.0
    angular: 
      x: 0.0
      y: 0.0
      z: 0.000124424127757
  covariance: [9.999996239894177e-10, 0.0, 0.0, 0.0, 0.0, 0.0, 0.0, 319517.71670714027, 0.0, 0.0, 0.0, 0.0, 0.0, 0.0, 5.324697901325053e-07, 4.617279354664709e-41, 9.60362109009186e-43, 0.0, 0.0, 0.0, 4.617279354664709e-41, 3.9740534029343126e-07, -2.9144392337455374e-35, 0.0, 0.0, 0.0, 9.603621090091861e-43, 2.9144392337455374e-35, 3.9740534029343126e-07, 0.0, 0.0, 0.0, 0.0, 0.0, 0.0, 9.968893952517484e-10]
---
header: 
  seq: 4578
  stamp: 
    secs: 1518209920
    nsecs: 312249184
  frame_id: "swarmone/odom"
child_frame_id: "swarmone/base_link"
pose: 
  pose: 
    position: 
      x: 0.519207790532
      y: 4.06266748535
      z: 0.0
    orientation: 
      x: 0.0
      y: 0.0
      z: 0.696135474719
      w: 0.71791044068
  covariance: [9963237405.439774, -582823999.9838738, 0.0, 0.0, 0.0, 3.5903869726012937e-32, -582823999.9838744, 34325545.66753967, 0.0, 0.0, 0.0, -9.885422634551522e-34, 0.0, 0.0, 5.979109363748931e-07, 4.941590956232235e-38, 2.4375659915316056e-30, 0.0, 0.0, 0.0, 4.941590956232236e-38, 4.983555268346703e-07, 5.25364257001611e-32, 0.0, 0.0, 0.0, 2.437565991531606e-30, -5.25364257001611e-32, 4.983555268346703e-07, 0.0, 3.5903869726012937e-32, -9.88542263455152e-34, 0.0, 0.0, 0.0, 9.880529173138182e-07]
twist: 
  twist: 
    linear: 
      x: -5.5266844639e-25
      y: 0.0
      z: 0.0
    angular: 
      x: 0.0
      y: 0.0
      z: 0.000120839421702
  covariance: [9.99999623906389e-10, 0.0, 0.0, 0.0, 0.0, 0.0, 0.0, 319726.89114764804, 0.0, 0.0, 0.0, 0.0, 0.0, 0.0, 5.366021058252918e-07, 4.588435143974991e-41, 1.413482025959494e-42, 0.0, 0.0, 0.0, 4.5884351439749904e-41, 3.9913185027511565e-07, 9.839413522810416e-36, 0.0, 0.0, 0.0, 1.4134820259594941e-42, -9.839413522810437e-36, 3.9913185027511565e-07, 0.0, 0.0, 0.0, 0.0, 0.0, 0.0, 9.969790129491282e-10]
---
header: 
  seq: 4579
  stamp: 
    secs: 1518209920
    nsecs: 412622213
  frame_id: "swarmone/odom"
child_frame_id: "swarmone/base_link"
pose: 
  pose: 
    position: 
      x: 0.519207790532
      y: 4.06266748535
      z: 0.0
    orientation: 
      x: 0.0
      y: 0.0
      z: 0.710353511027
      w: 0.703845074836
  covariance: [9974208533.21077, -583307343.8111857, 0.0, 0.0, 0.0, 3.521296431808165e-32, -583307343.8111862, 34344911.58328321, 0.0, 0.0, 0.0, -1.3239203704104741e-34, 0.0, 0.0, 6.047316390510666e-07, -1.471859002925907e-38, 2.3345921998625534e-30, 0.0, 0.0, 0.0, -1.4718590029259066e-38, 5.036978991276507e-07, 3.551954380559174e-32, 0.0, 0.0, 0.0, 2.3345921998625534e-30, -3.551954380559174e-32, 5.036978991276507e-07, 0.0, 3.521296431808165e-32, -1.3239203704104741e-34, 0.0, 0.0, 0.0, 1.0309682615529955e-06]
twist: 
  twist: 
    linear: 
      x: -5.18684016799e-25
      y: 0.0
      z: 0.0
    angular: 
      x: 0.0
      y: 0.0
      z: 0.000115833607072
  covariance: [9.999996259918273e-10, 0.0, 0.0, 0.0, 0.0, 0.0, 0.0, 319937.25640971155, 0.0, 0.0, 0.0, 0.0, 0.0, 0.0, 5.426654795855722e-07, 4.703875874678843e-41, -4.329387983623187e-43, 0.0, 0.0, 0.0, 4.703875874678842e-41, 4.017036439960937e-07, -2.434561603192456e-35, 0.0, 0.0, 0.0, -4.3293879836231854e-43, 2.434561603192456e-35, 4.017036439960937e-07, 0.0, 0.0, 0.0, 0.0, 0.0, 0.0, 9.97104158384784e-10]
---
header: 
  seq: 4580
  stamp: 
    secs: 1518209920
    nsecs: 512860537
  frame_id: "swarmone/odom"
child_frame_id: "swarmone/base_link"
pose: 
  pose: 
    position: 
      x: 0.519207790532
      y: 4.06266748535
      z: 0.0
    orientation: 
      x: 0.0
      y: 0.0
      z: 0.699716357288
      w: 0.714420757918
  covariance: [9985179304.37636, -583571112.327955, 0.0, 0.0, 0.0, 3.1610122140793277e-32, -583571112.3279555, 34339129.75356313, 0.0, 0.0, 0.0, -3.225359117005024e-34, 0.0, 0.0, 5.908507696981781e-07, 3.469803012525655e-38, 2.1213965932900108e-30, 0.0, 0.0, 0.0, 3.4698030125256557e-38, 4.928971248335087e-07, -4.148051078806649e-31, 0.0, 0.0, 0.0, 2.1213965932900115e-30, 4.148051078806649e-31, 4.928971248335087e-07, 0.0, 3.1610122140793277e-32, -3.2253591170050238e-34, 0.0, 0.0, 0.0, 9.451375730761664e-07]
twist: 
  twist: 
    linear: 
      x: -4.86829070615e-25
      y: 0.0
      z: 0.0
    angular: 
      x: 0.0
      y: 0.0
      z: 0.000157871796465
  covariance: [9.99999625458634e-10, 0.0, 0.0, 0.0, 0.0, 0.0, 0.0, 320147.43141807115, 0.0, 0.0, 0.0, 0.0, 0.0, 0.0, 5.303759203962227e-07, 3.7201984179486374e-41, 7.735480381154689e-43, 0.0, 0.0, 0.0, 3.7201984179486374e-41, 3.9653868164436375e-07, 5.0284976973285665e-36, 0.0, 0.0, 0.0, 7.735480381154687e-43, -5.0284976973285665e-36, 3.9653868164436375e-07, 0.0, 0.0, 0.0, 0.0, 0.0, 0.0, 9.96842562499146e-10]
---
header: 
  seq: 4581
  stamp: 
    secs: 1518209920
    nsecs: 612622738
  frame_id: "swarmone/odom"
child_frame_id: "swarmone/base_link"
pose: 
  pose: 
    position: 
      x: 0.519207790532
      y: 4.06266748535
      z: 0.0
    orientation: 
      x: 0.0
      y: 0.0
      z: 0.696142509488
      w: 0.717903619216
  covariance: [9996105618.851189, -583997808.2075189, 0.0, 0.0, 0.0, 6.225208751944141e-31, -583997808.2075194, 34352172.79496226, 0.0, 0.0, 0.0, -1.9082237217122912e-32, 0.0, 0.0, 9.686363281290984e-07, 3.593151698092836e-37, 5.761020089621354e-31, 0.0, 0.0, 0.0, 3.5931516980928366e-37, 9.400909477833613e-07, -5.939298524858775e-32, 0.0, 0.0, 0.0, 5.761020089621355e-31, 5.939298524858775e-32, 9.400909477833613e-07, 0.0, 6.225208751944141e-31, -1.908223721712291e-32, 0.0, 0.0, 0.0, 3.0385063720791652e-05]
twist: 
  twist: 
    linear: 
      x: -4.57063592599e-25
      y: 0.0
      z: 0.0
    angular: 
      x: 0.0
      y: 0.0
      z: 3.94865706428e-06
  covariance: [9.999996235615124e-10, 0.0, 0.0, 0.0, 0.0, 0.0, 0.0, 320356.69948888815, 0.0, 0.0, 0.0, 0.0, 0.0, 0.0, 9.540356253219725e-07, 2.5824846303724396e-40, 7.95654273013746e-42, 0.0, 0.0, 0.0, 2.582484630372441e-40, 8.476482752181347e-07, 2.2858174313430457e-34, 0.0, 0.0, 0.0, 7.956542730137459e-42, -2.2858174313430457e-34, 8.476482752181347e-07, 0.0, 0.0, 0.0, 0.0, 0.0, 0.0, 9.999012835238611e-10]
---
header: 
  seq: 4582
  stamp: 
    secs: 1518209920
    nsecs: 712220430
  frame_id: "swarmone/odom"
child_frame_id: "swarmone/base_link"
pose: 
  pose: 
    position: 
      x: 0.519207790532
      y: 4.06266748535
      z: 0.0
    orientation: 
      x: 0.0
      y: 0.0
      z: 0.699716354912
      w: 0.714420760245
  covariance: [10007020644.679071, -584478180.0719285, 0.0, 0.0, 0.0, 3.0442544570672686e-31, -584478180.071929, 34371404.72136857, 0.0, 0.0, 0.0, -9.193195746548038e-33, 0.0, 0.0, 5.90850725373141e-07, 3.039167839028111e-38, 1.8574585121894762e-30, 0.0, 0.0, 0.0, 3.03916783902811e-38, 4.928969905442056e-07, -1.088580497807774e-31, 0.0, 0.0, 0.0, 1.8574585121894762e-30, 1.088580497807774e-31, 4.928969905442056e-07, 0.0, 3.044254457067268e-31, -9.193195746548037e-33, 0.0, 0.0, 0.0, 9.451375730759149e-07]
twist: 
  twist: 
    linear: 
      x: -4.29154267314e-25
      y: 0.0
      z: 0.0
    angular: 
      x: 0.0
      y: 0.0
      z: 0.000157871795783
  covariance: [9.999996229005835e-10, 0.0, 0.0, 0.0, 0.0, 0.0, 0.0, 320565.7134242623, 0.0, 0.0, 0.0, 0.0, 0.0, 0.0, 5.303758334073777e-07, 3.2939743820339733e-41, 6.8868988234085485e-43, 0.0, 0.0, 0.0, 3.2939743820339733e-41, 3.9653813915911286e-07, 4.837859518307003e-35, 0.0, 0.0, 0.0, 6.88689882340855e-43, -4.837859518307002e-35, 3.9653813915911286e-07, 0.0, 0.0, 0.0, 0.0, 0.0, 0.0, 9.968425624991137e-10]
---
header: 
  seq: 4583
  stamp: 
    secs: 1518209920
    nsecs: 813058615
  frame_id: "swarmone/odom"
child_frame_id: "swarmone/base_link"
pose: 
  pose: 
    position: 
      x: 0.519207790532
      y: 4.06266748535
      z: 0.0
    orientation: 
      x: 0.0
      y: 0.0
      z: 0.696135580833
      w: 0.717910337785
  covariance: [10018084162.683304, -584909756.8850272, 0.0, 0.0, 0.0, 3.429461267374942e-32, -584909756.8850276, 34384572.167351194, 0.0, 0.0, 0.0, -9.712594772451763e-34, 0.0, 0.0, 6.587578279068293e-07, 5.834480214544209e-38, 1.9862464307721576e-30, 0.0, 0.0, 0.0, 5.834480214544209e-38, 5.485682054812414e-07, 1.9803091106181694e-31, 0.0, 0.0, 0.0, 1.9862464307721565e-30, -1.9803091106181694e-31, 5.485682054812414e-07, 0.0, 3.429461267374942e-32, -9.712594772451763e-34, 0.0, 0.0, 0.0, 1.4315114744446477e-06]
twist: 
  twist: 
    linear: 
      x: -4.02651111822e-25
      y: 0.0
      z: 0.0
    angular: 
      x: 0.0
      y: 0.0
      z: 8.35356646744e-05
  covariance: [9.99999627822283e-10, 0.0, 0.0, 0.0, 0.0, 0.0, 0.0, 320777.4232331555, 0.0, 0.0, 0.0, 0.0, 0.0, 0.0, 5.92437654152064e-07, 6.609614356647701e-41, 2.036410083954297e-42, 0.0, 0.0, 0.0, 6.609614356647699e-41, 4.246825517981169e-07, 4.814540958839544e-35, 0.0, 0.0, 0.0, 2.0364100839542964e-42, -4.814540958839544e-35, 4.246825517981169e-07, 0.0, 0.0, 0.0, 0.0, 0.0, 0.0, 9.979116073514672e-10]
---
header: 
  seq: 4584
  stamp: 
    secs: 1518209920
    nsecs: 912322044
  frame_id: "swarmone/odom"
child_frame_id: "swarmone/base_link"
pose: 
  pose: 
    position: 
      x: 0.519207790532
      y: 4.06266748535
      z: 0.0
    orientation: 
      x: 0.0
      y: 0.0
      z: 0.696135573393
      w: 0.717910344999
  covariance: [10028981634.370905, -585389263.5267503, 0.0, 0.0, 0.0, 3.524137866860886e-32, -585389263.5267507, 34403773.474602684, 0.0, 0.0, 0.0, -1.0856368724581595e-33, 0.0, 0.0, 6.553933503627253e-07, 5.260135967165305e-38, 1.8273202310250033e-30, 0.0, 0.0, 0.0, 5.260135967165304e-38, 5.456337340799727e-07, 4.539460725699098e-31, 0.0, 0.0, 0.0, 1.827320231025003e-30, -4.539460725699098e-31, 5.456337340799727e-07, 0.0, 3.524137866860886e-32, -1.0856368724581595e-33, 0.0, 0.0, 0.0, 1.4029012449498297e-06]
twist: 
  twist: 
    linear: 
      x: -3.78148441527e-25
      y: 0.0
      z: 0.0
    angular: 
      x: 0.0
      y: 0.0
      z: 8.52332080903e-05
  covariance: [9.99999621553757e-10, 0.0, 0.0, 0.0, 0.0, 0.0, 0.0, 320985.91786502884, 0.0, 0.0, 0.0, 0.0, 0.0, 0.0, 5.892444259257687e-07, 5.902551763615906e-41, 1.8183423613220212e-42, 0.0, 0.0, 0.0, 5.902551763615911e-41, 4.2309862152826983e-07, 3.3460847849009824e-35, 0.0, 0.0, 0.0, 1.818342361322022e-42, -3.346084784900992e-35, 4.2309862152826983e-07, 0.0, 0.0, 0.0, 0.0, 0.0, 0.0, 9.97869168726411e-10]
---
header: 
  seq: 4585
  stamp: 
    secs: 1518209921
    nsecs:  12186527
  frame_id: "swarmone/odom"
child_frame_id: "swarmone/base_link"
pose: 
  pose: 
    position: 
      x: 0.519207790532
      y: 4.06266748535
      z: 0.0
    orientation: 
      x: 0.0
      y: 0.0
      z: 0.699716312504
      w: 0.714420801779
  covariance: [10039954646.322693, -585871997.8228657, 0.0, 0.0, 0.0, 2.677902926254352e-32, -585871997.822866, 34423101.475852765, 0.0, 0.0, 0.0, -6.6732537225015966e-34, 0.0, 0.0, 6.002104988054667e-07, 2.1869060217358044e-38, 1.5739997836759596e-30, 0.0, 0.0, 0.0, 2.1869060217358038e-38, 5.001490186744159e-07, -3.1607329778675134e-31, 0.0, 0.0, 0.0, 1.5739997836759596e-30, 3.1607329778675134e-31, 5.001490186744159e-07, 0.0, 2.677902926254353e-32, -6.6732537225015966e-34, 0.0, 0.0, 0.0, 1.0023580320599586e-06]
twist: 
  twist: 
    linear: 
      x: -3.55006643923e-25
      y: 0.0
      z: 0.0
    angular: 
      x: 0.0
      y: 0.0
      z: 0.000119123426207
  covariance: [9.999996239694286e-10, 0.0, 0.0, 0.0, 0.0, 0.0, 0.0, 321195.7661062612, 0.0, 0.0, 0.0, 0.0, 0.0, 0.0, 5.386409950667014e-07, 3.033017145959529e-41, 6.3091898108831046e-43, 0.0, 0.0, 0.0, 3.033017145959529e-41, 3.9999142785933357e-07, -2.4101586041220363e-35, 0.0, 0.0, 0.0, 6.309189810883106e-43, 2.4101586041220363e-35, 3.9999142785933357e-07, 0.0, 0.0, 0.0, 0.0, 0.0, 0.0, 9.970219128567e-10]
---
header: 
  seq: 4586
  stamp: 
    secs: 1518209921
    nsecs: 111851215
  frame_id: "swarmone/odom"
child_frame_id: "swarmone/base_link"
pose: 
  pose: 
    position: 
      x: 0.519207790532
      y: 4.06266748535
      z: 0.0
    orientation: 
      x: 0.0
      y: 0.0
      z: 0.692537219202
      w: 0.72138214562
  covariance: [10050918093.122656, -586299381.4023376, 0.0, 0.0, 0.0, 2.0869350614136802e-32, -586299381.4023376, 34436138.09976136, 0.0, 0.0, 0.0, -7.040235769814086e-34, 0.0, 0.0, 5.860045592752421e-07, 3.5534698298003935e-38, 1.4268419489325792e-30, 0.0, 0.0, 0.0, 3.5534698298003935e-38, 4.891914659302433e-07, 8.040487460551767e-32, 0.0, 0.0, 0.0, 1.4268419489325796e-30, -8.040487460551767e-32, 4.891914659302433e-07, 0.0, 2.0869350614136802e-32, -7.040235769814085e-34, 0.0, 0.0, 0.0, 9.165273435830071e-07]
twist: 
  twist: 
    linear: 
      x: -3.33321992974e-25
      y: 0.0
      z: 0.0
    angular: 
      x: 0.0
      y: 0.0
      z: 0.000130218534456
  covariance: [9.99999623169445e-10, 0.0, 0.0, 0.0, 0.0, 0.0, 0.0, 321405.28568013874, 0.0, 0.0, 0.0, 0.0, 0.0, 0.0, 5.26131223365957e-07, 2.3796610285453776e-41, 9.712247837659846e-43, 0.0, 0.0, 0.0, 2.379661028545377e-41, 3.947966690295388e-07, 2.802741493325652e-35, 0.0, 0.0, 0.0, 9.712247837659846e-43, -2.802741493325652e-35, 3.947966690295388e-07, 0.0, 0.0, 0.0, 0.0, 0.0, 0.0, 9.96744535010006e-10]
---
header: 
  seq: 4587
  stamp: 
    secs: 1518209921
    nsecs: 212312460
  frame_id: "swarmone/odom"
child_frame_id: "swarmone/base_link"
pose: 
  pose: 
    position: 
      x: 0.519207790532
      y: 4.06266748535
      z: 0.0
    orientation: 
      x: 0.0
      y: 0.0
      z: 0.699716318729
      w: 0.714420795683
  covariance: [10061972027.449905, -586840816.8289512, 0.0, 0.0, 0.0, 2.0752808972026217e-32, -586840816.8289514, 34461921.11389525, 0.0, 0.0, 0.0, -5.594967517838738e-34, 0.0, 0.0, 6.047316447330951e-07, 2.0151977364789243e-38, 1.4092615742426894e-30, 0.0, 0.0, 0.0, 2.015197736478924e-38, 5.036979169872523e-07, 2.6473160450670025e-31, 0.0, 0.0, 0.0, 1.409261574242689e-30, -2.6473160450670025e-31, 5.036979169872523e-07, 0.0, 2.075280897202622e-32, -5.594967517838737e-34, 0.0, 0.0, 0.0, 1.0309682615531393e-06]
twist: 
  twist: 
    linear: 
      x: -3.128093665e-25
      y: 0.0
      z: 0.0
    angular: 
      x: 0.0
      y: 0.0
      z: 0.000115833607136
  covariance: [9.999996263395493e-10, 0.0, 0.0, 0.0, 0.0, 0.0, 0.0, 321616.57200173166, 0.0, 0.0, 0.0, 0.0, 0.0, 0.0, 5.426654909854879e-07, 2.8388784346042013e-41, 5.9045354750675185e-43, 0.0, 0.0, 0.0, 2.838878434604201e-41, 4.017037217876079e-07, 1.444821697176206e-35, 0.0, 0.0, 0.0, 5.904535475067517e-43, -1.444821697176206e-35, 4.017037217876079e-07, 0.0, 0.0, 0.0, 0.0, 0.0, 0.0, 9.971041583847877e-10]
---
header: 
  seq: 4588
  stamp: 
    secs: 1518209921
    nsecs: 312103510
  frame_id: "swarmone/odom"
child_frame_id: "swarmone/base_link"
pose: 
  pose: 
    position: 
      x: 0.519207790532
      y: 4.06266748535
      z: 0.0
    orientation: 
      x: 0.0
      y: 0.0
      z: 0.699716309694
      w: 0.714420804532
  covariance: [10072968607.260426, -587269300.0356641, 0.0, 0.0, 0.0, 1.9535194762316213e-32, -587269300.0356643, 34474987.91818477, 0.0, 0.0, 0.0, -4.063143256051021e-34, 0.0, 0.0, 5.979109325034127e-07, 1.7726712132027288e-38, 1.2944919579877841e-30, 0.0, 0.0, 0.0, 1.772671213202729e-38, 4.983555148516128e-07, 5.8887151387818986e-33, 0.0, 0.0, 0.0, 1.294491957987784e-30, -5.8887151387818986e-33, 4.983555148516128e-07, 0.0, 1.9535194762316213e-32, -4.063143256051021e-34, 0.0, 0.0, 0.0, 9.88052917313724e-07]
twist: 
  twist: 
    linear: 
      x: -2.9367922743e-25
      y: 0.0
      z: 0.0
    angular: 
      x: 0.0
      y: 0.0
      z: 0.000120839421654
  covariance: [9.999996236760726e-10, 0.0, 0.0, 0.0, 0.0, 0.0, 0.0, 321826.5404488477, 0.0, 0.0, 0.0, 0.0, 0.0, 0.0, 5.366020981217999e-07, 2.4374510805553506e-41, 5.069728692598385e-43, 0.0, 0.0, 0.0, 2.4374510805553495e-41, 3.9913179869029396e-07, 3.3691339819887415e-35, 0.0, 0.0, 0.0, 5.069728692598382e-43, -3.3691339819887415e-35, 3.9913179869029396e-07, 0.0, 0.0, 0.0, 0.0, 0.0, 0.0, 9.969790129491255e-10]
---
header: 
  seq: 4589
  stamp: 
    secs: 1518209921
    nsecs: 412804604
  frame_id: "swarmone/odom"
child_frame_id: "swarmone/base_link"
pose: 
  pose: 
    position: 
      x: 0.519207790532
      y: 4.06266748535
      z: 0.0
    orientation: 
      x: 0.0
      y: 0.0
      z: 0.699716313101
      w: 0.714420801195
  covariance: [10084075200.12075, -587701948.9878759, 0.0, 0.0, 0.0, 1.8419757507513498e-32, -587701948.9878762, 34488180.42659737, 0.0, 0.0, 0.0, -3.8311453614530888e-34, 0.0, 0.0, 6.002105541416726e-07, 1.7124440144081512e-38, 1.2326439821073127e-30, 0.0, 0.0, 0.0, 1.7124440144081504e-38, 5.001491914987861e-07, -8.050397075005871e-32, 0.0, 0.0, 0.0, 1.2326439821073127e-30, 8.050397075005871e-32, 5.001491914987861e-07, 0.0, 1.8419757507513498e-32, -3.831145361453088e-34, 0.0, 0.0, 0.0, 1.0023580320613336e-06]
twist: 
  twist: 
    linear: 
      x: -2.75565430191e-25
      y: 0.0
      z: 0.0
    angular: 
      x: 0.0
      y: 0.0
      z: 0.000119123426752
  covariance: [9.999996272846765e-10, 0.0, 0.0, 0.0, 0.0, 0.0, 0.0, 322038.5163222416, 0.0, 0.0, 0.0, 0.0, 0.0, 0.0, 5.386411055413419e-07, 2.3747138328639285e-41, 4.939241011092051e-43, 0.0, 0.0, 0.0, 2.374713832863927e-41, 3.999921733500765e-07, 1.1448653179884847e-37, 0.0, 0.0, 0.0, 4.939241011092048e-43, -1.1448653179884847e-37, 3.999921733500765e-07, 0.0, 0.0, 0.0, 0.0, 0.0, 0.0, 9.97021912856737e-10]
---
header: 
  seq: 4590
  stamp: 
    secs: 1518209921
    nsecs: 511723995
  frame_id: "swarmone/odom"
child_frame_id: "swarmone/base_link"
pose: 
  pose: 
    position: 
      x: 0.519207790532
      y: 4.06266748535
      z: 0.0
    orientation: 
      x: 0.0
      y: 0.0
      z: 0.699716306288
      w: 0.714420807868
  covariance: [10094994806.649036, -588127195.5580918, 0.0, 0.0, 0.0, 1.6734179455904497e-32, -588127195.5580921, 34501145.89916676, 0.0, 0.0, 0.0, -3.4805585487311055e-34, 0.0, 0.0, 5.955847041140581e-07, 1.5176295865564935e-38, 1.1245025019221627e-30, 0.0, 0.0, 0.0, 1.5176295865564938e-38, 4.965489236058364e-07, 7.866602104466271e-32, 0.0, 0.0, 0.0, 1.1245025019221627e-30, -7.866602104466271e-32, 4.965489236058364e-07, 0.0, 1.6734179455904497e-32, -3.4805585487311055e-34, 0.0, 0.0, 0.0, 9.737478025661505e-07]
twist: 
  twist: 
    linear: 
      x: -2.58850878931e-25
      y: 0.0
      z: 0.0
    angular: 
      x: 0.0
      y: 0.0
      z: 0.000122605577623
  covariance: [9.999996201576286e-10, 0.0, 0.0, 0.0, 0.0, 0.0, 0.0, 322246.8323175837, 0.0, 0.0, 0.0, 0.0, 0.0, 0.0, 5.345449906500839e-07, 2.0685769821002694e-41, 4.302497527269071e-43, 0.0, 0.0, 0.0, 2.06857698210027e-41, 3.982689730730138e-07, -2.4131712337641753e-35, 0.0, 0.0, 0.0, 4.302497527269071e-43, 2.4131712337641753e-35, 3.982689730730138e-07, 0.0, 0.0, 0.0, 0.0, 0.0, 0.0, 9.969348590144802e-10]
---
header: 
  seq: 4591
  stamp: 
    secs: 1518209921
    nsecs: 612206459
  frame_id: "swarmone/odom"
child_frame_id: "swarmone/base_link"
pose: 
  pose: 
    position: 
      x: 0.519207790532
      y: 4.06266748535
      z: 0.0
    orientation: 
      x: 0.0
      y: 0.0
      z: 0.699716372539
      w: 0.71442074298
  covariance: [10106096627.602089, -588559418.1150934, 0.0, 0.0, 0.0, 1.6122585617685976e-32, -588559418.1150937, 34514322.738757245, 0.0, 0.0, 0.0, -3.3533549297720523e-34, 0.0, 0.0, 6.002105397503614e-07, 1.882332664241867e-38, 1.0841016402373552e-30, 0.0, 0.0, 0.0, 1.882332664241867e-38, 5.00149188196784e-07, 2.3145489261263805e-31, 0.0, 0.0, 0.0, 1.084101640237355e-30, -2.3145489261263805e-31, 5.00149188196784e-07, 0.0, 1.6122585617685976e-32, -3.353354929772052e-34, 0.0, 0.0, 0.0, 1.002358032060973e-06]
twist: 
  twist: 
    linear: 
      x: -2.42917955072e-25
      y: 0.0
      z: 0.0
    angular: 
      x: 0.0
      y: 0.0
      z: 0.000148904283238
  covariance: [9.999996264234396e-10, 0.0, 0.0, 0.0, 0.0, 0.0, 0.0, 322458.5319698083, 0.0, 0.0, 0.0, 0.0, 0.0, 0.0, 5.386410767960906e-07, 2.0885283047091944e-41, 4.3439941255804564e-43, 0.0, 0.0, 0.0, 2.088528304709193e-41, 3.999919790921995e-07, -9.624415779577326e-36, 0.0, 0.0, 0.0, 4.343994125580456e-43, 9.624415779577326e-36, 3.999919790921995e-07, 0.0, 0.0, 0.0, 0.0, 0.0, 0.0, 9.970219128567274e-10]
---
header: 
  seq: 4592
  stamp: 
    secs: 1518209921
    nsecs: 711734295
  frame_id: "swarmone/odom"
child_frame_id: "swarmone/base_link"
pose: 
  pose: 
    position: 
      x: 0.519207790532
      y: 4.06266748535
      z: 0.0
    orientation: 
      x: 0.0
      y: 0.0
      z: 0.699716306288
      w: 0.714420807868
  covariance: [10117102588.554207, -588987788.1745764, 0.0, 0.0, 0.0, 1.4842356931605008e-32, -588987788.1745769, 34527380.718176946, 0.0, 0.0, 0.0, -3.087068109274488e-34, 0.0, 0.0, 5.955847462274317e-07, 1.3463237985460907e-38, 9.973757954655869e-31, 0.0, 0.0, 0.0, 1.3463237985460907e-38, 4.965490540962732e-07, 1.1618027125500771e-31, 0.0, 0.0, 0.0, 9.973757954655869e-31, -1.1618027125500771e-31, 4.965490540962732e-07, 0.0, 1.484235693160501e-32, -3.0870681092744887e-34, 0.0, 0.0, 0.0, 9.737478025671805e-07]
twist: 
  twist: 
    linear: 
      x: -2.28098806514e-25
      y: 0.0
      z: 0.0
    angular: 
      x: 0.0
      y: 0.0
      z: 0.000122605578045
  covariance: [9.999996226200944e-10, 0.0, 0.0, 0.0, 0.0, 0.0, 0.0, 322668.31176249956, 0.0, 0.0, 0.0, 0.0, 0.0, 0.0, 5.345450743152632e-07, 1.8347222436433879e-41, 3.816095737027636e-43, 0.0, 0.0, 0.0, 1.834722243643387e-41, 3.9826953166343805e-07, -3.8614597081197307e-38, 0.0, 0.0, 0.0, 3.816095737027633e-43, 3.8614597081197307e-38, 3.9826953166343805e-07, 0.0, 0.0, 0.0, 0.0, 0.0, 0.0, 9.969348590145091e-10]
---
header: 
  seq: 4593
  stamp: 
    secs: 1518209921
    nsecs: 812781572
  frame_id: "swarmone/odom"
child_frame_id: "swarmone/base_link"
pose: 
  pose: 
    position: 
      x: 0.519207790532
      y: 4.06266748535
      z: 0.0
    orientation: 
      x: 0.0
      y: 0.0
      z: 0.699716319914
      w: 0.714420794522
  covariance: [10128286364.86691, -589422958.5624086, 0.0, 0.0, 0.0, 1.4561692719689483e-32, -589422958.562409, 34540644.72710696, 0.0, 0.0, 0.0, -3.0287036207688597e-34, 0.0, 0.0, 6.047316823239537e-07, 1.3860408847133816e-38, 9.700125285843957e-31, 0.0, 0.0, 0.0, 1.386040884713381e-38, 5.036980354973895e-07, -2.2471661057825455e-31, 0.0, 0.0, 0.0, 9.700125285843955e-31, 2.2471661057825455e-31, 5.036980354973895e-07, 0.0, 1.4561692719689483e-32, -3.0287036207688597e-34, 0.0, 0.0, 0.0, 1.030968261554103e-06]
twist: 
  twist: 
    linear: 
      x: -2.13984628339e-25
      y: 0.0
      z: 0.0
    angular: 
      x: 0.0
      y: 0.0
      z: 0.000115833607457
  covariance: [9.99999628640214e-10, 0.0, 0.0, 0.0, 0.0, 0.0, 0.0, 322881.3872167324, 0.0, 0.0, 0.0, 0.0, 0.0, 0.0, 5.426655664650505e-07, 1.9540894762538145e-41, 4.064371299819447e-43, 0.0, 0.0, 0.0, 1.954089476253814e-41, 4.017042379705511e-07, -9.353765618819146e-36, 0.0, 0.0, 0.0, 4.064371299819447e-43, 9.353765618819146e-36, 4.017042379705511e-07, 0.0, 0.0, 0.0, 0.0, 0.0, 0.0, 9.971041583848117e-10]
---
header: 
  seq: 4594
  stamp: 
    secs: 1518209921
    nsecs: 911768436
  frame_id: "swarmone/odom"
child_frame_id: "swarmone/base_link"
pose: 
  pose: 
    position: 
      x: 0.519207790532
      y: 4.06266748535
      z: 0.0
    orientation: 
      x: 0.0
      y: 0.0
      z: 0.699716306288
      w: 0.714420807868
  covariance: [10139251671.023891, -589849509.0952545, 0.0, 0.0, 0.0, 1.3129606730931326e-32, -589849509.095255, 34553644.664516665, 0.0, 0.0, 0.0, -2.730838477713794e-34, 0.0, 0.0, 5.955847088149627e-07, 1.1792689125601946e-38, 8.738050793870085e-31, 0.0, 0.0, 0.0, 1.1792689125601946e-38, 4.96548938181047e-07, -1.8149505257578709e-31, 0.0, 0.0, 0.0, 8.738050793870087e-31, 1.8149505257578709e-31, 4.96548938181047e-07, 0.0, 1.3129606730931326e-32, -2.730838477713794e-34, 0.0, 0.0, 0.0, 9.737478025662662e-07]
twist: 
  twist: 
    linear: 
      x: -2.00996859662e-25
      y: 0.0
      z: 0.0
    angular: 
      x: 0.0
      y: 0.0
      z: 0.00012260557766
  covariance: [9.999996204324513e-10, 0.0, 0.0, 0.0, 0.0, 0.0, 0.0, 323090.20887209545, 0.0, 0.0, 0.0, 0.0, 0.0, 0.0, 5.345449999926821e-07, 1.607432514081131e-41, 3.343348817040858e-43, 0.0, 0.0, 0.0, 1.6074325140811308e-41, 3.9826903551327367e-07, 3.4052399909321853e-35, 0.0, 0.0, 0.0, 3.3433488170408586e-43, -3.4052399909321853e-35, 3.9826903551327367e-07, 0.0, 0.0, 0.0, 0.0, 0.0, 0.0, 9.969348590144833e-10]
---
header: 
  seq: 4595
  stamp: 
    secs: 1518209922
    nsecs:  12817383
  frame_id: "swarmone/odom"
child_frame_id: "swarmone/base_link"
pose: 
  pose: 
    position: 
      x: 0.519207790532
      y: 4.06266748535
      z: 0.0
    orientation: 
      x: 0.0
      y: 0.0
      z: 0.696135474712
      w: 0.717910440687
  covariance: [10150455184.163197, -590285213.9544338, 0.0, 0.0, 0.0, 1.2466565824601044e-32, -590285213.9544342, 34566923.02847342, 0.0, 0.0, 0.0, -3.4283484921771914e-34, 0.0, 0.0, 5.979110165239166e-07, 1.7074874137621465e-38, 8.422667186728707e-31, 0.0, 0.0, 0.0, 1.7074874137621465e-38, 4.983557762681205e-07, 2.368990475041947e-31, 0.0, 0.0, 0.0, 8.422667186728702e-31, -2.368990475041947e-31, 4.983557762681205e-07, 0.0, 1.2466565824601044e-32, -3.4283484921771914e-34, 0.0, 0.0, 0.0, 9.880529173158015e-07]
twist: 
  twist: 
    linear: 
      x: -1.88559443763e-25
      y: 0.0
      z: 0.0
    angular: 
      x: 0.0
      y: 0.0
      z: 0.000120839422414
  covariance: [9.999996286468178e-10, 0.0, 0.0, 0.0, 0.0, 0.0, 0.0, 323303.47352512105, 0.0, 0.0, 0.0, 0.0, 0.0, 0.0, 5.366022654837338e-07, 1.5854838013470476e-41, 4.88412519641376e-43, 0.0, 0.0, 0.0, 1.5854838013470468e-41, 3.991329226858195e-07, 3.370063017118835e-35, 0.0, 0.0, 0.0, 4.884125196413758e-43, -3.370063017118835e-35, 3.991329226858195e-07, 0.0, 0.0, 0.0, 0.0, 0.0, 0.0, 9.969790129491825e-10]
---
header: 
  seq: 4596
  stamp: 
    secs: 1518209922
    nsecs: 112589598
  frame_id: "swarmone/odom"
child_frame_id: "swarmone/base_link"
pose: 
  pose: 
    position: 
      x: 0.519207790532
      y: 4.06266748535
      z: 0.0
    orientation: 
      x: 0.0
      y: 0.0
      z: 0.699716302284
      w: 0.714420811789
  covariance: [10161523987.36818, -590770939.2373395, 0.0, 0.0, 0.0, 1.138022117678468e-32, -590770939.23734, 34586344.50335794, 0.0, 0.0, 0.0, -2.754190390281502e-34, 0.0, 0.0, 5.932315234288238e-07, 1.0268853828168841e-38, 7.7190846375345345e-31, 0.0, 0.0, 0.0, 1.0268853828168838e-38, 4.947296446234916e-07, 2.7831852965856038e-31, 0.0, 0.0, 0.0, 7.719084637534532e-31, -2.7831852965856038e-31, 4.947296446234916e-07, 0.0, 1.1380221176784678e-32, -2.754190390281502e-34, 0.0, 0.0, 0.0, 9.594426878214892e-07]
twist: 
  twist: 
    linear: 
      x: -1.77029573047e-25
      y: 0.0
      z: 0.0
    angular: 
      x: 0.0
      y: 0.0
      z: 0.000124424127755
  covariance: [9.999996236015252e-10, 0.0, 0.0, 0.0, 0.0, 0.0, 0.0, 323514.1356826163, 0.0, 0.0, 0.0, 0.0, 0.0, 0.0, 5.324697766385169e-07, 1.3866854984607967e-41, 2.8844168761766574e-43, 0.0, 0.0, 0.0, 1.3866854984607964e-41, 3.974052496959216e-07, -2.92429414035391e-35, 0.0, 0.0, 0.0, 2.884416876176656e-43, 2.92429414035391e-35, 3.974052496959216e-07, 0.0, 0.0, 0.0, 0.0, 0.0, 0.0, 9.968893952517439e-10]
---
header: 
  seq: 4597
  stamp: 
    secs: 1518209922
    nsecs: 212227821
  frame_id: "swarmone/odom"
child_frame_id: "swarmone/base_link"
pose: 
  pose: 
    position: 
      x: 0.519207790532
      y: 4.06266748535
      z: 0.0
    orientation: 
      x: 0.0
      y: 0.0
      z: 0.699716306288
      w: 0.714420807868
  covariance: [10172590402.10224, -591201096.192173, 0.0, 0.0, 0.0, 1.0670964198221218e-32, -591201096.1921736, 34599450.73999787, 0.0, 0.0, 0.0, -2.2194662306665575e-34, 0.0, 0.0, 5.955847538047312e-07, 9.820712921660857e-39, 7.276563593735795e-31, 0.0, 0.0, 0.0, 9.820712921660857e-39, 4.96549077561274e-07, 1.2318540399865982e-31, 0.0, 0.0, 0.0, 7.276563593735796e-31, -1.2318540399865982e-31, 4.96549077561274e-07, 0.0, 1.0670964198221218e-32, -2.2194662306665575e-34, 0.0, 0.0, 0.0, 9.737478025673648e-07]
twist: 
  twist: 
    linear: 
      x: -1.6621848269e-25
      y: 0.0
      z: 0.0
    angular: 
      x: 0.0
      y: 0.0
      z: 0.000122605578075
  covariance: [9.99999623064158e-10, 0.0, 0.0, 0.0, 0.0, 0.0, 0.0, 323724.606234446, 0.0, 0.0, 0.0, 0.0, 0.0, 0.0, 5.345450893636713e-07, 1.338528824947363e-41, 2.78404725714755e-43, 0.0, 0.0, 0.0, 1.3385288249473628e-41, 3.9826963204024806e-07, 5.771745365349251e-35, 0.0, 0.0, 0.0, 2.7840472571475512e-43, -5.771745365349251e-35, 3.9826963204024806e-07, 0.0, 0.0, 0.0, 0.0, 0.0, 0.0, 9.969348590145145e-10]
---
header: 
  seq: 4598
  stamp: 
    secs: 1518209922
    nsecs: 312395573
  frame_id: "swarmone/odom"
child_frame_id: "swarmone/base_link"
pose: 
  pose: 
    position: 
      x: 0.519207790532
      y: 4.06266748535
      z: 0.0
    orientation: 
      x: 0.0
      y: 0.0
      z: 0.699716769585
      w: 0.714420354106
  covariance: [10183725331.459759, -591633796.1623755, 0.0, 0.0, 0.0, 2.3610414653690915e-32, -591633796.162376, 34612633.11658287, 0.0, 0.0, 0.0, -4.910785135302449e-34, 0.0, 0.0, 7.736635750640311e-07, 3.1314371587439866e-38, 7.739633478324304e-31, 0.0, 0.0, 0.0, 3.131437158743988e-38, 6.620526082110464e-07, -5.668064404044092e-32, 0.0, 0.0, 0.0, 7.739633478324305e-31, 5.668064404044092e-32, 6.620526082110464e-07, 0.0, 2.3610414653690913e-32, -4.91078513530245e-34, 0.0, 0.0, 0.0, 2.919243408039047e-06]
twist: 
  twist: 
    linear: 
      x: -1.56017119797e-25
      y: 0.0
      z: 0.0
    angular: 
      x: 0.0
      y: 0.0
      z: 4.10362352122e-05
  covariance: [9.99999625178113e-10, 0.0, 0.0, 0.0, 0.0, 0.0, 0.0, 323936.28732763464, 0.0, 0.0, 0.0, 0.0, 0.0, 0.0, 7.097607346068585e-07, 6.680114266503199e-41, 1.3894160095286808e-42, 0.0, 0.0, 0.0, 6.6801142665032e-41, 4.965068710165198e-07, 4.945644312911358e-35, 0.0, 0.0, 0.0, 1.3894160095286812e-42, -4.945644312911358e-35, 4.965068710165198e-07, 0.0, 0.0, 0.0, 0.0, 0.0, 0.0, 9.989740936089242e-10]
---
header: 
  seq: 4599
  stamp: 
    secs: 1518209922
    nsecs: 412074089
  frame_id: "swarmone/odom"
child_frame_id: "swarmone/base_link"
pose: 
  pose: 
    position: 
      x: 0.519207790532
      y: 4.06266748535
      z: 0.0
    orientation: 
      x: 0.0
      y: 0.0
      z: 0.696135474719
      w: 0.71791044068
  covariance: [10194815538.896994, -592064640.6472675, 0.0, 0.0, 0.0, 1.5842205785783338e-32, -592064640.647268, 34625757.79752426, 0.0, 0.0, 0.0, -3.93455411155431e-34, 0.0, 0.0, 5.97910925075291e-07, 1.3070377793349202e-38, 6.4492177868840125e-31, 0.0, 0.0, 0.0, 1.3070377793349204e-38, 4.983554922125373e-07, 3.8796608966934736e-31, 0.0, 0.0, 0.0, 6.449217786884012e-31, -3.8796608966934736e-31, 4.983554922125373e-07, 0.0, 1.584220578578334e-32, -3.93455411155431e-34, 0.0, 0.0, 0.0, 9.880529173135882e-07]
twist: 
  twist: 
    linear: 
      x: -1.46485522876e-25
      y: 0.0
      z: 0.0
    angular: 
      x: 0.0
      y: 0.0
      z: 0.000120839421473
  covariance: [9.999996232256113e-10, 0.0, 0.0, 0.0, 0.0, 0.0, 0.0, 324147.0261212662, 0.0, 0.0, 0.0, 0.0, 0.0, 0.0, 5.366020835092239e-07, 1.215514585722114e-41, 3.743093718345666e-43, 0.0, 0.0, 0.0, 1.2155145857221135e-41, 3.991317053252845e-07, 3.8266897626406317e-35, 0.0, 0.0, 0.0, 3.7430937183456654e-43, -3.8266897626406317e-35, 3.991317053252845e-07, 0.0, 0.0, 0.0, 0.0, 0.0, 0.0, 9.969790129491203e-10]
---
header: 
  seq: 4600
  stamp: 
    secs: 1518209922
    nsecs: 512231112
  frame_id: "swarmone/odom"
child_frame_id: "swarmone/base_link"
pose: 
  pose: 
    position: 
      x: 0.519207790532
      y: 4.06266748535
      z: 0.0
    orientation: 
      x: 0.0
      y: 0.0
      z: 0.696135460427
      w: 0.717910454539
  covariance: [10205965822.014711, -592553502.1385713, 0.0, 0.0, 0.0, 8.698733018973976e-33, -592553502.138572, 34645295.63854451, 0.0, 0.0, 0.0, -2.6797174436253406e-34, 0.0, 0.0, 5.884419449006532e-07, 1.1370504991039268e-38, 5.951942456639872e-31, 0.0, 0.0, 0.0, 1.1370504991039271e-38, 4.910510646063167e-07, -3.140905116708067e-31, 0.0, 0.0, 0.0, 5.9519424566398755e-31, 3.140905116708067e-31, 4.910510646063167e-07, 0.0, 8.698733018973975e-33, -2.6797174436253406e-34, 0.0, 0.0, 0.0, 9.308324583299294e-07]
twist: 
  twist: 
    linear: 
      x: -1.37496195846e-25
      y: 0.0
      z: 0.0
    angular: 
      x: 0.0
      y: 0.0
      z: 0.000128228017065
