header: 
  seq: 7432
  stamp: 
    secs: 1518210205
    nsecs: 712148666
  frame_id: "swarmone/odom"
child_frame_id: "swarmone/base_link"
pose: 
  pose: 
    position: 
      x: 0.614377074696
      y: 7.26562140242
      z: 0.0
    orientation: 
      x: 0.0
      y: 0.0
      z: 0.71035343358
      w: 0.703845153
  covariance: [109471928187.47305, -5922796364.500568, 0.0, 0.0, 0.0, -1.4701670897934715e-35, -5922796364.500589, 321313511.1735825, 0.0, 0.0, 0.0, -1.848631167344989e-37, 0.0, 0.0, 5.860045556941112e-07, 4.353460222089875e-42, -1.030637613142129e-33, 0.0, 0.0, 0.0, 4.353460222089877e-42, 4.891914153264129e-07, 6.482534362320361e-32, 0.0, 0.0, 0.0, -1.0306376131421293e-33, -6.482534362320361e-32, 4.891914153264129e-07, 0.0, -1.4701670897934712e-35, -1.848631167344989e-37, 0.0, 0.0, 0.0, 9.165273435829218e-07]
twist: 
  twist: 
    linear: 
      x: 2.4089225373e-28
      y: 0.0
      z: 0.0
    angular: 
      x: 0.0
      y: 0.0
      z: 9.76639008813e-05
  covariance: [9.999996229712808e-10, 0.0, 0.0, 0.0, 0.0, 0.0, 0.0, 1368087.2723555272, 0.0, 0.0, 0.0, 0.0, 0.0, 0.0, 5.26131216320326e-07, -1.7201586255275077e-44, 1.5836196030852472e-46, 0.0, 0.0, 0.0, -1.7201586255275087e-44, 3.9479662296155555e-07, 6.948937959079019e-36, 0.0, 0.0, 0.0, 1.5836196030852474e-46, -6.948937959079019e-36, 3.9479662296155555e-07, 0.0, 0.0, 0.0, 0.0, 0.0, 0.0, 9.967445350100034e-10]
---
header: 
  seq: 7433
  stamp: 
    secs: 1518210205
    nsecs: 812054873
  frame_id: "swarmone/odom"
child_frame_id: "swarmone/base_link"
pose: 
  pose: 
    position: 
      x: 0.614377074696
      y: 7.26562140242
      z: 0.0
    orientation: 
      x: 0.0
      y: 0.0
      z: 0.713863820705
      w: 0.700284546087
  covariance: [109546781898.62134, -5924450698.558634, 0.0, 0.0, 0.0, -1.3915451445795578e-35, -5924450698.558654, 321276707.9651158, 0.0, 0.0, 0.0, -2.2131554138667945e-37, 0.0, 0.0, 5.884419271972815e-07, 1.1625501181444068e-41, -9.763317828461652e-34, 0.0, 0.0, 0.0, 1.1625501181444068e-41, 4.91051010499167e-07, -4.295531677736957e-31, 0.0, 0.0, 0.0, -9.763317828461649e-34, 4.295531677736957e-31, 4.91051010499167e-07, 0.0, -1.391545144579558e-35, -2.2131554138667945e-37, 0.0, 0.0, 0.0, 9.308324583295096e-07]
twist: 
  twist: 
    linear: 
      x: 2.26144192496e-28
      y: 0.0
      z: 0.0
    angular: 
      x: 0.0
      y: 0.0
      z: 0.000128228016868
  covariance: [9.999996241365938e-10, 0.0, 0.0, 0.0, 0.0, 0.0, 0.0, 1368639.1027156187, 0.0, 0.0, 0.0, 0.0, 0.0, 0.0, 5.28263113908514e-07, -1.6705434566464425e-44, 3.208138712495902e-46, 0.0, 0.0, 0.0, -1.6705434566464417e-44, 3.956688895321793e-07, -1.8240208488267208e-38, 0.0, 0.0, 0.0, 3.2081387124959017e-46, 1.8240208488267208e-38, 3.956688895321793e-07, 0.0, 0.0, 0.0, 0.0, 0.0, 0.0, 9.967942979776157e-10]
---
header: 
  seq: 7434
  stamp: 
    secs: 1518210205
    nsecs: 912055731
  frame_id: "swarmone/odom"
child_frame_id: "swarmone/base_link"
pose: 
  pose: 
    position: 
      x: 0.614377074696
      y: 7.26562140242
      z: 0.0
    orientation: 
      x: 0.0
      y: 0.0
      z: 0.710353273005
      w: 0.703845315059
  covariance: [109621736666.80898, -5925731591.008294, 0.0, 0.0, 0.0, -1.3143873331181919e-35, -5925731591.008313, 321199862.6271377, 0.0, 0.0, 0.0, -1.6482064159170438e-37, 0.0, 0.0, 5.884419338861181e-07, 9.937468053272064e-45, -9.17426508903867e-34, 0.0, 0.0, 0.0, 9.937468053272065e-45, 4.91050870443153e-07, 8.274742298024411e-35, 0.0, 0.0, 0.0, -9.174265089038668e-34, -8.274742298024411e-35, 4.91050870443153e-07, 0.0, -1.314387333118192e-35, -1.6482064159170438e-37, 0.0, 0.0, 0.0, 9.308324583296679e-07]
twist: 
  twist: 
    linear: 
      x: 2.12286761391e-28
      y: 0.0
      z: 0.0
    angular: 
      x: 0.0
      y: 0.0
      z: 2.05560026398e-13
  covariance: [9.999996245140787e-10, 0.0, 0.0, 0.0, 0.0, 0.0, 0.0, 1369191.6044676793, 0.0, 0.0, 0.0, 0.0, 0.0, 0.0, 5.282631270902147e-07, -1.569990535307326e-44, 1.4453113161070133e-46, 0.0, 0.0, 0.0, -1.5699905353073262e-44, 3.9566897598541514e-07, 9.469517499756505e-36, 0.0, 0.0, 0.0, 1.4453113161070131e-46, -9.4695174997565e-36, 3.9566897598541514e-07, 0.0, 0.0, 0.0, 0.0, 0.0, 0.0, 9.967942979776207e-10]
---
header: 
  seq: 7435
  stamp: 
    secs: 1518210206
    nsecs:  12021780
  frame_id: "swarmone/odom"
child_frame_id: "swarmone/base_link"
pose: 
  pose: 
    position: 
      x: 0.614377074696
      y: 7.26562140242
      z: 0.0
    orientation: 
      x: 0.0
      y: 0.0
      z: 0.713863824044
      w: 0.700284542684
  covariance: [109696716785.45937, -5927386869.045968, 0.0, 0.0, 0.0, -1.2460014678859566e-35, -5927386869.045988, 321163033.3580106, 0.0, 0.0, 0.0, -1.98159991836226e-37, 0.0, 0.0, 5.908507507273292e-07, 1.0465527415451721e-41, -8.65884556663836e-34, 0.0, 0.0, 0.0, 1.0465527415451717e-41, 4.92897026091225e-07, 3.414883025162546e-32, 0.0, 0.0, 0.0, -8.658845566638358e-34, -3.414883025162546e-32, 4.92897026091225e-07, 0.0, -1.2460014678859563e-35, -1.9815999183622606e-37, 0.0, 0.0, 0.0, 9.451375730757108e-07]
twist: 
  twist: 
    linear: 
      x: 1.99282703825e-28
      y: 0.0
      z: 0.0
    angular: 
      x: 0.0
      y: 0.0
      z: 0.000126297436855
  covariance: [9.999996243753537e-10, 0.0, 0.0, 0.0, 0.0, 0.0, 0.0, 1369744.0624953145, 0.0, 0.0, 0.0, 0.0, 0.0, 0.0, 5.303758828998043e-07, -1.5184220776149146e-44, 2.916046531261464e-46, 0.0, 0.0, 0.0, -1.5184220776149146e-44, 3.965384340861011e-07, -1.9174831661196283e-35, 0.0, 0.0, 0.0, 2.9160465312614635e-46, 1.917483166119628e-35, 3.965384340861011e-07, 0.0, 0.0, 0.0, 0.0, 0.0, 0.0, 9.968425624991321e-10]
---
header: 
  seq: 7436
  stamp: 
    secs: 1518210206
    nsecs: 111773252
  frame_id: "swarmone/odom"
child_frame_id: "swarmone/base_link"
pose: 
  pose: 
    position: 
      x: 0.614377074696
      y: 7.26562140242
      z: 0.0
    orientation: 
      x: 0.0
      y: 0.0
      z: 0.710353441131
      w: 0.703845145379
  covariance: [109771566006.90134, -5928664098.57208, 0.0, 0.0, 0.0, -1.1849861127015819e-35, -5928664098.572099, 321086367.87200326, 0.0, 0.0, 0.0, -1.481983504085349e-37, 0.0, 0.0, 5.932315219838088e-07, 3.605863195790146e-42, -8.156363767150774e-34, 0.0, 0.0, 0.0, 3.605863195790146e-42, 4.947295994073955e-07, -1.4332671399587011e-31, 0.0, 0.0, 0.0, -8.156363767150772e-34, 1.4332671399587011e-31, 4.947295994073955e-07, 0.0, -1.1849861127015817e-35, -1.481983504085349e-37, 0.0, 0.0, 0.0, 9.594426878214532e-07]
twist: 
  twist: 
    linear: 
      x: 1.8709983561e-28
      y: 0.0
      z: 0.0
    angular: 
      x: 0.0
      y: 0.0
      z: 9.33180958619e-05
  covariance: [9.999996235178406e-10, 0.0, 0.0, 0.0, 0.0, 0.0, 0.0, 1370295.4827849346, 0.0, 0.0, 0.0, 0.0, 0.0, 0.0, 5.324697737703187e-07, -1.4654594335089152e-44, 1.348988497273877e-46, 0.0, 0.0, 0.0, -1.4654594335089157e-44, 3.9740523056758335e-07, 8.614470323099531e-38, 0.0, 0.0, 0.0, 1.348988497273877e-46, -8.614470323099264e-38, 3.9740523056758335e-07, 0.0, 0.0, 0.0, 0.0, 0.0, 0.0, 9.968893952517429e-10]
---
header: 
  seq: 7437
  stamp: 
    secs: 1518210206
    nsecs: 212318659
  frame_id: "swarmone/odom"
child_frame_id: "swarmone/base_link"
pose: 
  pose: 
    position: 
      x: 0.614377074696
      y: 7.26562140242
      z: 0.0
    orientation: 
      x: 0.0
      y: 0.0
      z: 0.710353493228
      w: 0.703845092801
  covariance: [109847062815.7587, -5930328947.310835, 0.0, 0.0, 0.0, -1.1158463259321678e-35, -5930328947.310852, 321049323.7872011, 0.0, 0.0, 0.0, -1.0270355786965494e-37, 0.0, 0.0, 5.908507909363062e-07, 4.4493876422745516e-42, -7.675747552314482e-34, 0.0, 0.0, 0.0, 4.449387642274552e-42, 4.928971496194268e-07, 2.7393683642154814e-32, 0.0, 0.0, 0.0, -7.675747552314482e-34, -2.7393683642154814e-32, 4.928971496194268e-07, 0.0, -1.1158463259321678e-35, -1.0270355786965496e-37, 0.0, 0.0, 0.0, 9.451375730766722e-07]
twist: 
  twist: 
    linear: 
      x: 1.75576407125e-28
      y: 0.0
      z: 0.0
    angular: 
      x: 0.0
      y: 0.0
      z: 0.000126297437364
  covariance: [9.999996266721065e-10, 0.0, 0.0, 0.0, 0.0, 0.0, 0.0, 1370851.4416373945, 0.0, 0.0, 0.0, 0.0, 0.0, 0.0, 5.303759623517929e-07, -1.3462390290995224e-44, 1.239068189342742e-46, 0.0, 0.0, 0.0, -1.3462390290995216e-44, 3.965389582419397e-07, 3.507155632825964e-36, 0.0, 0.0, 0.0, 1.2390681893427412e-46, -3.507155632825964e-36, 3.965389582419397e-07, 0.0, 0.0, 0.0, 0.0, 0.0, 0.0, 9.968425624991609e-10]
---
header: 
  seq: 7438
  stamp: 
    secs: 1518210206
    nsecs: 312366247
  frame_id: "swarmone/odom"
child_frame_id: "swarmone/base_link"
pose: 
  pose: 
    position: 
      x: 0.614377074696
      y: 7.26562140242
      z: 0.0
    orientation: 
      x: 0.0
      y: 0.0
      z: 0.710353969804
      w: 0.703844611817
  covariance: [109922226839.12892, -5931985583.937381, 0.0, 0.0, 0.0, -2.5227998342812034e-35, -5931985583.937397, 321012458.3774303, 0.0, 0.0, 0.0, -2.3219897759673987e-37, 0.0, 0.0, 7.765573942645858e-07, 1.486294498788528e-41, -8.140466926401555e-34, 0.0, 0.0, 0.0, 1.4862944987885282e-41, 6.65288840498723e-07, -3.8616928401899347e-32, 0.0, 0.0, 0.0, -8.140466926401555e-34, 3.8616928401899347e-32, 6.65288840498723e-07, 0.0, -2.5227998342812034e-35, -2.3219897759673987e-37, 0.0, 0.0, 0.0, 2.976463867023313e-06]
twist: 
  twist: 
    linear: 
      x: 1.64812730543e-28
      y: 0.0
      z: 0.0
    angular: 
      x: 0.0
      y: 0.0
      z: 4.02486649492e-05
  covariance: [9.999996247005804e-10, 0.0, 0.0, 0.0, 0.0, 0.0, 0.0, 1371404.797081669, 0.0, 0.0, 0.0, 0.0, 0.0, 0.0, 7.12938995786448e-07, -7.191038101497581e-44, 6.6185699963208645e-46, 0.0, 0.0, 0.0, -7.191038101497581e-44, 4.989128571847184e-07, 2.3839997766206655e-35, 0.0, 0.0, 0.0, 6.618569996320863e-46, -2.3839997766206655e-35, 4.989128571847184e-07, 0.0, 0.0, 0.0, 0.0, 0.0, 0.0, 9.989937828747394e-10]
---
header: 
  seq: 7439
  stamp: 
    secs: 1518210206
    nsecs: 412189007
  frame_id: "swarmone/odom"
child_frame_id: "swarmone/base_link"
pose: 
  pose: 
    position: 
      x: 0.614377074696
      y: 7.26562140242
      z: 0.0
    orientation: 
      x: 0.0
      y: 0.0
      z: 0.710353486515
      w: 0.703845099575
  covariance: [109997262741.22107, -5933638482.933861, 0.0, 0.0, 0.0, -1.647001328376223e-35, -5933638482.933876, 320975666.2809852, 0.0, 0.0, 0.0, -1.5160910443645776e-37, 0.0, 0.0, 5.86004570833756e-07, 3.728485428841077e-42, -6.634748474653124e-34, 0.0, 0.0, 0.0, 3.728485428841077e-42, 4.891915017988875e-07, 9.535656653374144e-33, 0.0, 0.0, 0.0, -6.634748474653127e-34, -9.535656653374144e-33, 4.891915017988875e-07, 0.0, -1.6470013283762226e-35, -1.5160910443645774e-37, 0.0, 0.0, 0.0, 9.165273435833269e-07]
twist: 
  twist: 
    linear: 
      x: 1.54730038293e-28
      y: 0.0
      z: 0.0
    angular: 
      x: 0.0
      y: 0.0
      z: 0.00013021853443
  covariance: [9.99999623803447e-10, 0.0, 0.0, 0.0, 0.0, 0.0, 0.0, 1371957.0574058448, 0.0, 0.0, 0.0, 0.0, 0.0, 0.0, 5.261312462778033e-07, -1.1091126509041952e-44, 1.020820003140579e-46, 0.0, 0.0, 0.0, -1.1091126509041954e-44, 3.947968233747886e-07, 8.605045329870957e-36, 0.0, 0.0, 0.0, 1.0208200031405793e-46, -8.605045329870957e-36, 3.947968233747886e-07, 0.0, 0.0, 0.0, 0.0, 0.0, 0.0, 9.967445350100143e-10]
---
header: 
  seq: 7440
  stamp: 
    secs: 1518210206
    nsecs: 512261629
  frame_id: "swarmone/odom"
child_frame_id: "swarmone/base_link"
pose: 
  pose: 
    position: 
      x: 0.614377074696
      y: 7.26562140242
      z: 0.0
    orientation: 
      x: 0.0
      y: 0.0
      z: 0.713864598739
      w: 0.700283752966
  covariance: [110072527369.67784, -5935295339.45404, 0.0, 0.0, 0.0, -3.044250027071842e-35, -5935295339.454055, 320938755.01726323, 0.0, 0.0, 0.0, -5.551358571172167e-37, 0.0, 0.0, 8.264757274883363e-07, 3.584306601092582e-41, -6.5678546482399015e-34, 0.0, 0.0, 0.0, 3.5843066010925816e-41, 7.246227193010801e-07, 2.4571276163782038e-31, 0.0, 0.0, 0.0, -6.567854648239903e-34, -2.4571276163782038e-31, 7.246227193010801e-07, 0.0, -3.0442500270718417e-35, -5.551358571172167e-37, 0.0, 0.0, 0.0, 4.263924194174343e-06]
twist: 
  twist: 
    linear: 
      x: 1.45242192827e-28
      y: 0.0
      z: 0.0
    angular: 
      x: 0.0
      y: 0.0
      z: 2.81101127066e-05
  covariance: [9.99999624800032e-10, 0.0, 0.0, 0.0, 0.0, 0.0, 0.0, 1372510.8488726541, 0.0, 0.0, 0.0, 0.0, 0.0, 0.0, 7.696853915829663e-07, -8.625902106038667e-44, 1.6571230349187957e-45, 0.0, 0.0, 0.0, -8.625902106038664e-44, 5.475599531665872e-07, -7.800252845895843e-35, 0.0, 0.0, 0.0, 1.6571230349187954e-45, 7.800252845895843e-35, 5.475599531665872e-07, 0.0, 0.0, 0.0, 0.0, 0.0, 0.0, 9.992972468321094e-10]
---
header: 
  seq: 7441
  stamp: 
    secs: 1518210206
    nsecs: 612284660
  frame_id: "swarmone/odom"
child_frame_id: "swarmone/base_link"
pose: 
  pose: 
    position: 
      x: 0.614377074696
      y: 7.26562140242
      z: 0.0
    orientation: 
      x: 0.0
      y: 0.0
      z: 0.713863827967
      w: 0.700284538684
  covariance: [110147784962.44063, -5936574922.994623, 0.0, 0.0, 0.0, -1.86915238372614e-35, -5936574922.994638, 320861827.6994372, 0.0, 0.0, 0.0, -3.5902664439780895e-37, 0.0, 0.0, 5.932315410204299e-07, 7.31578261917284e-42, -5.960853712675914e-34, 0.0, 0.0, 0.0, 7.315782619172841e-42, 4.947296996941683e-07, 4.27531336587286e-32, 0.0, 0.0, 0.0, -5.960853712675912e-34, -4.27531336587286e-32, 4.947296996941683e-07, 0.0, -1.86915238372614e-35, -3.590266443978089e-37, 0.0, 0.0, 0.0, 9.59442687821999e-07]
twist: 
  twist: 
    linear: 
      x: 1.36339976343e-28
      y: 0.0
      z: 0.0
    angular: 
      x: 0.0
      y: 0.0
      z: 0.000124424127766
  covariance: [9.9999962460258e-10, 0.0, 0.0, 0.0, 0.0, 0.0, 0.0, 1373064.514803115, 0.0, 0.0, 0.0, 0.0, 0.0, 0.0, 5.3246981176909e-07, -1.0733643605600816e-44, 2.061507397383673e-46, 0.0, 0.0, 0.0, -1.0733643605600809e-44, 3.9740549096317684e-07, -4.883881225647427e-36, 0.0, 0.0, 0.0, 2.0615073973836723e-46, 4.883881225647427e-36, 3.9740549096317684e-07, 0.0, 0.0, 0.0, 0.0, 0.0, 0.0, 9.96889395251756e-10]
---
header: 
  seq: 7442
  stamp: 
    secs: 1518210206
    nsecs: 712745667
  frame_id: "swarmone/odom"
child_frame_id: "swarmone/base_link"
pose: 
  pose: 
    position: 
      x: 0.614377074696
      y: 7.26562140242
      z: 0.0
    orientation: 
      x: 0.0
      y: 0.0
      z: 0.713863844663
      w: 0.700284521664
  covariance: [110223413308.71327, -5937859884.290836, 0.0, 0.0, 0.0, -8.612840774611511e-36, -5937859884.290852, 320784569.03469527, 0.0, 0.0, 0.0, -1.6542025817100005e-37, 0.0, 0.0, 6.047316447255549e-07, 7.605967479880516e-42, -5.764345503556419e-34, 0.0, 0.0, 0.0, 7.605967479880516e-42, 5.036979169818731e-07, -1.3650429573116863e-31, 0.0, 0.0, 0.0, -5.764345503556418e-34, 1.3650429573116863e-31, 5.036979169818731e-07, 0.0, -8.612840774611511e-36, -1.6542025817100005e-37, 0.0, 0.0, 0.0, 1.0309682615531402e-06]
twist: 
  twist: 
    linear: 
      x: 1.2794932917e-28
      y: 0.0
      z: 0.0
    angular: 
      x: 0.0
      y: 0.0
      z: 0.000115833607127
  covariance: [9.999996263394936e-10, 0.0, 0.0, 0.0, 0.0, 0.0, 0.0, 1373620.7549510312, 0.0, 0.0, 0.0, 0.0, 0.0, 0.0, 5.426654909752503e-07, -1.1612546005658309e-44, 2.230308019224954e-46, 0.0, 0.0, 0.0, -1.16125460056583e-44, 4.017037218074969e-07, -5.298600299113184e-35, 0.0, 0.0, 0.0, 2.230308019224954e-46, 5.298600299113185e-35, 4.017037218074969e-07, 0.0, 0.0, 0.0, 0.0, 0.0, 0.0, 9.971041583847877e-10]
---
header: 
  seq: 7443
  stamp: 
    secs: 1518210206
    nsecs: 812300682
  frame_id: "swarmone/odom"
child_frame_id: "swarmone/base_link"
pose: 
  pose: 
    position: 
      x: 0.614377074696
      y: 7.26562140242
      z: 0.0
    orientation: 
      x: 0.0
      y: 0.0
      z: 0.71386381795
      w: 0.700284548896
  covariance: [110298400379.76036, -5939132950.30721, 0.0, 0.0, 0.0, -7.592429907993143e-36, -5939132950.307225, 320708003.61249536, 0.0, 0.0, 0.0, -1.4582234142811995e-37, 0.0, 0.0, 5.860045513876389e-07, 6.025791078949655e-42, -5.136878549983466e-34, 0.0, 0.0, 0.0, 6.025791078949655e-42, 4.891914420339927e-07, -2.0703989135864166e-32, 0.0, 0.0, 0.0, -5.136878549983466e-34, 2.0703989135864166e-32, 4.891914420339927e-07, 0.0, -7.592429907993143e-36, -1.4582234142811995e-37, 0.0, 0.0, 0.0, 9.165273435828237e-07]
twist: 
  twist: 
    linear: 
      x: 1.20141602311e-28
      y: 0.0
      z: 0.0
    angular: 
      x: 0.0
      y: 0.0
      z: 0.000130218534379
  covariance: [9.999996227300575e-10, 0.0, 0.0, 0.0, 0.0, 0.0, 0.0, 1374172.1269208028, 0.0, 0.0, 0.0, 0.0, 0.0, 0.0, 5.261312078708347e-07, -8.57290450174908e-45, 1.6465139862004343e-46, 0.0, 0.0, 0.0, -8.572904501749077e-45, 3.9479656812624164e-07, 1.4060519774169396e-35, 0.0, 0.0, 0.0, 1.6465139862004341e-46, -1.4060519774169396e-35, 3.9479656812624164e-07, 0.0, 0.0, 0.0, 0.0, 0.0, 0.0, 9.9674453501e-10]
---
header: 
  seq: 7444
  stamp: 
    secs: 1518210206
    nsecs: 912529707
  frame_id: "swarmone/odom"
child_frame_id: "swarmone/base_link"
pose: 
  pose: 
    position: 
      x: 0.614377074696
      y: 7.26562140242
      z: 0.0
    orientation: 
      x: 0.0
      y: 0.0
      z: 0.717356302247
      w: 0.696706491736
  covariance: [110373936138.41266, -5940414273.248777, 0.0, 0.0, 0.0, -6.889380672602416e-36, -5940414273.248791, 320630910.6980932, 0.0, 0.0, 0.0, -1.7825862863728455e-37, 0.0, 0.0, 5.860045996001883e-07, 8.659870298666363e-42, -4.856069923893355e-34, 0.0, 0.0, 0.0, 8.659870298666363e-42, 4.8919158871078e-07, 1.1618348396140741e-31, 0.0, 0.0, 0.0, -4.856069923893358e-34, -1.1618348396140741e-31, 4.8919158871078e-07, 0.0, -6.889380672602416e-36, -1.7825862863728455e-37, 0.0, 0.0, 0.0, 9.165273435839463e-07]
twist: 
  twist: 
    linear: 
      x: 1.1276386931e-28
      y: 0.0
      z: 0.0
    angular: 
      x: 0.0
      y: 0.0
      z: 0.00013021853484
  covariance: [9.999996254214083e-10, 0.0, 0.0, 0.0, 0.0, 0.0, 0.0, 1374727.3808298036, 0.0, 0.0, 0.0, 0.0, 0.0, 0.0, 5.261313025916178e-07, -8.101709889929392e-45, 2.3664876747934713e-46, 0.0, 0.0, 0.0, -8.101709889929395e-45, 3.947971850878625e-07, 2.412035775999869e-35, 0.0, 0.0, 0.0, 2.3664876747934725e-46, -2.412035775999869e-35, 3.947971850878625e-07, 0.0, 0.0, 0.0, 0.0, 0.0, 0.0, 9.96744535010036e-10]
---
header: 
  seq: 7445
  stamp: 
    secs: 1518210207
    nsecs:  12263298
  frame_id: "swarmone/odom"
child_frame_id: "swarmone/base_link"
pose: 
  pose: 
    position: 
      x: 0.614377074696
      y: 7.26562140242
      z: 0.0
    orientation: 
      x: 0.0
      y: 0.0
      z: 0.71035349776
      w: 0.703845088226
  covariance: [110449121184.31628, -5941312608.609111, 0.0, 0.0, 0.0, -6.636517971023972e-36, -5941312608.609124, 320514284.1004286, 0.0, 0.0, 0.0, -1.0401718566135225e-37, 0.0, 0.0, 5.932315207390668e-07, 2.721076689992847e-42, -4.614439760870179e-34, 0.0, 0.0, 0.0, 2.7210766899928478e-42, 4.947296363311732e-07, -4.497726243819186e-32, 0.0, 0.0, 0.0, -4.614439760870179e-34, 4.497726243819186e-32, 4.947296363311732e-07, 0.0, -6.636517971023972e-36, -1.0401718566135227e-37, 0.0, 0.0, 0.0, 9.594426878214225e-07]
twist: 
  twist: 
    linear: 
      x: 1.05871269129e-28
      y: 0.0
      z: 0.0
    angular: 
      x: 0.0
      y: 0.0
      z: 0.000124424127745
  covariance: [9.999996234465746e-10, 0.0, 0.0, 0.0, 0.0, 0.0, 0.0, 1375280.0385547471, 0.0, 0.0, 0.0, 0.0, 0.0, 0.0, 5.324697713006472e-07, -8.290663392416221e-45, 7.632605322046772e-47, 0.0, 0.0, 0.0, -8.290663392416224e-45, 3.9740521411631913e-07, 9.77468302513159e-36, 0.0, 0.0, 0.0, 7.632605322046777e-47, -9.774683025131589e-36, 3.9740521411631913e-07, 0.0, 0.0, 0.0, 0.0, 0.0, 0.0, 9.968893952517418e-10]
---
header: 
  seq: 7446
  stamp: 
    secs: 1518210207
    nsecs: 112415791
  frame_id: "swarmone/odom"
child_frame_id: "swarmone/base_link"
pose: 
  pose: 
    position: 
      x: 0.614377074696
      y: 7.26562140242
      z: 0.0
    orientation: 
      x: 0.0
      y: 0.0
      z: 0.713863766618
      w: 0.700284601223
  covariance: [110524692063.97766, -5942970382.762348, 0.0, 0.0, 0.0, -6.225621333444941e-36, -5942970382.762362, 320477355.93336236, 0.0, 0.0, 0.0, -9.837971092295063e-38, 0.0, 0.0, 5.884419445764208e-07, 3.842386598242542e-42, -4.301523757398112e-34, 0.0, 0.0, 0.0, 3.842386598242541e-42, 4.910510235240662e-07, -1.1371827095553353e-31, 0.0, 0.0, 0.0, -4.301523757398112e-34, 1.1371827095553353e-31, 4.910510235240662e-07, 0.0, -6.225621333444941e-36, -9.837971092295061e-38, 0.0, 0.0, 0.0, 9.308324583299211e-07]
twist: 
  twist: 
    linear: 
      x: 9.93745233465e-29
      y: 0.0
      z: 0.0
    angular: 
      x: 0.0
      y: 0.0
      z: 9.61710128506e-05
  covariance: [9.999996251175597e-10, 0.0, 0.0, 0.0, 0.0, 0.0, 0.0, 1375835.1665871108, 0.0, 0.0, 0.0, 0.0, 0.0, 0.0, 5.282631481583018e-07, -7.360272688093068e-45, 1.4134637432468615e-46, 0.0, 0.0, 0.0, -7.360272688093068e-45, 3.956691141749138e-07, 5.067098354130205e-36, 0.0, 0.0, 0.0, 1.413463743246861e-46, -5.067098354130205e-36, 3.956691141749138e-07, 0.0, 0.0, 0.0, 0.0, 0.0, 0.0, 9.967942979776283e-10]
---
header: 
  seq: 7447
  stamp: 
    secs: 1518210207
    nsecs: 212373972
  frame_id: "swarmone/odom"
child_frame_id: "swarmone/base_link"
pose: 
  pose: 
    position: 
      x: 0.614377074696
      y: 7.26562140242
      z: 0.0
    orientation: 
      x: 0.0
      y: 0.0
      z: 0.703279681294
      w: 0.710913278733
  covariance: [110600146633.86989, -5944247592.58315, 0.0, 0.0, 0.0, -6.483552469760585e-36, -5944247592.583161, 320400490.140667, 0.0, 0.0, 0.0, 1.2236219594808187e-38, 0.0, 0.0, 6.155993107729457e-07, -3.383841350122827e-42, -4.271968765098595e-34, 0.0, 0.0, 0.0, -3.383841350122827e-42, 5.123531424071544e-07, 3.322623865441382e-32, 0.0, 0.0, 0.0, -4.271968765098595e-34, -3.322623865441382e-32, 5.123531424071544e-07, 0.0, -6.483552469760585e-36, 1.2236219594808174e-38, 0.0, 0.0, 0.0, 1.102493835282814e-06]
twist: 
  twist: 
    linear: 
      x: 9.32875186429e-29
      y: 0.0
      z: 0.0
    angular: 
      x: 0.0
      y: 0.0
      z: 0.000108352693649
  covariance: [9.999996243442411e-10, 0.0, 0.0, 0.0, 0.0, 0.0, 0.0, 1376389.3665163412, 0.0, 0.0, 0.0, 0.0, 0.0, 0.0, 5.524258590081672e-07, -9.564444691399973e-45, -1.0330113746606021e-46, 0.0, 0.0, 0.0, -9.564444691399973e-45, 4.059402573818337e-07, 4.619715978903026e-36, 0.0, 0.0, 0.0, -1.0330113746606023e-46, -4.619715978903026e-36, 4.059402573818337e-07, 0.0, 0.0, 0.0, 0.0, 0.0, 0.0, 9.972911813068027e-10]
---
header: 
  seq: 7448
  stamp: 
    secs: 1518210207
    nsecs: 312382221
  frame_id: "swarmone/odom"
child_frame_id: "swarmone/base_link"
pose: 
  pose: 
    position: 
      x: 0.614377074696
      y: 7.26562140242
      z: 0.0
    orientation: 
      x: 0.0
      y: 0.0
      z: 0.717356313792
      w: 0.696706479848
  covariance: [110675689546.54886, -5946658286.827314, 0.0, 0.0, 0.0, -5.921442326179915e-36, -5946658286.827327, 320443716.39582986, 0.0, 0.0, 0.0, -8.727998696039487e-38, 0.0, 0.0, 5.955847791347731e-07, 7.28586683326997e-42, -3.8487060813454596e-34, 0.0, 0.0, 0.0, 7.285866833269972e-42, 4.965491560585749e-07, 1.6370060663602756e-31, 0.0, 0.0, 0.0, -3.8487060813454605e-34, -1.6370060663602756e-31, 4.965491560585749e-07, 0.0, -5.9214423261799155e-36, -8.727998696039487e-38, 0.0, 0.0, 0.0, 9.737478025679878e-07]
twist: 
  twist: 
    linear: 
      x: 8.75706757468e-29
      y: 0.0
      z: 0.0
    angular: 
      x: 0.0
      y: 0.0
      z: 0.000122605578277
  covariance: [9.999996245437848e-10, 0.0, 0.0, 0.0, 0.0, 0.0, 0.0, 1376943.9929552372, 0.0, 0.0, 0.0, 0.0, 0.0, 0.0, 5.34545139703075e-07, -7.078795129499111e-45, 2.0673821138278064e-46, 0.0, 0.0, 0.0, -7.078795129499113e-45, 3.9826996845185086e-07, 4.812654604180533e-35, 0.0, 0.0, 0.0, 2.0673821138278064e-46, -4.812654604180533e-35, 3.9826996845185086e-07, 0.0, 0.0, 0.0, 0.0, 0.0, 0.0, 9.969348590145317e-10]
---
header: 
  seq: 7449
  stamp: 
    secs: 1518210207
    nsecs: 412284613
  frame_id: "swarmone/odom"
child_frame_id: "swarmone/base_link"
pose: 
  pose: 
    position: 
      x: 0.614377074696
      y: 7.26562140242
      z: 0.0
    orientation: 
      x: 0.0
      y: 0.0
      z: 0.710353501114
      w: 0.703845084841
  covariance: [110751165699.13263, -5947556505.86377, 0.0, 0.0, 0.0, -5.3188682231401554e-36, -5947556505.863781, 320326848.2820274, 0.0, 0.0, 0.0, -8.443850178446421e-38, 0.0, 0.0, 5.955847718918406e-07, 2.1595302503538728e-42, -3.6090204861792272e-34, 0.0, 0.0, 0.0, 2.1595302503538737e-42, 4.965491336383426e-07, 4.4580273380191594e-32, 0.0, 0.0, 0.0, -3.609020486179228e-34, -4.4580273380191594e-32, 4.965491336383426e-07, 0.0, -5.3188682231401554e-36, -8.443850178446424e-38, 0.0, 0.0, 0.0, 9.737478025678075e-07]
twist: 
  twist: 
    linear: 
      x: 8.22095097937e-29
      y: 0.0
      z: 0.0
    angular: 
      x: 0.0
      y: 0.0
      z: 0.000122605578234
  covariance: [9.999996241215745e-10, 0.0, 0.0, 0.0, 0.0, 0.0, 0.0, 1377498.1810650772, 0.0, 0.0, 0.0, 0.0, 0.0, 0.0, 5.34545125298468e-07, -6.640025292800157e-45, 6.112891146391967e-47, 0.0, 0.0, 0.0, -6.640025292800159e-45, 3.982698719917981e-07, -1.2129507750168822e-35, 0.0, 0.0, 0.0, 6.11289114639197e-47, 1.2129507750168822e-35, 3.982698719917981e-07, 0.0, 0.0, 0.0, 0.0, 0.0, 0.0, 9.96934859014527e-10]
---
header: 
  seq: 7450
  stamp: 
    secs: 1518210207
    nsecs: 512021780
  frame_id: "swarmone/odom"
child_frame_id: "swarmone/base_link"
pose: 
  pose: 
    position: 
      x: 0.614377074696
      y: 7.26562140242
      z: 0.0
    orientation: 
      x: 0.0
      y: 0.0
      z: 0.713863870618
      w: 0.700284495206
  covariance: [110826586854.50258, -5949207406.215589, 0.0, 0.0, 0.0, -4.7897440688610605e-36, -5949207406.2156, 320290059.4037785, 0.0, 0.0, 0.0, -7.53619893367993e-38, 0.0, 0.0, 5.860045644764289e-07, 4.8459098328729056e-42, -3.3065653122561344e-34, 0.0, 0.0, 0.0, 4.8459098328729043e-42, 4.8919152165578e-07, -2.7881174946015092e-31, 0.0, 0.0, 0.0, -3.3065653122561344e-34, 2.7881174946015092e-31, 4.8919152165578e-07, 0.0, -4.78974406886106e-36, -7.53619893367993e-38, 0.0, 0.0, 0.0, 9.165273435831279e-07]
twist: 
  twist: 
    linear: 
      x: 7.71843918615e-29
      y: 0.0
      z: 0.0
    angular: 
      x: 0.0
      y: 0.0
      z: 0.000162773168086
  covariance: [9.999996234606888e-10, 0.0, 0.0, 0.0, 0.0, 0.0, 0.0, 1378051.600938793, 0.0, 0.0, 0.0, 0.0, 0.0, 0.0, 5.261312335824352e-07, -5.518101994596692e-45, 1.0596677622179514e-46, 0.0, 0.0, 0.0, -5.518101994596692e-45, 3.9479673553770893e-07, -5.043379381352585e-36, 0.0, 0.0, 0.0, 1.0596677622179516e-46, 5.043379381352585e-36, 3.9479673553770893e-07, 0.0, 0.0, 0.0, 0.0, 0.0, 0.0, 9.967445350100098e-10]
---
header: 
  seq: 7451
  stamp: 
    secs: 1518210207
    nsecs: 612011194
  frame_id: "swarmone/odom"
child_frame_id: "swarmone/base_link"
pose: 
  pose: 
    position: 
      x: 0.614377074696
      y: 7.26562140242
      z: 0.0
    orientation: 
      x: 0.0
      y: 0.0
      z: 0.710353490458
      w: 0.703845095595
  covariance: [110902229041.28271, -5950484033.981112, 0.0, 0.0, 0.0, -4.4625852689255386e-36, -5950484033.981122, 320213123.55118626, 0.0, 0.0, 0.0, -5.580658840621874e-38, 0.0, 0.0, 5.884419330755231e-07, 1.7905039438258014e-42, -3.1308746942251646e-34, 0.0, 0.0, 0.0, 1.7905039438258014e-42, 4.91051028495611e-07, -1.4558283257068094e-31, 0.0, 0.0, 0.0, -3.1308746942251646e-34, 1.4558283257068094e-31, 4.91051028495611e-07, 0.0, -4.4625852689255386e-36, -5.580658840621873e-38, 0.0, 0.0, 0.0, 9.308324583296485e-07]
twist: 
  twist: 
    linear: 
      x: 7.24552812745e-29
      y: 0.0
      z: 0.0
    angular: 
      x: 0.0
      y: 0.0
      z: 0.000128228017025
  covariance: [9.999996244684376e-10, 0.0, 0.0, 0.0, 0.0, 0.0, 0.0, 1378606.5692460628, 0.0, 0.0, 0.0, 0.0, 0.0, 0.0, 5.282631254912312e-07, -5.3578150418979987e-45, 4.932289926498085e-47, 0.0, 0.0, 0.0, -5.357815041897998e-45, 3.956689654714193e-07, -3.4071159721793016e-36, 0.0, 0.0, 0.0, 4.932289926498084e-47, 3.4071159721793016e-36, 3.956689654714193e-07, 0.0, 0.0, 0.0, 0.0, 0.0, 0.0, 9.9679429797762e-10]
---
header: 
  seq: 7452
  stamp: 
    secs: 1518210207
    nsecs: 711780548
  frame_id: "swarmone/odom"
child_frame_id: "swarmone/base_link"
pose: 
  pose: 
    position: 
      x: 0.614377074696
      y: 7.26562140242
      z: 0.0
    orientation: 
      x: 0.0
      y: 0.0
      z: 0.717356253664
      w: 0.696706541759
  covariance: [110977756426.6273, -5952135337.051976, 0.0, 0.0, 0.0, -4.2436520234829286e-36, -5952135337.051987, 320176310.7720382, 0.0, 0.0, 0.0, -9.592826141173173e-38, 0.0, 0.0, 5.908507369718499e-07, 4.067178907520909e-42, -2.9495217618191177e-34, 0.0, 0.0, 0.0, 4.06717890752091e-42, 4.928969433635046e-07, -1.0031277458170409e-31, 0.0, 0.0, 0.0, -2.9495217618191173e-34, 1.0031277458170409e-31, 4.928969433635046e-07, 0.0, -4.243652023482928e-36, -9.592826141173173e-38, 0.0, 0.0, 0.0, 9.45137573075382e-07]
twist: 
  twist: 
    linear: 
      x: 6.80250914717e-29
      y: 0.0
      z: 0.0
    angular: 
      x: 0.0
      y: 0.0
      z: 9.47230777508e-05
  covariance: [9.99999623589403e-10, 0.0, 0.0, 0.0, 0.0, 0.0, 0.0, 1379160.4646457753, 0.0, 0.0, 0.0, 0.0, 0.0, 0.0, 5.30375855720492e-07, -5.171052784582718e-45, 1.5104036042743384e-46, 0.0, 0.0, 0.0, -5.171052784582717e-45, 3.9653825480198127e-07, 1.0028284724182348e-35, 0.0, 0.0, 0.0, 1.510403604274338e-46, -1.0028284724182348e-35, 3.9653825480198127e-07, 0.0, 0.0, 0.0, 0.0, 0.0, 0.0, 9.968425624991222e-10]
---
header: 
  seq: 7453
  stamp: 
    secs: 1518210207
    nsecs: 812630892
  frame_id: "swarmone/odom"
child_frame_id: "swarmone/base_link"
pose: 
  pose: 
    position: 
      x: 0.614377074696
      y: 7.26562140242
      z: 0.0
    orientation: 
      x: 0.0
      y: 0.0
      z: 0.710353497747
      w: 0.703845088239
  covariance: [111054114408.16747, -5953040145.142595, 0.0, 0.0, 0.0, -4.089186284779241e-36, -5953040145.142605, 320058305.9636441, 0.0, 0.0, 0.0, -6.464467775048828e-38, 0.0, 0.0, 5.932315972871515e-07, 1.658664697729478e-42, -2.814847694711225e-34, 0.0, 0.0, 0.0, 1.6586646977294776e-42, 4.947298724906442e-07, 1.3136642839487057e-31, 0.0, 0.0, 0.0, -2.814847694711225e-34, -1.3136642839487057e-31, 4.947298724906442e-07, 0.0, -4.089186284779241e-36, -6.464467775048828e-38, 0.0, 0.0, 0.0, 9.594426878232737e-07]
twist: 
  twist: 
    linear: 
      x: 6.3823526598e-29
      y: 0.0
      z: 0.0
    angular: 
      x: 0.0
      y: 0.0
      z: 0.000124424128377
  covariance: [9.999996278704149e-10, 0.0, 0.0, 0.0, 0.0, 0.0, 0.0, 1379720.512203386, 0.0, 0.0, 0.0, 0.0, 0.0, 0.0, 5.324699229688793e-07, -5.057460354538307e-45, 4.656148146602741e-47, 0.0, 0.0, 0.0, -5.057460354538306e-45, 3.974062207204968e-07, -1.211806632849395e-35, 0.0, 0.0, 0.0, 4.656148146602739e-47, 1.211806632849395e-35, 3.974062207204968e-07, 0.0, 0.0, 0.0, 0.0, 0.0, 0.0, 9.968893952517958e-10]
---
header: 
  seq: 7454
  stamp: 
    secs: 1518210207
    nsecs: 912277937
  frame_id: "swarmone/odom"
child_frame_id: "swarmone/base_link"
pose: 
  pose: 
    position: 
      x: 0.614377074696
      y: 7.26562140242
      z: 0.0
    orientation: 
      x: 0.0
      y: 0.0
      z: 0.713863817364
      w: 0.700284549493
  covariance: [111129631393.34262, -5954689274.435161, 0.0, 0.0, 0.0, -3.696223401507458e-36, -5954689274.435171, 320021541.61108994, 0.0, 0.0, 0.0, -5.828018257207942e-38, 0.0, 0.0, 5.8600455799822e-07, 3.007261741943554e-42, -2.5647384408250037e-34, 0.0, 0.0, 0.0, 3.007261741943555e-42, 4.891914621322511e-07, -8.089432188364688e-32, 0.0, 0.0, 0.0, -2.5647384408250033e-34, 8.089432188364688e-32, 4.891914621322511e-07, 0.0, -3.6962234015074587e-36, -5.828018257207942e-38, 0.0, 0.0, 0.0, 9.165273435829763e-07]
twist: 
  twist: 
    linear: 
      x: 5.99255050225e-29
      y: 0.0
      z: 0.0
    angular: 
      x: 0.0
      y: 0.0
      z: 0.000130218534453
  covariance: [9.999996230997676e-10, 0.0, 0.0, 0.0, 0.0, 0.0, 0.0, 1380274.0264318183, 0.0, 0.0, 0.0, 0.0, 0.0, 0.0, 5.261312208513385e-07, -4.2800788823875696e-45, 8.219273923982726e-47, 0.0, 0.0, 0.0, -4.280078882387571e-45, 3.9479665254882017e-07, 1.7050469842122203e-35, 0.0, 0.0, 0.0, 8.219273923982727e-47, -1.7050469842122203e-35, 3.9479665254882017e-07, 0.0, 0.0, 0.0, 0.0, 0.0, 0.0, 9.967445350100052e-10]
---
header: 
  seq: 7455
  stamp: 
    secs: 1518210208
    nsecs:  12287855
  frame_id: "swarmone/odom"
child_frame_id: "swarmone/base_link"
pose: 
  pose: 
    position: 
      x: 0.614377074696
      y: 7.26562140242
      z: 0.0
    orientation: 
      x: 0.0
      y: 0.0
      z: 0.710353493814
      w: 0.703845092208
  covariance: [111205453697.8519, -5955965066.26254, 0.0, 0.0, 0.0, -3.501147494905428e-36, -5955965066.26255, 319944572.39221126, 0.0, 0.0, 0.0, -4.3665282248133044e-38, 0.0, 0.0, 5.908507537849809e-07, 1.4192088299455067e-42, -2.4453402172044333e-34, 0.0, 0.0, 0.0, 1.4192088299455069e-42, 4.928970355008736e-07, -2.3728946920352828e-32, 0.0, 0.0, 0.0, -2.4453402172044333e-34, 2.3728946920352828e-32, 4.928970355008736e-07, 0.0, -3.5011474949054276e-36, -4.366528224813304e-38, 0.0, 0.0, 0.0, 9.451375730757835e-07]
twist: 
  twist: 
    linear: 
      x: 5.62530979351e-29
      y: 0.0
      z: 0.0
    angular: 
      x: 0.0
      y: 0.0
      z: 0.000126297437088
  covariance: [9.999996245504591e-10, 0.0, 0.0, 0.0, 0.0, 0.0, 0.0, 1380829.705157888, 0.0, 0.0, 0.0, 0.0, 0.0, 0.0, 5.303758889396497e-07, -4.288742078483407e-45, 3.947971583781566e-47, 0.0, 0.0, 0.0, -4.288742078483408e-45, 3.965384738964824e-07, 2.7539841746268806e-35, 0.0, 0.0, 0.0, 3.947971583781567e-47, -2.7539841746268806e-35, 3.965384738964824e-07, 0.0, 0.0, 0.0, 0.0, 0.0, 0.0, 9.968425624991344e-10]
---
header: 
  seq: 7456
  stamp: 
    secs: 1518210208
    nsecs: 112401009
  frame_id: "swarmone/odom"
child_frame_id: "swarmone/base_link"
pose: 
  pose: 
    position: 
      x: 0.614377074696
      y: 7.26562140242
      z: 0.0
    orientation: 
      x: 0.0
      y: 0.0
      z: 0.713863817367
      w: 0.70028454949
  covariance: [111281406290.52797, -5957621838.605379, 0.0, 0.0, 0.0, -3.2562617673399586e-36, -5957621838.605392, 319907630.481715, 0.0, 0.0, 0.0, -5.145316119100141e-38, 0.0, 0.0, 5.860045913599261e-07, 2.6629681294590188e-42, -2.271096874030887e-34, 0.0, 0.0, 0.0, 2.662968129459018e-42, 4.891915636762392e-07, -3.1751859126053993e-31, 0.0, 0.0, 0.0, -2.271096874030886e-34, 3.1751859126053993e-31, 4.891915636762392e-07, 0.0, -3.2562617673399586e-36, -5.145316119100141e-38, 0.0, 0.0, 0.0, 9.165273435837546e-07]
twist: 
  twist: 
    linear: 
      x: 5.2802403917e-29
      y: 0.0
      z: 0.0
    angular: 
      x: 0.0
      y: 0.0
      z: 0.000130218534759
  covariance: [9.999996249613497e-10, 0.0, 0.0, 0.0, 0.0, 0.0, 0.0, 1381386.1068339061, 0.0, 0.0, 0.0, 0.0, 0.0, 0.0, 5.261312864034741e-07, -3.790009755697589e-45, 7.278200024671919e-47, 0.0, 0.0, 0.0, -3.790009755697585e-45, 3.9479707966465575e-07, 1.3925974839628856e-35, 0.0, 0.0, 0.0, 7.278200024671915e-47, -1.3925974839628856e-35, 3.9479707966465575e-07, 0.0, 0.0, 0.0, 0.0, 0.0, 0.0, 9.967445350100298e-10]
---
header: 
  seq: 7457
  stamp: 
    secs: 1518210208
    nsecs: 212120533
  frame_id: "swarmone/odom"
child_frame_id: "swarmone/base_link"
pose: 
  pose: 
    position: 
      x: 0.614377074696
      y: 7.26562140242
      z: 0.0
    orientation: 
      x: 0.0
      y: 0.0
      z: 0.713863844663
      w: 0.700284521664
  covariance: [111357090535.38115, -5958893384.429526, 0.0, 0.0, 0.0, -3.263953333099821e-36, -5958893384.42954, 319830866.6943223, 0.0, 0.0, 0.0, -6.268820739807765e-38, 0.0, 0.0, 6.047315965354129e-07, 2.924003638166808e-42, -2.215962874863849e-34, 0.0, 0.0, 0.0, 2.924003638166809e-42, 5.036977650653219e-07, -4.177014629504004e-32, 0.0, 0.0, 0.0, -2.215962874863848e-34, 4.177014629504004e-32, 5.036977650653219e-07, 0.0, -3.263953333099821e-36, -6.268820739807765e-38, 0.0, 0.0, 0.0, 1.0309682615519054e-06]
twist: 
  twist: 
    linear: 
      x: 4.95753282095e-29
      y: 0.0
      z: 0.0
    angular: 
      x: 0.0
      y: 0.0
      z: 0.000115833606709
  covariance: [9.999996233902022e-10, 0.0, 0.0, 0.0, 0.0, 0.0, 0.0, 1381940.4693939697, 0.0, 0.0, 0.0, 0.0, 0.0, 0.0, 5.42665394216598e-07, -4.464066481727057e-45, 8.57369668858797e-47, 0.0, 0.0, 0.0, -4.464066481727057e-45, 4.0170306016993237e-07, -3.8608969496494957e-35, 0.0, 0.0, 0.0, 8.573696688587971e-47, 3.860896949649503e-35, 4.0170306016993237e-07, 0.0, 0.0, 0.0, 0.0, 0.0, 0.0, 9.971041583847565e-10]
---
header: 
  seq: 7458
  stamp: 
    secs: 1518210208
    nsecs: 312803030
  frame_id: "swarmone/odom"
child_frame_id: "swarmone/base_link"
pose: 
  pose: 
    position: 
      x: 0.614377074696
      y: 7.26562140242
      z: 0.0
    orientation: 
      x: 0.0
      y: 0.0
      z: 0.717356305571
      w: 0.696706488313
  covariance: [111433547205.11089, -5960176833.389488, 0.0, 0.0, 0.0, -3.0043597075230894e-36, -5960176833.389502, 319753351.8199821, 0.0, 0.0, 0.0, -7.704238634039543e-38, 0.0, 0.0, 5.884419816828191e-07, 3.6671794302497224e-42, -2.0248958902827924e-34, 0.0, 0.0, 0.0, 3.6671794302497205e-42, 4.910511770944808e-07, -5.275600982900053e-31, 0.0, 0.0, 0.0, -2.0248958902827916e-34, 5.275600982900053e-31, 4.910511770944808e-07, 0.0, -3.0043597075230894e-36, -7.704238634039543e-38, 0.0, 0.0, 0.0, 9.30832458330799e-07]
twist: 
  twist: 
    linear: 
      x: 4.65180535072e-29
      y: 0.0
      z: 0.0
    angular: 
      x: 0.0
      y: 0.0
      z: 0.000128228017389
  covariance: [9.999996272120203e-10, 0.0, 0.0, 0.0, 0.0, 0.0, 0.0, 1382500.335778388, 0.0, 0.0, 0.0, 0.0, 0.0, 0.0, 5.282632212828307e-07, -3.46408154764528e-45, 1.0118428373280559e-46, 0.0, 0.0, 0.0, -3.4640815476452785e-45, 3.956695937551576e-07, -1.0146220062597144e-35, 0.0, 0.0, 0.0, 1.0118428373280555e-46, 1.0146220062597176e-35, 3.956695937551576e-07, 0.0, 0.0, 0.0, 0.0, 0.0, 0.0, 9.967942979776554e-10]
---
header: 
  seq: 7459
  stamp: 
    secs: 1518210208
    nsecs: 411795378
  frame_id: "swarmone/odom"
child_frame_id: "swarmone/base_link"
pose: 
  pose: 
    position: 
      x: 0.614377074696
      y: 7.26562140242
      z: 0.0
    orientation: 
      x: 0.0
      y: 0.0
      z: 0.70327959395
      w: 0.710913365139
  covariance: [111508742930.16786, -5961062161.12328, 0.0, 0.0, 0.0, -2.7585085200474037e-36, -5961062161.123293, 319637496.5838353, 0.0, 0.0, 0.0, -5.918953567825302e-39, 0.0, 0.0, 5.955847091772605e-07, -9.945125529501876e-43, -1.8996653640518807e-34, 0.0, 0.0, 0.0, -9.94512552950188e-43, 4.965488982140719e-07, -7.80433853564012e-32, 0.0, 0.0, 0.0, -1.8996653640518807e-34, 7.80433853564012e-32, 4.965488982140719e-07, 0.0, -2.7585085200474034e-36, -5.918953567825296e-39, 0.0, 0.0, 0.0, 9.737478025662727e-07]
twist: 
  twist: 
    linear: 
      x: 4.36944841501e-29
      y: 0.0
      z: 0.0
    angular: 
      x: 0.0
      y: 0.0
      z: 9.19541833114e-05
  covariance: [9.999996204549136e-10, 0.0, 0.0, 0.0, 0.0, 0.0, 0.0, 1383050.9511360093, 0.0, 0.0, 0.0, 0.0, 0.0, 0.0, 5.345450007002581e-07, -3.494942782480611e-45, -3.772114959659492e-47, 0.0, 0.0, 0.0, -3.494942782480611e-45, 3.982690400147394e-07, 1.221612936939696e-35, 0.0, 0.0, 0.0, -3.772114959659492e-47, -1.221612936939696e-35, 3.982690400147394e-07, 0.0, 0.0, 0.0, 0.0, 0.0, 0.0, 9.969348590144837e-10]
---
header: 
  seq: 7460
  stamp: 
    secs: 1518210208
    nsecs: 512730598
  frame_id: "swarmone/odom"
child_frame_id: "swarmone/base_link"
pose: 
  pose: 
    position: 
      x: 0.614377074696
      y: 7.26562140242
      z: 0.0
    orientation: 
      x: 0.0
      y: 0.0
      z: 0.713864300398
      w: 0.700284057093
  covariance: [111585484314.80211, -5963499163.991227, 0.0, 0.0, 0.0, -6.385778044682858e-36, -5963499163.9912405, 319681125.0250491, 0.0, 0.0, 0.0, -9.58216835841089e-38, 0.0, 0.0, 7.772693425628322e-07, 7.816144701432789e-42, -2.042233053470069e-34, 0.0, 0.0, 0.0, 7.816144701432789e-42, 6.660883215887628e-07, 4.875194897229425e-31, 0.0, 0.0, 0.0, -2.0422330534700693e-34, -4.875194897229425e-31, 6.660883215887628e-07, 0.0, -6.385778044682858e-36, -9.58216835841089e-38, 0.0, 0.0, 0.0, 2.990768981770897e-06]
twist: 
  twist: 
    linear: 
      x: 4.09935668375e-29
      y: 0.0
      z: 0.0
    angular: 
      x: 0.0
      y: 0.0
      z: 4.00564734619e-05
  covariance: [9.99999628202661e-10, 0.0, 0.0, 0.0, 0.0, 0.0, 0.0, 1383612.5236548488, 0.0, 0.0, 0.0, 0.0, 0.0, 0.0, 7.137227612665942e-07, -1.814050000449483e-44, 3.4868823795395333e-46, 0.0, 0.0, 0.0, -1.8140500004494833e-44, 4.99511334030881e-07, -9.629306961351643e-35, 0.0, 0.0, 0.0, 3.4868823795395333e-46, 9.629306961351644e-35, 4.99511334030881e-07, 0.0, 0.0, 0.0, 0.0, 0.0, 0.0, 9.989985876682811e-10]
---
header: 
  seq: 7461
  stamp: 
    secs: 1518210208
    nsecs: 612302780
  frame_id: "swarmone/odom"
child_frame_id: "swarmone/base_link"
pose: 
  pose: 
    position: 
      x: 0.614377074696
      y: 7.26562140242
      z: 0.0
    orientation: 
      x: 0.0
      y: 0.0
      z: 0.706825407583
      w: 0.70738804287
  covariance: [111661221006.9799, -5964767938.518384, 0.0, 0.0, 0.0, -4.1710816566293616e-36, -5964767938.518398, 319604458.3119756, 0.0, 0.0, 0.0, -4.751223005280303e-38, 0.0, 0.0, 5.932315097578122e-07, -8.44723804188837e-44, -1.6748166958005573e-34, 0.0, 0.0, 0.0, -8.44723804188837e-44, 4.94729603042664e-07, -5.6190855057883594e-33, 0.0, 0.0, 0.0, -1.6748166958005568e-34, 5.6190855057883594e-33, 4.94729603042664e-07, 0.0, -4.1710816566293616e-36, -4.751223005280303e-38, 0.0, 0.0, 0.0, 9.594426878212097e-07]
twist: 
  twist: 
    linear: 
      x: 3.84915975004e-29
      y: 0.0
      z: 0.0
    angular: 
      x: 0.0
      y: 0.0
      z: 0.000124424127504
  covariance: [9.999996227990971e-10, 0.0, 0.0, 0.0, 0.0, 0.0, 0.0, 1384166.6615724342, 0.0, 0.0, 0.0, 0.0, 0.0, 0.0, 5.324697497506772e-07, -3.013545424390151e-45, -2.3167516367918906e-48, 0.0, 0.0, 0.0, -3.013545424390149e-45, 3.9740507635608756e-07, 1.8121919288733108e-36, 0.0, 0.0, 0.0, -2.3167516367918897e-48, -1.8121919288733108e-36, 3.9740507635608756e-07, 0.0, 0.0, 0.0, 0.0, 0.0, 0.0, 9.968893952517342e-10]
---
header: 
  seq: 7462
  stamp: 
    secs: 1518210208
    nsecs: 712355852
  frame_id: "swarmone/odom"
child_frame_id: "swarmone/base_link"
pose: 
  pose: 
    position: 
      x: 0.614377074696
      y: 7.26562140242
      z: 0.0
    orientation: 
      x: 0.0
      y: 0.0
      z: 0.713864294287
      w: 0.700284063321
  covariance: [111737378695.02393, -5966804121.8580065, 0.0, 0.0, 0.0, -5.518919472640682e-36, -5966804121.858022, 319607611.4415568, 0.0, 0.0, 0.0, -9.060939700149746e-38, 0.0, 0.0, 7.75840898483026e-07, 6.770756712918662e-42, -1.7861249558915558e-34, 0.0, 0.0, 0.0, 6.770756712918662e-42, 6.644856047946923e-07, 2.6580853270622877e-31, 0.0, 0.0, 0.0, -1.7861249558915558e-34, -2.6580853270622877e-31, 6.644856047946923e-07, 0.0, -5.5189194726406825e-36, -9.060939700149746e-38, 0.0, 0.0, 0.0, 2.9621587522772056e-06]
twist: 
  twist: 
    linear: 
      x: 3.61317708445e-29
      y: 0.0
      z: 0.0
    angular: 
      x: 0.0
      y: 0.0
      z: 4.04427097643e-05
  covariance: [9.999996247222608e-10, 0.0, 0.0, 0.0, 0.0, 0.0, 0.0, 1384723.6247443603, 0.0, 0.0, 0.0, 0.0, 0.0, 0.0, 7.121509727949609e-07, -1.5686142302025315e-44, 3.0143181367271484e-46, 0.0, 0.0, 0.0, -1.5686142302025315e-44, 4.983135035743622e-07, -1.4509548018611755e-34, 0.0, 0.0, 0.0, 3.0143181367271484e-46, 1.4509548018611755e-34, 4.983135035743622e-07, 0.0, 0.0, 0.0, 0.0, 0.0, 0.0, 9.989889317519502e-10]
---
header: 
  seq: 7463
  stamp: 
    secs: 1518210208
    nsecs: 812371254
  frame_id: "swarmone/odom"
child_frame_id: "swarmone/base_link"
pose: 
  pose: 
    position: 
      x: 0.614377074696
      y: 7.26562140242
      z: 0.0
    orientation: 
      x: 0.0
      y: 0.0
      z: 0.713863817949
      w: 0.700284548896
  covariance: [111813535001.95581, -5968078074.430192, 0.0, 0.0, 0.0, -3.6064103770913226e-36, -5968078074.430206, 319530573.6048204, 0.0, 0.0, 0.0, -6.926922702369288e-38, 0.0, 0.0, 5.860045846107784e-07, 1.7087223176257184e-42, -1.4573381804603756e-34, 0.0, 0.0, 0.0, 1.708722317625719e-42, 4.891915437062648e-07, 2.3295852078377928e-31, 0.0, 0.0, 0.0, -1.4573381804603756e-34, -2.3295852078377928e-31, 4.891915437062648e-07, 0.0, -3.6064103770913226e-36, -6.926922702369288e-38, 0.0, 0.0, 0.0, 9.165273435836479e-07]
twist: 
  twist: 
    linear: 
      x: 3.39173574359e-29
      y: 0.0
      z: 0.0
    angular: 
      x: 0.0
      y: 0.0
      z: 0.000130218534556
  covariance: [9.999996245722433e-10, 0.0, 0.0, 0.0, 0.0, 0.0, 0.0, 1385280.5275228866, 0.0, 0.0, 0.0, 0.0, 0.0, 0.0, 5.261312733470059e-07, -2.4358092779502986e-45, 4.678223642915258e-47, 0.0, 0.0, 0.0, -2.435809277950299e-45, 3.9479699970511346e-07, 1.774575809549692e-36, 0.0, 0.0, 0.0, 4.678223642915257e-47, -1.774575809549692e-36, 3.9479699970511346e-07, 0.0, 0.0, 0.0, 0.0, 0.0, 0.0, 9.967445350100247e-10]
---
header: 
  seq: 7464
  stamp: 
    secs: 1518210208
    nsecs: 912127733
  frame_id: "swarmone/odom"
child_frame_id: "swarmone/base_link"
pose: 
  pose: 
    position: 
      x: 0.614377074696
      y: 7.26562140242
      z: 0.0
    orientation: 
      x: 0.0
      y: 0.0
      z: 0.713863772209
      w: 0.700284595523
  covariance: [111889535302.75072, -5969348468.692993, 0.0, 0.0, 0.0, -1.9965688925471678e-36, -5969348468.6930065, 319453737.45207983, 0.0, 0.0, 0.0, -3.8346563429139315e-38, 0.0, 0.0, 5.932315223250316e-07, 1.2789850487486659e-42, -1.3882595083620583e-34, 0.0, 0.0, 0.0, 1.2789850487486659e-42, 4.947296004335842e-07, 2.4510057003768673e-32, 0.0, 0.0, 0.0, -1.3882595083620583e-34, -2.4510057003768673e-32, 4.947296004335842e-07, 0.0, -1.996568892547168e-36, -3.834656342913931e-38, 0.0, 0.0, 0.0, 9.594426878214608e-07]
twist: 
  twist: 
    linear: 
      x: 3.18437529104e-29
      y: 0.0
      z: 0.0
    angular: 
      x: 0.0
      y: 0.0
      z: 9.33180958703e-05
  covariance: [9.999996235380972e-10, 0.0, 0.0, 0.0, 0.0, 0.0, 0.0, 1385836.1372931623, 0.0, 0.0, 0.0, 0.0, 0.0, 0.0, 5.324697744429197e-07, -2.4939012843722523e-45, 4.789793031964347e-47, 0.0, 0.0, 0.0, -2.4939012843722523e-45, 3.974052349698346e-07, -2.4052085377263204e-35, 0.0, 0.0, 0.0, 4.789793031964349e-47, 2.4052085377263204e-35, 3.974052349698346e-07, 0.0, 0.0, 0.0, 0.0, 0.0, 0.0, 9.96889395251743e-10]
---
header: 
  seq: 7465
  stamp: 
    secs: 1518210209
    nsecs:  11989832
  frame_id: "swarmone/odom"
child_frame_id: "swarmone/base_link"
pose: 
  pose: 
    position: 
      x: 0.614377074696
      y: 7.26562140242
      z: 0.0
    orientation: 
      x: 0.0
      y: 0.0
      z: 0.713863844663
      w: 0.700284521665
  covariance: [111965657246.74495, -5970619900.612225, 0.0, 0.0, 0.0, -1.9996321392719544e-36, -5970619900.612239, 319376817.28031003, 0.0, 0.0, 0.0, -3.840530687940547e-38, 0.0, 0.0, 6.047316058635438e-07, 1.7655482255660323e-42, -1.3383009961354067e-34, 0.0, 0.0, 0.0, 1.7655482255660323e-42, 5.03697794482298e-07, 1.7535755645655287e-31, 0.0, 0.0, 0.0, -1.338300996135407e-34, -1.7535755645655287e-31, 5.03697794482298e-07, 0.0, -1.9996321392719544e-36, -3.8405306879405475e-38, 0.0, 0.0, 0.0, 1.0309682615521451e-06]
twist: 
  twist: 
    linear: 
      x: 2.98950027768e-29
      y: 0.0
      z: 0.0
    angular: 
      x: 0.0
      y: 0.0
      z: 0.000115833606738
  covariance: [9.99999623960398e-10, 0.0, 0.0, 0.0, 0.0, 0.0, 0.0, 1386392.4841077244, 0.0, 0.0, 0.0, 0.0, 0.0, 0.0, 5.426654129501051e-07, -2.6960668670779973e-45, 5.178071679094837e-47, 0.0, 0.0, 0.0, -2.6960668670779963e-45, 4.017031883431482e-07, -9.541985259382107e-36, 0.0, 0.0, 0.0, 5.178071679094836e-47, 9.541985259382117e-36, 4.017031883431482e-07, 0.0, 0.0, 0.0, 0.0, 0.0, 0.0, 9.971041583847625e-10]
---
header: 
  seq: 7466
  stamp: 
    secs: 1518210209
    nsecs: 111879349
  frame_id: "swarmone/odom"
child_frame_id: "swarmone/base_link"
pose: 
  pose: 
    position: 
      x: 0.614377074696
      y: 7.26562140242
      z: 0.0
    orientation: 
      x: 0.0
      y: 0.0
      z: 0.713863814611
      w: 0.7002845523
  covariance: [112041841321.84174, -5971891360.736248, 0.0, 0.0, 0.0, -1.7621197973010615e-36, -5971891360.736264, 319299871.97349936, 0.0, 0.0, 0.0, -3.38437721733596e-38, 0.0, 0.0, 5.835381835766072e-07, 1.3820857103903004e-42, -1.196871560260514e-34, 0.0, 0.0, 0.0, 1.3820857103903e-42, 4.873183858234418e-07, -2.710268900185643e-31, 0.0, 0.0, 0.0, -1.1968715602605139e-34, 2.710268900185643e-31, 4.873183858234418e-07, 0.0, -1.7621197973010612e-36, -3.38437721733596e-38, 0.0, 0.0, 0.0, 9.022222288372837e-07]
twist: 
  twist: 
    linear: 
      x: 2.80650447756e-29
      y: 0.0
      z: 0.0
    angular: 
      x: 0.0
      y: 0.0
      z: 0.000132271825426
  covariance: [9.99999624069839e-10, 0.0, 0.0, 0.0, 0.0, 0.0, 0.0, 1386949.1326126691, 0.0, 0.0, 0.0, 0.0, 0.0, 0.0, 5.239800426019374e-07, -1.9472102794786997e-45, 3.739816527793629e-47, 0.0, 0.0, 0.0, -1.9472102794787003e-45, 3.9392235634039485e-07, -5.1721886623056975e-36, 0.0, 0.0, 0.0, 3.739816527793629e-47, 5.1721886623056975e-36, 3.9392235634039485e-07, 0.0, 0.0, 0.0, 0.0, 0.0, 0.0, 9.96693202713672e-10]
---
header: 
  seq: 7467
  stamp: 
    secs: 1518210209
    nsecs: 212719440
  frame_id: "swarmone/odom"
child_frame_id: "swarmone/base_link"
pose: 
  pose: 
    position: 
      x: 0.614377074696
      y: 7.26562140242
      z: 0.0
    orientation: 
      x: 0.0
      y: 0.0
      z: 0.710354423471
      w: 0.703844153954
  covariance: [112118792238.07146, -5973174918.247359, 0.0, 0.0, 0.0, -6.314681766300921e-36, -5973174918.2473755, 319222224.3591799, 0.0, 0.0, 0.0, -6.343477635963562e-38, 0.0, 0.0, 8.439112839160769e-07, 3.4371283021753313e-42, -1.1416100664242404e-34, 0.0, 0.0, 0.0, 3.4371283021753326e-42, 7.470434292430782e-07, 6.50701098849073e-32, 0.0, 0.0, 0.0, -1.1416100664242404e-34, -6.50701098849073e-32, 7.470434292430782e-07, 0.0, -6.314681766300921e-36, -6.343477635963562e-38, 0.0, 0.0, 0.0, 4.907654357751451e-06]
twist: 
  twist: 
    linear: 
      x: 2.63317712436e-29
      y: 0.0
      z: 0.0
    angular: 
      x: 0.0
      y: 0.0
      z: 2.44267013191e-05
  covariance: [9.999996278303033e-10, 0.0, 0.0, 0.0, 0.0, 0.0, 0.0, 1387511.2294445492, 0.0, 0.0, 0.0, 0.0, 0.0, 0.0, 7.904021318975807e-07, -1.7242534912612187e-44, 1.5861423401667282e-46, 0.0, 0.0, 0.0, -1.7242534912612187e-44, 5.685057205355927e-07, 2.2659742141305082e-36, 0.0, 0.0, 0.0, 1.5861423401667286e-46, -2.2659742141305082e-36, 5.685057205355927e-07, 0.0, 0.0, 0.0, 0.0, 0.0, 0.0, 9.993893321649876e-10]
---
header: 
  seq: 7468
  stamp: 
    secs: 1518210209
    nsecs: 312290192
  frame_id: "swarmone/odom"
child_frame_id: "swarmone/base_link"
pose: 
  pose: 
    position: 
      x: 0.614377074696
      y: 7.26562140242
      z: 0.0
    orientation: 
      x: 0.0
      y: 0.0
      z: 0.713863874791
      w: 0.700284490952
  covariance: [112194826581.19342, -5974822036.266657, 0.0, 0.0, 0.0, -3.6934658011221483e-36, -5974822036.266673, 319185440.7257334, 0.0, 0.0, 0.0, -4.416054668696365e-38, 0.0, 0.0, 5.884419037084671e-07, 1.582804014673074e-42, -1.0636597320487856e-34, 0.0, 0.0, 0.0, 1.5828040146730737e-42, 4.910509797447851e-07, 5.385366129757701e-32, 0.0, 0.0, 0.0, -1.0636597320487856e-34, -5.385366129757701e-32, 4.910509797447851e-07, 0.0, -3.6934658011221483e-36, -4.4160546686963656e-38, 0.0, 0.0, 0.0, 9.308324583290594e-07]
twist: 
  twist: 
    linear: 
      x: 2.4724653893e-29
      y: 0.0
      z: 0.0
    angular: 
      x: 0.0
      y: 0.0
      z: 0.000160285020659
  covariance: [9.99999622793264e-10, 0.0, 0.0, 0.0, 0.0, 0.0, 0.0, 1388066.3997885357, 0.0, 0.0, 0.0, 0.0, 0.0, 0.0, 5.282630679501892e-07, -1.825562219859111e-45, 3.500737944371243e-47, 0.0, 0.0, 0.0, -1.8255622198591103e-45, 3.956685980660688e-07, -2.8968984732099765e-35, 0.0, 0.0, 0.0, 3.500737944371243e-47, 2.8968984732099765e-35, 3.956685980660688e-07, 0.0, 0.0, 0.0, 0.0, 0.0, 0.0, 9.967942979775984e-10]
---
header: 
  seq: 7469
  stamp: 
    secs: 1518210209
    nsecs: 412133694
  frame_id: "swarmone/odom"
child_frame_id: "swarmone/base_link"
pose: 
  pose: 
    position: 
      x: 0.614377074696
      y: 7.26562140242
      z: 0.0
    orientation: 
      x: 0.0
      y: 0.0
      z: 0.713863824628
      w: 0.700284542088
  covariance: [112271099570.93228, -5976092102.857027, 0.0, 0.0, 0.0, -1.4493484100497843e-36, -5976092102.857043, 319108515.67815334, 0.0, 0.0, 0.0, -2.7836599572706185e-38, 0.0, 0.0, 5.908507421636131e-07, 1.218749815414744e-42, -1.007243577030305e-34, 0.0, 0.0, 0.0, 1.2187498154147436e-42, 4.928969997891354e-07, 1.7836841041321662e-31, 0.0, 0.0, 0.0, -1.007243577030305e-34, -1.7836841041321662e-31, 4.928969997891354e-07, 0.0, -1.4493484100497842e-36, -2.783659957270618e-38, 0.0, 0.0, 0.0, 9.451375730755061e-07]
twist: 
  twist: 
    linear: 
      x: 2.32118309023e-29
      y: 0.0
      z: 0.0
    angular: 
      x: 0.0
      y: 0.0
      z: 0.000126297437031
  covariance: [9.999996238861876e-10, 0.0, 0.0, 0.0, 0.0, 0.0, 0.0, 1388623.2395718219, 0.0, 0.0, 0.0, 0.0, 0.0, 0.0, 5.303758659788435e-07, -1.7663100326900225e-45, 3.3923798333487233e-47, 0.0, 0.0, 0.0, -1.7663100326900216e-45, 3.965383224695319e-07, 4.32301294633945e-35, 0.0, 0.0, 0.0, 3.392379833348723e-47, -4.323012946339444e-35, 3.965383224695319e-07, 0.0, 0.0, 0.0, 0.0, 0.0, 0.0, 9.968425624991261e-10]
---
header: 
  seq: 7470
  stamp: 
    secs: 1518210209
    nsecs: 512160063
  frame_id: "swarmone/odom"
child_frame_id: "swarmone/base_link"
pose: 
  pose: 
    position: 
      x: 0.614377074696
      y: 7.26562140242
      z: 0.0
    orientation: 
      x: 0.0
      y: 0.0
      z: 0.71386381795
      w: 0.700284548896
  covariance: [112347553636.84834, -5977364186.233206, 0.0, 0.0, 0.0, -1.3424081131691256e-36, -5977364186.233222, 319031447.14469385, 0.0, 0.0, 0.0, -2.5782622949784983e-38, 0.0, 0.0, 5.860045851713564e-07, 1.098403652655683e-42, -9.363148788664617e-35, 0.0, 0.0, 0.0, 1.0984036526556827e-42, 4.89191544839035e-07, -1.6831922956704517e-32, 0.0, 0.0, 0.0, -9.363148788664617e-35, 1.6831922956704517e-32, 4.89191544839035e-07, 0.0, -1.3424081131691256e-36, -2.5782622949784983e-38, 0.0, 0.0, 0.0, 9.165273435836102e-07]
twist: 
  twist: 
    linear: 
      x: 2.17891376362e-29
      y: 0.0
      z: 0.0
    angular: 
      x: 0.0
      y: 0.0
      z: 0.000130218534703
  covariance: [9.999996246157417e-10, 0.0, 0.0, 0.0, 0.0, 0.0, 0.0, 1389181.2485398368, 0.0, 0.0, 0.0, 0.0, 0.0, 0.0, 5.261312742432718e-07, -1.562523629363035e-45, 3.0009864061545175e-47, 0.0, 0.0, 0.0, -1.562523629363035e-45, 3.947970004268376e-07, 1.9080663415460155e-35, 0.0, 0.0, 0.0, 3.0009864061545175e-47, -1.9080663415460155e-35, 3.947970004268376e-07, 0.0, 0.0, 0.0, 0.0, 0.0, 0.0, 9.967445350100253e-10]
---
header: 
  seq: 7471
  stamp: 
    secs: 1518210209
    nsecs: 612031221
  frame_id: "swarmone/odom"
child_frame_id: "swarmone/base_link"
pose: 
  pose: 
    position: 
      x: 0.614377074696
      y: 7.26562140242
      z: 0.0
    orientation: 
      x: 0.0
      y: 0.0
      z: 0.710353490459
      w: 0.703845095595
  covariance: [112423930408.39694, -5978634041.034303, 0.0, 0.0, 0.0, -1.2582967268215586e-36, -5978634041.034318, 318954501.3332389, 0.0, 0.0, 0.0, -1.57354906465976e-38, 0.0, 0.0, 5.884419247184144e-07, 5.046191245429905e-43, -8.827998124779783e-35, 0.0, 0.0, 0.0, 5.046191245429906e-43, 4.910510029424897e-07, 1.1528928793739557e-31, 0.0, 0.0, 0.0, -8.827998124779783e-35, -1.1528928793739557e-31, 4.910510029424897e-07, 0.0, -1.2582967268215586e-36, -1.5735490646597602e-38, 0.0, 0.0, 0.0, 9.308324583294511e-07]
twist: 
  twist: 
    linear: 
      x: 2.04555865618e-29
      y: 0.0
      z: 0.0
    angular: 
      x: 0.0
      y: 0.0
      z: 0.000128228016898
  covariance: [9.99999623996648e-10, 0.0, 0.0, 0.0, 0.0, 0.0, 0.0, 1389738.5407687288, 0.0, 0.0, 0.0, 0.0, 0.0, 0.0, 5.282631090240574e-07, -1.5107209503006035e-45, 1.3907371587451467e-47, 0.0, 0.0, 0.0, -1.5107209503006038e-45, 3.9566885750849747e-07, 4.924439039172459e-36, 0.0, 0.0, 0.0, 1.3907371587451471e-47, -4.924439039172459e-36, 3.9566885750849747e-07, 0.0, 0.0, 0.0, 0.0, 0.0, 0.0, 9.967942979776139e-10]
---
header: 
  seq: 7472
  stamp: 
    secs: 1518210209
    nsecs: 711765051
  frame_id: "swarmone/odom"
child_frame_id: "swarmone/base_link"
pose: 
  pose: 
    position: 
      x: 0.614332171513
      y: 7.26848965879
      z: 0.0
    orientation: 
      x: 0.0
      y: 0.0
      z: 0.867423485202
      w: 0.497570595312
  covariance: [112500252538.26363, -5980280604.255371, 0.0, 0.0, 0.0, -1.1091978498487985e-36, -5980280604.255386, 318917343.2343599, 0.0, 0.0, 0.0, -4.210543365465843e-37, 0.0, 0.0, 5.955847603552652e-07, 4.821898924395873e-41, -8.416062781770786e-35, 0.0, 0.0, 0.0, 4.821898924395874e-41, 4.965491818011553e-07, 4.254342909295153e-30, 0.0, 0.0, 0.0, -8.416062781770789e-35, -4.254342909295153e-30, 4.965491818011553e-07, 0.0, -1.1091978498487985e-36, -4.210543365465843e-37, 0.0, 0.0, 0.0, 9.737478025675244e-07]
twist: 
  twist: 
    linear: 
      x: 0.0573999783859
      y: 0.0
      z: 0.0
    angular: 
      x: 0.0
      y: 0.0
      z: -0.0197241374187
  covariance: [9.999996234471313e-10, 0.0, 0.0, 0.0, 0.0, 0.0, 0.0, 1390295.2154038388, 0.0, 0.0, 0.0, 0.0, 0.0, 0.0, 5.345451023739736e-07, -1.3366578251926114e-45, 7.816590817330213e-46, 0.0, 0.0, 0.0, -1.3366578251926114e-45, 3.982697188424322e-07, -3.853045709076924e-34, 0.0, 0.0, 0.0, 7.816590817330212e-46, 3.853045709076924e-34, 3.982697188424322e-07, 0.0, 0.0, 0.0, 0.0, 0.0, 0.0, 9.96934859014519e-10]
---
header: 
  seq: 7473
  stamp: 
    secs: 1518210209
    nsecs: 812623501
  frame_id: "swarmone/odom"
child_frame_id: "swarmone/base_link"
pose: 
  pose: 
    position: 
      x: 0.610914956178
      y: 7.28239923557
      z: 0.0
    orientation: 
      x: 0.0
      y: 0.0
      z: 0.636536851329
      w: 0.771246288095
  covariance: [112566917681.46579, -5962534808.843043, 0.0, 0.0, 0.0, -1.7990206684038978e-15, -5962534808.843059, 316877896.08761764, 0.0, 0.0, 0.0, -2.973592103567821e-16, 0.0, 0.0, 5.955848365499206e-07, 1.0285334608795566e-20, -1.0058300593891256e-13, 0.0, 0.0, 0.0, 1.0285334608795565e-20, 4.965489275961489e-07, -7.510974796171188e-27, 0.0, 0.0, 0.0, -1.0058300593891257e-13, -7.495517734225488e-27, 4.96548927596124e-07, 0.0, -1.7990206684038978e-15, -2.9735921035678217e-16, 0.0, 0.0, 0.0, 9.73747802569389e-07]
twist: 
  twist: 
    linear: 
      x: 0.237599934268
      y: 0.0
      z: 0.0
    angular: 
      x: 0.0
      y: 0.0
      z: -0.13975478866
  covariance: [9.999996279021402e-10, 0.0, 0.0, 0.0, 0.0, 0.0, 0.0, 1390858.3183827545, 0.0, 0.0, 0.0, 0.0, 0.0, 0.0, 5.345452537525319e-07, -1.819297221389413e-24, -3.497190196564149e-25, 0.0, 0.0, 0.0, -1.8192972213894132e-24, 3.982707296266519e-07, -1.0625319293328137e-31, 0.0, 0.0, 0.0, -3.4971901965641507e-25, -1.069846204040992e-31, 3.982707296266519e-07, 0.0, 0.0, 0.0, 0.0, 0.0, 0.0, 9.969348590145716e-10]
---
header: 
  seq: 7474
  stamp: 
    secs: 1518210209
    nsecs: 912246704
  frame_id: "swarmone/odom"
child_frame_id: "swarmone/base_link"
pose: 
  pose: 
    position: 
      x: 0.615460655118
      y: 7.30870752356
      z: 0.0
    orientation: 
      x: 0.0
      y: 0.0
      z: 0.744643843814
      w: 0.667462018298
  covariance: [112641854023.52704, -5971727342.872623, 0.0, 0.0, 0.0, -7.898803834378644e-15, -5971727342.872639, 317633882.2624743, 0.0, 0.0, 0.0, 3.146034679576344e-16, 0.0, 0.0, 5.932315130923874e-07, 1.9266400340261614e-19, -4.13443585631533e-13, 0.0, 0.0, 0.0, 1.9266400340261616e-19, 4.947300170115091e-07, 6.518049817651117e-25, 0.0, 0.0, 0.0, -4.13443585631533e-13, 6.517859820515573e-25, 4.947300170110888e-07, 0.0, -7.898803834378644e-15, 3.1460346795763447e-16, 0.0, 0.0, 0.0, 9.59442687821239e-07]
twist: 
  twist: 
    linear: 
      x: 0.299699981973
      y: 0.0
      z: 0.0
    angular: 
      x: 0.0
      y: 0.0
