header: 
  seq: 3876
  stamp: 
    secs: 1518209850
    nsecs: 112347364
  frame_id: "swarmone/odom"
child_frame_id: "swarmone/base_link"
pose: 
  pose: 
    position: 
      x: 0.413703648787
      y: 3.03624834071
      z: 0.0
    orientation: 
      x: 0.0
      y: 0.0
      z: 0.685288897735
      w: 0.728271327626
  covariance: [4330924748.856582, -310370886.7550188, 0.0, 0.0, 0.0, 8.464187144923716e-48, -310370886.7550195, 22291744.443227507, 0.0, 0.0, 0.0, -4.846994107131636e-49, 0.0, 0.0, 5.908507836106792e-07, 2.1559542798021845e-53, 5.633723183964085e-46, 0.0, 0.0, 0.0, 2.155954279802184e-53, 4.92897126859524e-07, 3.7986397020128884e-32, 0.0, 0.0, 0.0, 5.633723183964085e-46, -3.7986397020128884e-32, 4.92897126859524e-07, 0.0, 8.464187144923717e-48, -4.8469941071316355e-49, 0.0, 0.0, 0.0, 9.451375730764995e-07]
twist: 
  twist: 
    linear: 
      x: -1.2901144168e-40
      y: 0.0
      z: 0.0
    angular: 
      x: 0.0
      y: 0.0
      z: 0.000126297437329
  covariance: [9.99999626252669e-10, 0.0, 0.0, 0.0, 0.0, 0.0, 0.0, 194036.64925272373, 0.0, 0.0, 0.0, 0.0, 0.0, 0.0, 5.303759478891917e-07, 9.863658098382172e-57, 6.003922415927511e-58, 0.0, 0.0, 0.0, 9.863658098382174e-57, 3.9653886306115756e-07, -7.839837185587542e-36, 0.0, 0.0, 0.0, 6.003922415927514e-58, 7.839837185587542e-36, 3.9653886306115756e-07, 0.0, 0.0, 0.0, 0.0, 0.0, 0.0, 9.968425624991555e-10]
---
header: 
  seq: 3877
  stamp: 
    secs: 1518209850
    nsecs: 211805105
  frame_id: "swarmone/odom"
child_frame_id: "swarmone/base_link"
pose: 
  pose: 
    position: 
      x: 0.413703648787
      y: 3.03624834071
      z: 0.0
    orientation: 
      x: 0.0
      y: 0.0
      z: 0.692537293143
      w: 0.721382074636
  covariance: [4336501198.147156, -310738178.406655, 0.0, 0.0, 0.0, 7.793307311646245e-48, -310738178.4066557, 22315796.768937953, 0.0, 0.0, 0.0, -3.686657737643934e-49, 0.0, 0.0, 5.979109098654002e-07, 1.7867612760347233e-53, 5.3210125277105624e-46, 0.0, 0.0, 0.0, 1.7867612760347228e-53, 4.983554856285852e-07, -1.2851592768285229e-30, 0.0, 0.0, 0.0, 5.321012527710563e-46, 1.2851592768285229e-30, 4.983554856285852e-07, 0.0, 7.793307311646243e-48, -3.686657737643933e-49, 0.0, 0.0, 0.0, 9.88052917313162e-07]
twist: 
  twist: 
    linear: 
      x: -1.2114619459e-40
      y: 0.0
      z: 0.0
    angular: 
      x: 0.0
      y: 0.0
      z: 0.000151049276787
  covariance: [9.999996223383577e-10, 0.0, 0.0, 0.0, 0.0, 0.0, 0.0, 194186.07066091982, 0.0, 0.0, 0.0, 0.0, 0.0, 0.0, 5.366020530167477e-07, 1.0012521634994085e-56, 4.087139951488903e-58, 0.0, 0.0, 0.0, 1.0012521634994087e-56, 3.99131495547005e-07, -3.6806279924258995e-37, 0.0, 0.0, 0.0, 4.087139951488904e-58, 3.6806279924258995e-37, 3.99131495547005e-07, 0.0, 0.0, 0.0, 0.0, 0.0, 0.0, 9.969790129491102e-10]
---
header: 
  seq: 3878
  stamp: 
    secs: 1518209850
    nsecs: 312201738
  frame_id: "swarmone/odom"
child_frame_id: "swarmone/base_link"
pose: 
  pose: 
    position: 
      x: 0.413703648787
      y: 3.03624834071
      z: 0.0
    orientation: 
      x: 0.0
      y: 0.0
      z: 0.688921676564
      w: 0.724835790756
  covariance: [4342141840.994962, -311053117.0314735, 0.0, 0.0, 0.0, 7.351252748769703e-48, -311053117.03147423, 22332109.473615956, 0.0, 0.0, 0.0, -3.486760843126733e-49, 0.0, 0.0, 5.932315664032363e-07, 1.620369934492448e-53, 4.9904214365614e-46, 0.0, 0.0, 0.0, 1.6203699344924476e-53, 4.947297770239733e-07, 2.845397429995339e-31, 0.0, 0.0, 0.0, 4.9904214365614e-46, -2.845397429995339e-31, 4.947297770239733e-07, 0.0, 7.351252748769703e-48, -3.486760843126733e-49, 0.0, 0.0, 0.0, 9.59442687822528e-07]
twist: 
  twist: 
    linear: 
      x: -1.13695168085e-40
      y: 0.0
      z: 0.0
    angular: 
      x: 0.0
      y: 0.0
      z: 0.000124424128187
  covariance: [9.99999626084894e-10, 0.0, 0.0, 0.0, 0.0, 0.0, 0.0, 194336.9804050059, 0.0, 0.0, 0.0, 0.0, 0.0, 0.0, 5.324698617836598e-07, 8.955358537817495e-57, 4.5527733921604e-58, 0.0, 0.0, 0.0, 8.955358537817497e-57, 3.974058147572245e-07, -4.823036857138499e-35, 0.0, 0.0, 0.0, 4.5527733921604024e-58, 4.823036857138499e-35, 3.974058147572245e-07, 0.0, 0.0, 0.0, 0.0, 0.0, 0.0, 9.96889395251774e-10]
---
header: 
  seq: 3879
  stamp: 
    secs: 1518209850
    nsecs: 412872314
  frame_id: "swarmone/odom"
child_frame_id: "swarmone/base_link"
pose: 
  pose: 
    position: 
      x: 0.413703648787
      y: 3.03624834071
      z: 0.0
    orientation: 
      x: 0.0
      y: 0.0
      z: 0.688923863783
      w: 0.724833711902
  covariance: [4347801164.010607, -311397400.51243603, 0.0, 0.0, 0.0, 4.993501525734513e-47, -311397400.51243675, 22352488.473740667, 0.0, 0.0, 0.0, -2.5386977717694527e-48, 0.0, 0.0, 9.131457313007986e-07, 1.0792911938362942e-52, 3.184159119480963e-46, 0.0, 0.0, 0.0, 1.079291193836294e-52, 8.463125922567886e-07, -1.0873901134836697e-30, 0.0, 0.0, 0.0, 3.184159119480964e-46, 1.0873901134836697e-30, 8.463125922567886e-07, 0.0, 4.993501525734513e-47, -2.5386977717694527e-48, 0.0, 0.0, 0.0, 1.0014580322127664e-05]
twist: 
  twist: 
    linear: 
      x: -1.06684398698e-40
      y: 0.0
      z: 0.0
    angular: 
      x: 0.0
      y: 0.0
      z: 1.19765435921e-05
  covariance: [9.99999627165342e-10, 0.0, 0.0, 0.0, 0.0, 0.0, 0.0, 194488.3804090307, 0.0, 0.0, 0.0, 0.0, 0.0, 0.0, 8.77685686804729e-07, 8.538652214891472e-56, 4.341027015578944e-57, 0.0, 0.0, 0.0, 8.538652214891472e-56, 6.844113264973375e-07, 6.063646391329137e-34, 0.0, 0.0, 0.0, 4.341027015578945e-57, -6.063646391329137e-34, 6.844113264973375e-07, 0.0, 0.0, 0.0, 0.0, 0.0, 0.0, 9.99700586261704e-10]
---
header: 
  seq: 3880
  stamp: 
    secs: 1518209850
    nsecs: 512303114
  frame_id: "swarmone/odom"
child_frame_id: "swarmone/base_link"
pose: 
  pose: 
    position: 
      x: 0.413703648787
      y: 3.03624834071
      z: 0.0
    orientation: 
      x: 0.0
      y: 0.0
      z: 0.685288908158
      w: 0.728271317818
  covariance: [4353396576.073891, -311737743.81288046, 0.0, 0.0, 0.0, 2.6416483987661903e-47, -311737743.8128811, 22372631.53716506, 0.0, 0.0, 0.0, -1.3865463448856553e-48, 0.0, 0.0, 5.979109084001103e-07, 1.7589976152170018e-53, 4.399057599386556e-46, 0.0, 0.0, 0.0, 1.758997615217001e-53, 4.983554409101643e-07, -5.101963195520288e-31, 0.0, 0.0, 0.0, 4.399057599386556e-46, 5.101963195520288e-31, 4.983554409101643e-07, 0.0, 2.641648398766191e-47, -1.386546344885655e-48, 0.0, 0.0, 0.0, 9.88052917313371e-07]
twist: 
  twist: 
    linear: 
      x: -1.00181319429e-40
      y: 0.0
      z: 0.0
    angular: 
      x: 0.0
      y: 0.0
      z: 0.000120839421278
  covariance: [9.999996222300089e-10, 0.0, 0.0, 0.0, 0.0, 0.0, 0.0, 194637.99306181152, 0.0, 0.0, 0.0, 0.0, 0.0, 0.0, 5.366020505503957e-07, 8.31407187926903e-57, 5.056624223813739e-58, 0.0, 0.0, 0.0, 8.314071879269028e-57, 3.991314972287792e-07, -1.052099305513716e-34, 0.0, 0.0, 0.0, 5.056624223813735e-58, 1.052099305513716e-34, 3.991314972287792e-07, 0.0, 0.0, 0.0, 0.0, 0.0, 0.0, 9.969790129491087e-10]
---
header: 
  seq: 3881
  stamp: 
    secs: 1518209850
    nsecs: 611770391
  frame_id: "swarmone/odom"
child_frame_id: "swarmone/base_link"
pose: 
  pose: 
    position: 
      x: 0.413703648787
      y: 3.03624834071
      z: 0.0
    orientation: 
      x: 0.0
      y: 0.0
      z: 0.685289404137
      w: 0.728270851111
  covariance: [4358996665.124498, -312106441.8604366, 0.0, 0.0, 0.0, 1.4611228305423527e-47, -312106441.86043733, 22396767.671879467, 0.0, 0.0, 0.0, -8.894036975873358e-49, 0.0, 0.0, 7.793781405019462e-07, 5.655051671440394e-53, 4.603163818057183e-46, 0.0, 0.0, 0.0, 5.655051671440392e-53, 6.684636365997443e-07, -1.9415252345748317e-30, 0.0, 0.0, 0.0, 4.603163818057183e-46, 1.9415252345748317e-30, 6.684636365997443e-07, 0.0, 1.4611228305423524e-47, -8.894036975873358e-49, 0.0, 0.0, 0.0, 3.03368432600681e-06]
twist: 
  twist: 
    linear: 
      x: -9.40732414273e-41
      y: 0.0
      z: 0.0
    angular: 
      x: 0.0
      y: 0.0
      z: 3.94907555406e-05
  covariance: [9.99999622376462e-10, 0.0, 0.0, 0.0, 0.0, 0.0, 0.0, 194787.73735428602, 0.0, 0.0, 0.0, 0.0, 0.0, 0.0, 7.160483805852058e-07, 4.1510275954863695e-56, 2.5267811405397483e-57, 0.0, 0.0, 0.0, 4.151027595486369e-56, 5.01295670747356e-07, -1.943667168746004e-34, 0.0, 0.0, 0.0, 2.5267811405397477e-57, 1.9436671687460047e-34, 5.01295670747356e-07, 0.0, 0.0, 0.0, 0.0, 0.0, 0.0, 9.990127306164545e-10]
---
header: 
  seq: 3882
  stamp: 
    secs: 1518209850
    nsecs: 712203026
  frame_id: "swarmone/odom"
child_frame_id: "swarmone/base_link"
pose: 
  pose: 
    position: 
      x: 0.413703648787
      y: 3.03624834071
      z: 0.0
    orientation: 
      x: 0.0
      y: 0.0
      z: 0.688921671904
      w: 0.724835795184
  covariance: [4364656944.942052, -312479073.7496312, 0.0, 0.0, 0.0, 9.668023152393137e-48, -312479073.74963194, 22421159.531461313, 0.0, 0.0, 0.0, -5.512606336257926e-49, 0.0, 0.0, 5.908507833637288e-07, 1.232574768313547e-53, 3.8550673654583856e-46, 0.0, 0.0, 0.0, 1.2325747683135471e-53, 4.928971267312532e-07, -2.3323947347145674e-32, 0.0, 0.0, 0.0, 3.8550673654583856e-46, 2.3323947347145674e-32, 4.928971267312532e-07, 0.0, 9.668023152393137e-48, -5.5126063362579266e-49, 0.0, 0.0, 0.0, 9.451375730765432e-07]
twist: 
  twist: 
    linear: 
      x: -8.82853315585e-41
      y: 0.0
      z: 0.0
    angular: 
      x: 0.0
      y: 0.0
      z: 0.000126297437209
  covariance: [9.999996262268453e-10, 0.0, 0.0, 0.0, 0.0, 0.0, 0.0, 194939.01286237277, 0.0, 0.0, 0.0, 0.0, 0.0, 0.0, 5.30375947592687e-07, 6.762942921349685e-57, 3.4392857960418554e-58, 0.0, 0.0, 0.0, 6.762942921349682e-57, 3.9653886608142395e-07, 6.871536333692185e-35, 0.0, 0.0, 0.0, 3.439285796041854e-58, -6.871536333692185e-35, 3.9653886608142395e-07, 0.0, 0.0, 0.0, 0.0, 0.0, 0.0, 9.968425624991553e-10]
---
header: 
  seq: 3883
  stamp: 
    secs: 1518209850
    nsecs: 812708616
  frame_id: "swarmone/odom"
child_frame_id: "swarmone/base_link"
pose: 
  pose: 
    position: 
      x: 0.413703648787
      y: 3.03624834071
      z: 0.0
    orientation: 
      x: 0.0
      y: 0.0
      z: 0.688921703612
      w: 0.724835765048
  covariance: [4370330383.14517, -312824093.72991866, 0.0, 0.0, 0.0, 5.705471450202257e-48, -312824093.72991925, 22441576.9365545, 0.0, 0.0, 0.0, -2.9006543374822486e-49, 0.0, 0.0, 6.113247754745936e-07, 1.3753984073196729e-53, 3.784676800204745e-46, 0.0, 0.0, 0.0, 1.3753984073196733e-53, 5.089276018724212e-07, -4.254306380376971e-31, 0.0, 0.0, 0.0, 3.784676800204746e-46, 4.254306380376971e-31, 5.089276018724212e-07, 0.0, 5.705471450202257e-48, -2.900654337482248e-49, 0.0, 0.0, 0.0, 1.0738836057915183e-06]
twist: 
  twist: 
    linear: 
      x: -8.28498360656e-41
      y: 0.0
      z: 0.0
    angular: 
      x: 0.0
      y: 0.0
      z: 0.0001112260303
  covariance: [9.99999626515311e-10, 0.0, 0.0, 0.0, 0.0, 0.0, 0.0, 195090.47664816954, 0.0, 0.0, 0.0, 0.0, 0.0, 0.0, 5.485721791847066e-07, 8.121671493450854e-57, 4.129059419850365e-58, 0.0, 0.0, 0.0, 8.121671493450858e-57, 4.042531686731257e-07, -6.680590330691823e-35, 0.0, 0.0, 0.0, 4.1290594198503666e-58, 6.680590330691823e-35, 4.042531686731257e-07, 0.0, 0.0, 0.0, 0.0, 0.0, 0.0, 9.972193478633042e-10]
---
header: 
  seq: 3884
  stamp: 
    secs: 1518209850
    nsecs: 912201881
  frame_id: "swarmone/odom"
child_frame_id: "swarmone/base_link"
pose: 
  pose: 
    position: 
      x: 0.413703648787
      y: 3.03624834071
      z: 0.0
    orientation: 
      x: 0.0
      y: 0.0
      z: 0.688921672506
      w: 0.724835794613
  covariance: [4375952478.685598, -313165951.22439593, 0.0, 0.0, 0.0, 5.0794522781296997e-48, -313165951.2243965, 22461805.47650263, 0.0, 0.0, 0.0, -2.582383485040634e-49, 0.0, 0.0, 5.908507175995193e-07, 1.0757311750491663e-53, 3.3633358937351865e-46, 0.0, 0.0, 0.0, 1.0757311750491663e-53, 4.928969242115276e-07, -6.002547354441705e-31, 0.0, 0.0, 0.0, 3.3633358937351873e-46, 6.002547354441705e-31, 4.928969242115276e-07, 0.0, 5.0794522781296997e-48, -2.582383485040634e-49, 0.0, 0.0, 0.0, 9.451375730749225e-07]
twist: 
  twist: 
    linear: 
      x: -7.77971311976e-41
      y: 0.0
      z: 0.0
    angular: 
      x: 0.0
      y: 0.0
      z: 0.000126297436732
  covariance: [9.999996224815321e-10, 0.0, 0.0, 0.0, 0.0, 0.0, 0.0, 195240.49209707027, 0.0, 0.0, 0.0, 0.0, 0.0, 0.0, 5.303758174604365e-07, 5.891951375796411e-57, 2.995469667090195e-58, 0.0, 0.0, 0.0, 5.891951375796412e-57, 3.965380027454799e-07, 5.919100910504216e-37, 0.0, 0.0, 0.0, 2.9954696670901964e-58, -5.919100910504216e-37, 3.965380027454799e-07, 0.0, 0.0, 0.0, 0.0, 0.0, 0.0, 9.968425624991085e-10]
---
header: 
  seq: 3885
  stamp: 
    secs: 1518209851
    nsecs:  12772560
  frame_id: "swarmone/odom"
child_frame_id: "swarmone/base_link"
pose: 
  pose: 
    position: 
      x: 0.413703648787
      y: 3.03624834071
      z: 0.0
    orientation: 
      x: 0.0
      y: 0.0
      z: 0.685288935933
      w: 0.728271291682
  covariance: [4381641326.679807, -313511832.7494517, 0.0, 0.0, 0.0, 5.1220475912049196e-48, -313511832.74945235, 22482270.86083527, 0.0, 0.0, 0.0, -2.9635594204111766e-49, 0.0, 0.0, 6.15599348287685e-07, 1.5021135681218855e-53, 3.3648841857798316e-46, 0.0, 0.0, 0.0, 1.5021135681218852e-53, 5.123532628097292e-07, 3.697793045815404e-31, 0.0, 0.0, 0.0, 3.3648841857798304e-46, -3.697793045815404e-31, 5.123532628097292e-07, 0.0, 5.1220475912049196e-48, -2.9635594204111766e-49, 0.0, 0.0, 0.0, 1.1024938352838297e-06]
twist: 
  twist: 
    linear: 
      x: -7.30044570425e-41
      y: 0.0
      z: 0.0
    angular: 
      x: 0.0
      y: 0.0
      z: 0.000108352694018
  covariance: [9.999996267719046e-10, 0.0, 0.0, 0.0, 0.0, 0.0, 0.0, 195392.21020306306, 0.0, 0.0, 0.0, 0.0, 0.0, 0.0, 5.524259352859683e-07, 7.520164399374768e-57, 4.577713505987305e-58, 0.0, 0.0, 0.0, 7.520164399374768e-57, 4.0594079423917666e-07, -3.019751117738068e-35, 0.0, 0.0, 0.0, 4.577713505987306e-58, 3.019751117738068e-35, 4.0594079423917666e-07, 0.0, 0.0, 0.0, 0.0, 0.0, 0.0, 9.972911813068253e-10]
---
header: 
  seq: 3886
  stamp: 
    secs: 1518209851
    nsecs: 112184763
  frame_id: "swarmone/odom"
child_frame_id: "swarmone/base_link"
pose: 
  pose: 
    position: 
      x: 0.413703648787
      y: 3.03624834071
      z: 0.0
    orientation: 
      x: 0.0
      y: 0.0
      z: 0.692537223666
      w: 0.721382141335
  covariance: [4387267307.753486, -313882065.2657169, 0.0, 0.0, 0.0, 4.515750698945374e-48, -313882065.2657175, 22506497.686854575, 0.0, 0.0, 0.0, -2.1768032590603657e-49, 0.0, 0.0, 5.908507118883099e-07, 7.610642946018212e-54, 2.961243026442109e-46, 0.0, 0.0, 0.0, 7.610642946018215e-54, 4.928969067538544e-07, -7.1530498671119125e-31, 0.0, 0.0, 0.0, 2.9612430264421095e-46, 7.1530498671119125e-31, 4.928969067538544e-07, 0.0, 4.5157506989453744e-48, -2.176803259060366e-49, 0.0, 0.0, 0.0, 9.451375730747868e-07]
twist: 
  twist: 
    linear: 
      x: -6.85555806333e-41
      y: 0.0
      z: 0.0
    angular: 
      x: 0.0
      y: 0.0
      z: 0.000126297436676
  covariance: [9.99999622154977e-10, 0.0, 0.0, 0.0, 0.0, 0.0, 0.0, 195542.25789153855, 0.0, 0.0, 0.0, 0.0, 0.0, 0.0, 5.303758061792408e-07, 5.190025837833152e-57, 2.1187640667213998e-58, 0.0, 0.0, 0.0, 5.19002583783315e-57, 3.9653792839776157e-07, -1.9734254098218588e-35, 0.0, 0.0, 0.0, 2.1187640667213998e-58, 1.9734254098218588e-35, 3.9653792839776157e-07, 0.0, 0.0, 0.0, 0.0, 0.0, 0.0, 9.968425624991044e-10]
---
header: 
  seq: 3887
  stamp: 
    secs: 1518209851
    nsecs: 212710381
  frame_id: "swarmone/odom"
child_frame_id: "swarmone/base_link"
pose: 
  pose: 
    position: 
      x: 0.413703648787
      y: 3.03624834071
      z: 0.0
    orientation: 
      x: 0.0
      y: 0.0
      z: 0.688921693844
      w: 0.724835774332
  covariance: [4392967962.526221, -314200029.84281176, 0.0, 0.0, 0.0, 4.308891482256217e-48, -314200029.84281236, 22522957.48659034, 0.0, 0.0, 0.0, -2.054807996259149e-49, 0.0, 0.0, 6.04731648887821e-07, 1.0117707310188459e-53, 2.900339349204074e-46, 0.0, 0.0, 0.0, 1.0117707310188456e-53, 5.036979299107685e-07, 6.224918681339644e-31, 0.0, 0.0, 0.0, 2.9003393492040733e-46, -6.224918681339644e-31, 5.036979299107685e-07, 0.0, 4.308891482256217e-48, -2.054807996259149e-49, 0.0, 0.0, 0.0, 1.0309682615532465e-06]
twist: 
  twist: 
    linear: 
      x: -6.43340096486e-41
      y: 0.0
      z: 0.0
    angular: 
      x: 0.0
      y: 0.0
      z: 0.000115833607167
  covariance: [9.999996265942748e-10, 0.0, 0.0, 0.0, 0.0, 0.0, 0.0, 195694.06420550495, 0.0, 0.0, 0.0, 0.0, 0.0, 0.0, 5.426654993304059e-07, 5.836373442754932e-57, 2.9672216302369054e-58, 0.0, 0.0, 0.0, 5.836373442754931e-57, 4.017037789024172e-07, -2.1006796452898047e-37, 0.0, 0.0, 0.0, 2.9672216302369047e-58, 2.1006796452898047e-37, 4.017037789024172e-07, 0.0, 0.0, 0.0, 0.0, 0.0, 0.0, 9.971041583847902e-10]
---
header: 
  seq: 3888
  stamp: 
    secs: 1518209851
    nsecs: 312168121
  frame_id: "swarmone/odom"
child_frame_id: "swarmone/base_link"
pose: 
  pose: 
    position: 
      x: 0.413703648787
      y: 3.03624834071
      z: 0.0
    orientation: 
      x: 0.0
      y: 0.0
      z: 0.69253723115
      w: 0.72138213415
  covariance: [4398611294.729233, -314543013.96878177, 0.0, 0.0, 0.0, 3.963096373170889e-48, -314543013.96878237, 22543245.511529204, 0.0, 0.0, 0.0, -1.7551825342871307e-49, 0.0, 0.0, 5.955847414073103e-07, 6.988104284576305e-54, 2.6395745735560824e-46, 0.0, 0.0, 0.0, 6.988104284576305e-54, 4.965490390687892e-07, -5.363333063468676e-31, 0.0, 0.0, 0.0, 2.6395745735560824e-46, 5.363333063468676e-31, 4.965490390687892e-07, 0.0, 3.9630963731708897e-48, -1.7551825342871307e-49, 0.0, 0.0, 0.0, 9.737478025670632e-07]
twist: 
  twist: 
    linear: 
      x: -6.04118341119e-41
      y: 0.0
      z: 0.0
    angular: 
      x: 0.0
      y: 0.0
      z: 0.000122605577951
  covariance: [9.999996223384636e-10, 0.0, 0.0, 0.0, 0.0, 0.0, 0.0, 195844.3351933393, 0.0, 0.0, 0.0, 0.0, 0.0, 0.0, 5.345450647427363e-07, 4.8527135557247e-57, 1.9808922862858658e-58, 0.0, 0.0, 0.0, 4.852713555724699e-57, 3.982694678162513e-07, 9.580079980782042e-35, 0.0, 0.0, 0.0, 1.980892286285866e-58, -9.580079980782043e-35, 3.982694678162513e-07, 0.0, 0.0, 0.0, 0.0, 0.0, 0.0, 9.969348590145058e-10]
---
header: 
  seq: 3889
  stamp: 
    secs: 1518209851
    nsecs: 412630558
  frame_id: "swarmone/odom"
child_frame_id: "swarmone/base_link"
pose: 
  pose: 
    position: 
      x: 0.413703648787
      y: 3.03624834071
      z: 0.0
    orientation: 
      x: 0.0
      y: 0.0
      z: 0.688922005088
      w: 0.724835478509
  covariance: [4404320128.103259, -314861343.9076164, 0.0, 0.0, 0.0, 9.031026618250086e-48, -314861343.907617, 22559722.09226646, 0.0, 0.0, 0.0, -4.468176777429329e-49, 0.0, 0.0, 7.821285874693613e-07, 2.192203505084557e-53, 2.794371058371692e-46, 0.0, 0.0, 0.0, 2.1922035050845573e-53, 6.715788585646265e-07, -1.1125239660044008e-30, 0.0, 0.0, 0.0, 2.794371058371692e-46, 1.1125239660044008e-30, 6.715788585646265e-07, 0.0, 9.031026618250086e-48, -4.4681767774293284e-49, 0.0, 0.0, 0.0, 3.0909047849929415e-06]
twist: 
  twist: 
    linear: 
      x: -5.66939401203e-41
      y: 0.0
      z: 0.0
    angular: 
      x: 0.0
      y: 0.0
      z: 2.90706470827e-05
  covariance: [9.999996263449669e-10, 0.0, 0.0, 0.0, 0.0, 0.0, 0.0, 195996.2022575444, 0.0, 0.0, 0.0, 0.0, 0.0, 0.0, 7.190912046907677e-07, 2.577067898369574e-56, 1.3103151066901723e-57, 0.0, 0.0, 0.0, 2.5770678983695727e-56, 5.036569011717334e-07, 1.965153535502232e-37, 0.0, 0.0, 0.0, 1.310315106690172e-57, -1.965153535502232e-37, 5.036569011717334e-07, 0.0, 0.0, 0.0, 0.0, 0.0, 0.0, 9.990309779500225e-10]
---
header: 
  seq: 3890
  stamp: 
    secs: 1518209851
    nsecs: 512174606
  frame_id: "swarmone/odom"
child_frame_id: "swarmone/base_link"
pose: 
  pose: 
    position: 
      x: 0.413703648787
      y: 3.03624834071
      z: 0.0
    orientation: 
      x: 0.0
      y: 0.0
      z: 0.685288939411
      w: 0.728271288409
  covariance: [4409980015.911443, -315205242.15328, 0.0, 0.0, 0.0, 6.245530151779107e-48, -315205242.1532806, 22580060.57048717, 0.0, 0.0, 0.0, -3.4378622137972916e-49, 0.0, 0.0, 6.17701505127198e-07, 1.1014783694086702e-53, 2.4366938256095983e-46, 0.0, 0.0, 0.0, 1.10147836940867e-53, 5.140480259862258e-07, -1.0907129292044015e-30, 0.0, 0.0, 0.0, 2.4366938256095995e-46, 1.0907129292044015e-30, 5.140480259862258e-07, 0.0, 6.245530151779107e-48, -3.4378622137972916e-49, 0.0, 0.0, 0.0, 1.1167989500282827e-06]
twist: 
  twist: 
    linear: 
      x: -5.32346756926e-41
      y: 0.0
      z: 0.0
    angular: 
      x: 0.0
      y: 0.0
      z: 0.00010697098611
  covariance: [9.999996226857432e-10, 0.0, 0.0, 0.0, 0.0, 0.0, 0.0, 196146.7584302452, 0.0, 0.0, 0.0, 0.0, 0.0, 0.0, 5.543281134183366e-07, 5.561967294283638e-57, 3.385235004762014e-58, 0.0, 0.0, 0.0, 5.561967294283644e-57, 4.067801068774192e-07, 7.855079025641687e-35, 0.0, 0.0, 0.0, 3.385235004762017e-58, -7.855079025641687e-35, 4.067801068774192e-07, 0.0, 0.0, 0.0, 0.0, 0.0, 0.0, 9.973257240047264e-10]
---
header: 
  seq: 3891
  stamp: 
    secs: 1518209851
    nsecs: 612627506
  frame_id: "swarmone/odom"
child_frame_id: "swarmone/base_link"
pose: 
  pose: 
    position: 
      x: 0.413703648787
      y: 3.03624834071
      z: 0.0
    orientation: 
      x: 0.0
      y: 0.0
      z: 0.685289397191
      w: 0.728270857647
  covariance: [4415694275.771008, -315581071.2989208, 0.0, 0.0, 0.0, 7.920572971347478e-48, -315581071.29892135, 22604641.8197974, 0.0, 0.0, 0.0, -4.8213497945421594e-49, 0.0, 0.0, 7.779767405172818e-07, 3.0109843640735317e-53, 2.4742716299039834e-46, 0.0, 0.0, 0.0, 3.0109843640735303e-53, 6.668838669381317e-07, -7.333786780592041e-31, 0.0, 0.0, 0.0, 2.4742716299039834e-46, 7.333786780592041e-31, 6.668838669381317e-07, 0.0, 7.920572971347478e-48, -4.821349794542159e-49, 0.0, 0.0, 0.0, 3.0050740965162245e-06]
twist: 
  twist: 
    linear: 
      x: -4.99587743421e-41
      y: 0.0
      z: 0.0
    angular: 
      x: 0.0
      y: 0.0
      z: 3.98661084764e-05
  covariance: [9.999996263072696e-10, 0.0, 0.0, 0.0, 0.0, 0.0, 0.0, 196298.7673438584, 0.0, 0.0, 0.0, 0.0, 0.0, 0.0, 7.145021895300557e-07, 2.2065282469528504e-56, 1.3431406868514008e-57, 0.0, 0.0, 0.0, 2.2065282469528494e-56, 5.001075377714635e-07, -2.161940088631497e-37, 0.0, 0.0, 0.0, 1.3431406868514013e-57, 2.161940088631497e-37, 5.001075377714635e-07, 0.0, 0.0, 0.0, 0.0, 0.0, 0.0, 9.99003346793091e-10]
---
header: 
  seq: 3892
  stamp: 
    secs: 1518209851
    nsecs: 712124109
  frame_id: "swarmone/odom"
child_frame_id: "swarmone/base_link"
pose: 
  pose: 
    position: 
      x: 0.413703648787
      y: 3.03624834071
      z: 0.0
    orientation: 
      x: 0.0
      y: 0.0
      z: 0.6852893833
      w: 0.728270870718
  covariance: [4421359968.483669, -315953682.2118439, 0.0, 0.0, 0.0, 9.193661847442625e-48, -315953682.21184444, 22629011.160022397, 0.0, 0.0, 0.0, -5.5962430950541226e-49, 0.0, 0.0, 7.751197810223971e-07, 2.7540036541772626e-53, 2.3071291029421082e-46, 0.0, 0.0, 0.0, 2.7540036541772626e-53, 6.636784516089934e-07, 1.3477476121118513e-30, 0.0, 0.0, 0.0, 2.307129102942108e-46, -1.3477476121118513e-30, 6.636784516089934e-07, 0.0, 9.193661847442625e-48, -5.5962430950541226e-49, 0.0, 0.0, 0.0, 2.947853637530214e-06]
twist: 
  twist: 
    linear: 
      x: -4.69118380318e-41
      y: 0.0
      z: 0.0
    angular: 
      x: 0.0
      y: 0.0
      z: 4.0638634525e-05
  covariance: [9.999996224948e-10, 0.0, 0.0, 0.0, 0.0, 0.0, 0.0, 196449.40655357402, 0.0, 0.0, 0.0, 0.0, 0.0, 0.0, 7.113585822575496e-07, 2.011257237540086e-56, 1.2242768863206819e-57, 0.0, 0.0, 0.0, 2.0112572375400859e-56, 4.977123652115655e-07, -1.9592874760492334e-34, 0.0, 0.0, 0.0, 1.2242768863206819e-57, 1.9592874760492343e-34, 4.977123652115655e-07, 0.0, 0.0, 0.0, 0.0, 0.0, 0.0, 9.989840336265792e-10]
---
header: 
  seq: 3893
  stamp: 
    secs: 1518209851
    nsecs: 812779427
  frame_id: "swarmone/odom"
child_frame_id: "swarmone/base_link"
pose: 
  pose: 
    position: 
      x: 0.413703648787
      y: 3.03624834071
      z: 0.0
    orientation: 
      x: 0.0
      y: 0.0
      z: 0.688921689187
      w: 0.724835778758
  covariance: [4427097552.850828, -316330995.78676045, 0.0, 0.0, 0.0, 4.888186063787219e-48, -316330995.786761, 22653686.53940208, 0.0, 0.0, 0.0, -2.7752695156585248e-49, 0.0, 0.0, 6.024839590440841e-07, 6.802378686419235e-54, 1.9778239138611283e-46, 0.0, 0.0, 0.0, 6.802378686419234e-54, 5.019298914340771e-07, 1.2394378884064488e-30, 0.0, 0.0, 0.0, 1.977823913861128e-46, -1.2394378884064488e-30, 5.019298914340771e-07, 0.0, 4.8881860637872175e-48, -2.7752695156585244e-49, 0.0, 0.0, 0.0, 1.0166631468074133e-06]
twist: 
  twist: 
    linear: 
      x: -4.40195286438e-41
      y: 0.0
      z: 0.0
    angular: 
      x: 0.0
      y: 0.0
      z: 0.000117455485178
  covariance: [9.999996271048719e-10, 0.0, 0.0, 0.0, 0.0, 0.0, 0.0, 196601.87847210263, 0.0, 0.0, 0.0, 0.0, 0.0, 0.0, 5.406621230458624e-07, 3.8974176647189024e-57, 1.981854370681097e-58, 0.0, 0.0, 0.0, 3.8974176647189024e-57, 4.0084924455123406e-07, -6.734696169970269e-35, 0.0, 0.0, 0.0, 1.9818543706810962e-58, 6.734696169970269e-35, 4.0084924455123406e-07, 0.0, 0.0, 0.0, 0.0, 0.0, 0.0, 9.970636114131492e-10]
---
header: 
  seq: 3894
  stamp: 
    secs: 1518209851
    nsecs: 912256956
  frame_id: "swarmone/odom"
child_frame_id: "swarmone/base_link"
pose: 
  pose: 
    position: 
      x: 0.413703648787
      y: 3.03624834071
      z: 0.0
    orientation: 
      x: 0.0
      y: 0.0
      z: 0.685289623343
      w: 0.728270644842
  covariance: [4432777014.949434, -316675994.3373638, 0.0, 0.0, 0.0, 6.655654073546601e-48, -316675994.3373643, 22674086.78522659, 0.0, 0.0, 0.0, -3.958525922178359e-49, 0.0, 0.0, 7.848112621075183e-07, 3.201950286466518e-53, 2.009332486177227e-46, 0.0, 0.0, 0.0, 3.2019502864665184e-53, 6.746360714595945e-07, 1.7562646878833843e-30, 0.0, 0.0, 0.0, 2.009332486177227e-46, -1.7562646878833843e-30, 6.746360714595945e-07, 0.0, 6.655654073546603e-48, -3.958525922178359e-49, 0.0, 0.0, 0.0, 3.1481252439757715e-06]
twist: 
  twist: 
    linear: 
      x: -4.13353460753e-41
      y: 0.0
      z: 0.0
    angular: 
      x: 0.0
      y: 0.0
      z: 4.75718257922e-05
  covariance: [9.999996224181244e-10, 0.0, 0.0, 0.0, 0.0, 0.0, 0.0, 196752.643781214, 0.0, 0.0, 0.0, 0.0, 0.0, 0.0, 7.22069410744317e-07, 1.8919261708288323e-56, 1.1517377096727327e-57, 0.0, 0.0, 0.0, 1.8919261708288318e-56, 5.059946696653604e-07, 3.990379869801433e-34, 0.0, 0.0, 0.0, 1.1517377096727331e-57, -3.990379869801433e-34, 5.059946696653604e-07, 0.0, 0.0, 0.0, 0.0, 0.0, 0.0, 9.990485630068104e-10]
---
header: 
  seq: 3895
  stamp: 
    secs: 1518209852
    nsecs:  12135744
  frame_id: "swarmone/odom"
child_frame_id: "swarmone/base_link"
pose: 
  pose: 
    position: 
      x: 0.413703648787
      y: 3.03624834071
      z: 0.0
    orientation: 
      x: 0.0
      y: 0.0
      z: 0.69253773964
      w: 0.721381645992
  covariance: [4438482058.279453, -317051080.8996846, 0.0, 0.0, 0.0, 8.009426733256263e-48, -317051080.89968514, 22698611.099321928, 0.0, 0.0, 0.0, -3.810691892498634e-49, 0.0, 0.0, 7.821285760205138e-07, 1.597108207494141e-53, 1.900876310201034e-46, 0.0, 0.0, 0.0, 1.5971082074941413e-53, 6.71578862368508e-07, -2.1368018297422393e-32, 0.0, 0.0, 0.0, 1.900876310201034e-46, 2.1368018297422393e-32, 6.71578862368508e-07, 0.0, 8.009426733256263e-48, -3.810691892498633e-49, 0.0, 0.0, 0.0, 3.090904784992032e-06]
twist: 
  twist: 
    linear: 
      x: -3.88052936156e-41
      y: 0.0
      z: 0.0
    angular: 
      x: 0.0
      y: 0.0
      z: 3.87608626084e-05
  covariance: [9.999996240269797e-10, 0.0, 0.0, 0.0, 0.0, 0.0, 0.0, 196904.09475159206, 0.0, 0.0, 0.0, 0.0, 0.0, 0.0, 7.190911762226328e-07, 1.753872964379565e-56, 7.157202597877501e-58, 0.0, 0.0, 0.0, 1.7538729643795649e-56, 5.036565498467857e-07, -9.591118325589268e-35, 0.0, 0.0, 0.0, 7.157202597877501e-58, 9.591118325589268e-35, 5.036565498467857e-07, 0.0, 0.0, 0.0, 0.0, 0.0, 0.0, 9.990309779500196e-10]
---
header: 
  seq: 3896
  stamp: 
    secs: 1518209852
    nsecs: 112771988
  frame_id: "swarmone/odom"
child_frame_id: "swarmone/base_link"
pose: 
  pose: 
    position: 
      x: 0.413703648787
      y: 3.03624834071
      z: 0.0
    orientation: 
      x: 0.0
      y: 0.0
      z: 0.692537259272
      w: 0.721382107152
  covariance: [4444242152.993088, -317372025.91550374, 0.0, 0.0, 0.0, 4.2783017308477874e-48, -317372025.9155042, 22715214.639444534, 0.0, 0.0, 0.0, -1.7463073229241283e-49, 0.0, 0.0, 6.134738858257896e-07, 4.9460083808889485e-54, 1.6727137972796979e-46, 0.0, 0.0, 0.0, 4.9460083808889485e-54, 5.106464481550358e-07, 5.598724479447651e-32, 0.0, 0.0, 0.0, 1.6727137972796979e-46, -5.598724479447651e-32, 5.106464481550358e-07, 0.0, 4.2783017308477874e-48, -1.746307322924128e-49, 0.0, 0.0, 0.0, 1.0881887205378945e-06]
twist: 
  twist: 
    linear: 
      x: -3.64132119856e-41
      y: 0.0
      z: 0.0
    angular: 
      x: 0.0
      y: 0.0
      z: 0.000109770562317
  covariance: [9.999996270297988e-10, 0.0, 0.0, 0.0, 0.0, 0.0, 0.0, 197056.77287581548, 0.0, 0.0, 0.0, 0.0, 0.0, 0.0, 5.50507330030198e-07, 3.6703971984428044e-57, 1.4982170784414839e-58, 0.0, 0.0, 0.0, 3.670397198442804e-57, 4.050982733480821e-07, -4.7852430270767115e-35, 0.0, 0.0, 0.0, 1.4982170784414839e-58, 4.7852430270767115e-35, 4.050982733480821e-07, 0.0, 0.0, 0.0, 0.0, 0.0, 0.0, 9.97255734579697e-10]
---
header: 
  seq: 3897
  stamp: 
    secs: 1518209852
    nsecs: 212800026
  frame_id: "swarmone/odom"
child_frame_id: "swarmone/base_link"
pose: 
  pose: 
    position: 
      x: 0.413703648787
      y: 3.03624834071
      z: 0.0
    orientation: 
      x: 0.0
      y: 0.0
      z: 0.688921686935
      w: 0.724835780899
  covariance: [4449973351.42384, -317691309.30108744, 0.0, 0.0, 0.0, 2.342384065022174e-48, -317691309.30108804, 22731731.18906197, 0.0, 0.0, 0.0, -1.1082128377595867e-49, 0.0, 0.0, 6.002105096619028e-07, 5.148701301260827e-54, 1.5181369804583565e-46, 0.0, 0.0, 0.0, 5.148701301260826e-54, 5.001490523295254e-07, 1.1168547018712134e-30, 0.0, 0.0, 0.0, 1.5181369804583563e-46, -1.1168547018712134e-30, 5.001490523295254e-07, 0.0, 2.3423840650221743e-48, -1.1082128377595867e-49, 0.0, 0.0, 0.0, 1.0023580320602227e-06]
twist: 
  twist: 
    linear: 
      x: -3.41813097007e-41
      y: 0.0
      z: 0.0
    angular: 
      x: 0.0
      y: 0.0
      z: 0.00011912342634
  covariance: [9.999996246227731e-10, 0.0, 0.0, 0.0, 0.0, 0.0, 0.0, 197208.60646431445, 0.0, 0.0, 0.0, 0.0, 0.0, 0.0, 5.386410167141567e-07, 2.9217276640608063e-57, 1.4853789860596725e-58, 0.0, 0.0, 0.0, 2.921727664060806e-57, 3.99991573382087e-07, -8.683330392059602e-35, 0.0, 0.0, 0.0, 1.4853789860596721e-58, 8.683330392059602e-35, 3.99991573382087e-07, 0.0, 0.0, 0.0, 0.0, 0.0, 0.0, 9.970219128567073e-10]
---
header: 
  seq: 3898
  stamp: 
    secs: 1518209852
    nsecs: 312535048
  frame_id: "swarmone/odom"
child_frame_id: "swarmone/base_link"
pose: 
  pose: 
    position: 
      x: 0.413703648787
      y: 3.03624834071
      z: 0.0
    orientation: 
      x: 0.0
      y: 0.0
      z: 0.688921682875
      w: 0.724835784758
  covariance: [4455691016.757691, -318038432.8604594, 0.0, 0.0, 0.0, 2.1108772192236293e-48, -318038432.86046, 22752248.16739557, 0.0, 0.0, 0.0, -1.0731665035194576e-49, 0.0, 0.0, 5.979109287061199e-07, 4.7270496253596344e-54, 1.4137227435275269e-46, 0.0, 0.0, 0.0, 4.727049625359633e-54, 4.983555028474504e-07, 3.5911975992421963e-32, 0.0, 0.0, 0.0, 1.4137227435275273e-46, -3.5911975992421963e-32, 4.983555028474504e-07, 0.0, 2.110877219223629e-48, -1.0731665035194576e-49, 0.0, 0.0, 0.0, 9.880529173136295e-07]
twist: 
  twist: 
    linear: 
      x: -3.20919725893e-41
      y: 0.0
      z: 0.0
    angular: 
      x: 0.0
      y: 0.0
      z: 0.000120839421625
  covariance: [9.999996234523328e-10, 0.0, 0.0, 0.0, 0.0, 0.0, 0.0, 197360.072911655, 0.0, 0.0, 0.0, 0.0, 0.0, 0.0, 5.366020905542167e-07, 2.6590565051809154e-57, 1.3518650981993825e-58, 0.0, 0.0, 0.0, 2.659056505180917e-57, 3.991317477980705e-07, 1.4416404953589744e-34, 0.0, 0.0, 0.0, 1.3518650981993828e-58, -1.4416404953589744e-34, 3.991317477980705e-07, 0.0, 0.0, 0.0, 0.0, 0.0, 0.0, 9.96979012949123e-10]
---
header: 
  seq: 3899
  stamp: 
    secs: 1518209852
    nsecs: 411932707
  frame_id: "swarmone/odom"
child_frame_id: "swarmone/base_link"
pose: 
  pose: 
    position: 
      x: 0.413703648787
      y: 3.03624834071
      z: 0.0
    orientation: 
      x: 0.0
      y: 0.0
      z: 0.69253723459
      w: 0.721382130848
  covariance: [4461395180.609559, -318384692.25145715, 0.0, 0.0, 0.0, 1.966255683033587e-48, -318384692.2514576, 22772711.989146877, 0.0, 0.0, 0.0, -8.682946198107506e-50, 0.0, 0.0, 5.979109057795281e-07, 3.553585627373875e-54, 1.3228181667787725e-46, 0.0, 0.0, 0.0, 3.553585627373876e-54, 4.983554315698825e-07, 1.6943539448594023e-31, 0.0, 0.0, 0.0, 1.3228181667787723e-46, -1.6943539448594023e-31, 4.983554315698825e-07, 0.0, 1.9662556830335872e-48, -8.682946198107508e-50, 0.0, 0.0, 0.0, 9.880529173130618e-07]
twist: 
  twist: 
    linear: 
      x: -3.01365975134e-41
      y: 0.0
      z: 0.0
    angular: 
      x: 0.0
      y: 0.0
      z: 0.000120839421423
  covariance: [9.999996220959243e-10, 0.0, 0.0, 0.0, 0.0, 0.0, 0.0, 197511.10415523563, 0.0, 0.0, 0.0, 0.0, 0.0, 0.0, 5.366020448828406e-07, 2.489195617997958e-57, 1.0160845663049462e-58, 0.0, 0.0, 0.0, 2.489195617997957e-57, 3.991314410081357e-07, -2.1569161622337938e-37, 0.0, 0.0, 0.0, 1.0160845663049459e-58, 2.1569161622337938e-37, 3.991314410081357e-07, 0.0, 0.0, 0.0, 0.0, 0.0, 0.0, 9.969790129491075e-10]
---
header: 
  seq: 3900
  stamp: 
    secs: 1518209852
    nsecs: 512548208
  frame_id: "swarmone/odom"
child_frame_id: "swarmone/base_link"
pose: 
  pose: 
    position: 
      x: 0.413703648787
      y: 3.03624834071
      z: 0.0
    orientation: 
      x: 0.0
      y: 0.0
      z: 0.692537176037
      w: 0.72138218706
  covariance: [4467177823.904414, -318706695.709576, 0.0, 0.0, 0.0, 1.8693635438597662e-48, -318706695.7095764, 22789364.608678892, 0.0, 0.0, 0.0, -7.630509594977784e-50, 0.0, 0.0, 5.979109878084762e-07, 2.5336407013727333e-54, 1.2574404948570058e-46, 0.0, 0.0, 0.0, 2.5336407013727336e-54, 4.983556454920337e-07, -2.9394317587762845e-31, 0.0, 0.0, 0.0, 1.2574404948570058e-46, 2.9394317587762845e-31, 4.983556454920337e-07, 0.0, 1.869363543859766e-48, -7.630509594977784e-50, 0.0, 0.0, 0.0, 9.880529173150915e-07]
twist: 
  twist: 
    linear: 
      x: -2.82792915416e-41
      y: 0.0
      z: 0.0
    angular: 
      x: 0.0
      y: 0.0
      z: 9.06295666616e-05
  covariance: [9.99999626948028e-10, 0.0, 0.0, 0.0, 0.0, 0.0, 0.0, 197664.064322124, 0.0, 0.0, 0.0, 0.0, 0.0, 0.0, 5.36602208284259e-07, 2.366175947365018e-57, 9.658481744393172e-59, 0.0, 0.0, 0.0, 2.3661759473650175e-57, 3.9913253852262457e-07, -4.859552014319677e-35, 0.0, 0.0, 0.0, 9.658481744393173e-59, 4.859552014319677e-35, 3.9913253852262457e-07, 0.0, 0.0, 0.0, 0.0, 0.0, 0.0, 9.96979012949163e-10]
---
header: 
  seq: 3901
  stamp: 
    secs: 1518209852
    nsecs: 612173557
  frame_id: "swarmone/odom"
child_frame_id: "swarmone/base_link"
pose: 
  pose: 
    position: 
      x: 0.413850491924
      y: 3.03918855329
      z: 0.0
    orientation: 
      x: 0.0
      y: 0.0
      z: 0.822049790117
      w: 0.569415614968
  covariance: [4472909401.434136, -319025619.5506672, 0.0, 0.0, 0.0, 1.6167583162614854e-48, -319025619.55066764, 22805840.435101, 0.0, 0.0, 0.0, 3.6592848950729664e-49, 0.0, 0.0, 5.908507268779195e-07, -1.271717143592797e-52, 1.1495383950459942e-46, 0.0, 0.0, 0.0, -1.271717143592797e-52, 4.928975485740702e-07, 1.5282487552477466e-29, 0.0, 0.0, 0.0, 1.149538395045994e-46, -1.5282487552477466e-29, 4.928975485740702e-07, 0.0, 1.6167583162614857e-48, 3.659284895072967e-49, 0.0, 0.0, 0.0, 9.451375730751422e-07]
twist: 
  twist: 
    linear: 
      x: 0.0588999777954
      y: 0.0
      z: 0.0
    angular: 
      x: 0.0
      y: 0.0
      z: -0.0292737896916
  covariance: [9.999996230123253e-10, 0.0, 0.0, 0.0, 0.0, 0.0, 0.0, 197815.59700660536, 0.0, 0.0, 0.0, 0.0, 0.0, 0.0, 5.303758357830066e-07, 1.8876179164024888e-57, -7.086325628053674e-58, 0.0, 0.0, 0.0, 1.8876179164024885e-57, 3.96538123412896e-07, -4.647922955705052e-34, 0.0, 0.0, 0.0, -7.086325628053673e-58, 4.647922955705052e-34, 3.96538123412896e-07, 0.0, 0.0, 0.0, 0.0, 0.0, 0.0, 9.96842562499115e-10]
---
header: 
  seq: 3902
  stamp: 
    secs: 1518209852
    nsecs: 712799549
  frame_id: "swarmone/odom"
child_frame_id: "swarmone/base_link"
pose: 
  pose: 
    position: 
      x: 0.411934940643
      y: 3.05405519877
      z: 0.0
    orientation: 
      x: 0.0
      y: 0.0
      z: 0.648033489638
      w: 0.761611840971
  covariance: [4478339143.572408, -318197499.00516367, 0.0, 0.0, 0.0, -1.895958837366105e-15, -318197499.0051641, 22662391.26023955, 0.0, 0.0, 0.0, -1.7384385092814653e-16, 0.0, 0.0, 5.955848209365322e-07, 7.367887039574118e-21, -1.0319802194104504e-13, 0.0, 0.0, 0.0, 7.367887039574116e-21, 4.965488779077603e-07, -8.89167603786583e-27, 0.0, 0.0, 0.0, -1.0319802194104504e-13, -8.891169822842158e-27, 4.96548877907734e-07, 0.0, -1.895958837366105e-15, -1.7384385092814648e-16, 0.0, 0.0, 0.0, 9.737478025690065e-07]
twist: 
  twist: 
    linear: 
      x: 0.246399931416
      y: 0.0
      z: 0.0
    angular: 
      x: 0.0
      y: 0.0
      z: -0.169662834445
  covariance: [9.999996269896003e-10, 0.0, 0.0, 0.0, 0.0, 0.0, 0.0, 197968.73029119152, 0.0, 0.0, 0.0, 0.0, 0.0, 0.0, 5.345452227304978e-07, -1.8766821157368e-24, -3.0313220820251264e-25, 0.0, 0.0, 0.0, -1.876682115736799e-24, 3.9827052244353977e-07, -9.549905608000122e-32, 0.0, 0.0, 0.0, -3.031322082025126e-25, -9.561482936746546e-32, 3.9827052244353977e-07, 0.0, 0.0, 0.0, 0.0, 0.0, 0.0, 9.969348590145606e-10]
---
header: 
  seq: 3903
  stamp: 
    secs: 1518209852
    nsecs: 812392235
  frame_id: "swarmone/odom"
child_frame_id: "swarmone/base_link"
pose: 
  pose: 
    position: 
      x: 0.41604055274
      y: 3.08071552599
      z: 0.0
    orientation: 
      x: 0.0
      y: 0.0
      z: 0.589145973599
      w: 0.808026621958
  covariance: [4484011053.889752, -318856814.7371649, 0.0, 0.0, 0.0, -8.215792410387427e-15, -318856814.7371652, 22727039.781981, 0.0, 0.0, 0.0, 1.9925547722200774e-15, 0.0, 0.0, 6.002104805409258e-07, -3.0516514904248263e-19, -4.3554537847061277e-13, 0.0, 0.0, 0.0, -3.0516514904248263e-19, 5.0014950909804e-07, 1.576690216386291e-25, 0.0, 0.0, 0.0, -4.3554537847061287e-13, 1.5769158527613406e-25, 5.001495090975654e-07, 0.0, -8.215792410387429e-15, 1.9925547722200774e-15, 0.0, 0.0, 0.0, 1.002358032059491e-06]
twist: 
  twist: 
    linear: 
      x: 0.295599987032
      y: 0.0
      z: 0.0
    angular: 
      x: 0.0
      y: 0.0
      z: -0.168957670023
  covariance: [9.999996228813954e-10, 0.0, 0.0, 0.0, 0.0, 0.0, 0.0, 198120.36888096886, 0.0, 0.0, 0.0, 0.0, 0.0, 0.0, 5.386409585348771e-07, -8.000947564810309e-24, -2.568515642484178e-24, 0.0, 0.0, 0.0, -8.000947564810313e-24, 3.999911800240376e-07, -3.496204879411359e-30, 0.0, 0.0, 0.0, -2.568515642484179e-24, -3.495432900966094e-30, 3.999911800240376e-07, 0.0, 0.0, 0.0, 0.0, 0.0, 0.0, 9.97021912856688e-10]
---
header: 
  seq: 3904
  stamp: 
    secs: 1518209852
    nsecs: 912118435
  frame_id: "swarmone/odom"
child_frame_id: "swarmone/base_link"
pose: 
  pose: 
    position: 
      x: 0.425128204907
      y: 3.10597924262
      z: 0.0
    orientation: 
      x: 0.0
      y: 0.0
      z: 0.663133408184
      w: 0.748501224414
  covariance: [4489494786.86594, -319930182.509059, 0.0, 0.0, 0.0, -2.0073282476259173e-14, -319930182.5090593, 22850955.36910993, 0.0, 0.0, 0.0, 3.4028466634262606e-15, 0.0, 0.0, 7.751197858425455e-07, 4.603444095868387e-19, -5.803797415491643e-13, 0.0, 0.0, 0.0, 4.603444095868387e-19, 6.636776445332302e-07, 1.8034142070688865e-24, 0.0, 0.0, 0.0, -5.803797415491643e-13, 1.8034160226147167e-24, 6.636776445317322e-07, 0.0, -2.0073282476259176e-14, 3.40284666342626e-15, 0.0, 0.0, 0.0, 2.9478536375305434e-06]
twist: 
  twist: 
    linear: 
      x: 0.23980002739
      y: 0.0
      z: 0.0
    angular: 
      x: 0.0
      y: 0.0
      z: -0.0900203193575
  covariance: [9.999996234167202e-10, 0.0, 0.0, 0.0, 0.0, 0.0, 0.0, 198272.2883294091, 0.0, 0.0, 0.0, 0.0, 0.0, 0.0, 7.113585940790097e-07, -5.0327371683585095e-23, -6.105494124054235e-24, 0.0, 0.0, 0.0, -5.0327371683585095e-23, 4.977125046655299e-07, -2.725022273877061e-29, 0.0, 0.0, 0.0, -6.105494124054238e-24, -2.724984282496725e-29, 4.977125046655299e-07, 0.0, 0.0, 0.0, 0.0, 0.0, 0.0, 9.989840336265804e-10]
---
header: 
  seq: 3905
  stamp: 
    secs: 1518209853
    nsecs:  12690067
  frame_id: "swarmone/odom"
child_frame_id: "swarmone/base_link"
pose: 
  pose: 
    position: 
      x: 0.427914821581
      y: 3.12693250718
      z: 0.0
    orientation: 
      x: 0.0
      y: 0.0
      z: 0.617060447008
      w: 0.786915754537
  covariance: [4495266618.270677, -320484017.76618254, 0.0, 0.0, 0.0, -2.1054883642449994e-14, -320484017.7661829, 22900350.537582137, 0.0, 0.0, 0.0, 3.68062672642324e-15, 0.0, 0.0, 7.309840239878711e-07, -3.5605345814200215e-19, -4.80887363166467e-13, 0.0, 0.0, 0.0, -3.56053458142002e-19, 6.166477263904405e-07, -4.416809996886486e-25, 0.0, 0.0, 0.0, -4.808873631664669e-13, -4.416965667029086e-25, 6.166477263895807e-07, 0.0, -2.1054883642449997e-14, 3.68062672642324e-15, 0.0, 0.0, 0.0, 2.2182927854801957e-06]
twist: 
  twist: 
    linear: 
      x: 0.179500027206
      y: 0.0
      z: 0.0
    angular: 
      x: 0.0
      y: 0.0
      z: 0.0101079478749
  covariance: [9.99999626775481e-10, 0.0, 0.0, 0.0, 0.0, 0.0, 0.0, 198425.57431341722, 0.0, 0.0, 0.0, 0.0, 0.0, 0.0, 6.642191648668083e-07, -2.862986124329986e-23, -7.030345400143677e-24, 0.0, 0.0, 0.0, -2.8629861243299876e-23, 4.6504049636769175e-07, -1.947904800164973e-29, 0.0, 0.0, 0.0, -7.03034540014368e-24, -1.948009470766376e-29, 4.6504049636769175e-07, 0.0, 0.0, 0.0, 0.0, 0.0, 0.0, 9.986506500532076e-10]
---
header: 
  seq: 3906
  stamp: 
    secs: 1518209853
    nsecs: 112779617
  frame_id: "swarmone/odom"
child_frame_id: "swarmone/base_link"
pose: 
  pose: 
    position: 
      x: 0.432097712857
      y: 3.14179727821
      z: 0.0
    orientation: 
      x: 0.0
      y: 0.0
      z: 0.644218065786
      w: 0.764841868438
  covariance: [4500891796.81715, -321373056.3205786, 0.0, 0.0, 0.0, -9.672013715905455e-15, -321373056.3205788, 22997793.29495237, 0.0, 0.0, 0.0, 2.1495973996619795e-15, 0.0, 0.0, 6.002105138856921e-07, -6.079734841959905e-20, -3.127525875025941e-13, 0.0, 0.0, 0.0, -6.079734841959907e-20, 5.001491458223548e-07, -8.330555455753781e-26, 0.0, 0.0, 0.0, -3.127525875025941e-13, -8.33052336588633e-26, 5.0014914582211e-07, 0.0, -9.672013715905457e-15, 2.14959739966198e-15, 0.0, 0.0, 0.0, 1.0023580320603565e-06]
twist: 
  twist: 
    linear: 
      x: 0.127500022532
      y: 0.0
      z: 0.0
    angular: 
      x: 0.0
      y: 0.0
      z: 0.0599999999258
  covariance: [9.999996248675756e-10, 0.0, 0.0, 0.0, 0.0, 0.0, 0.0, 198578.2039511947, 0.0, 0.0, 0.0, 0.0, 0.0, 0.0, 5.386410252660826e-07, -5.956180001924464e-24, -1.0284290301592155e-24, 0.0, 0.0, 0.0, -5.956180001924466e-24, 3.999916339749181e-07, -1.0742209444917138e-30, 0.0, 0.0, 0.0, -1.028429030159216e-24, -1.073913091135969e-30, 3.999916339749181e-07, 0.0, 0.0, 0.0, 0.0, 0.0, 0.0, 9.970219128567102e-10]
---
header: 
  seq: 3907
  stamp: 
    secs: 1518209853
    nsecs: 212554693
  frame_id: "swarmone/odom"
child_frame_id: "swarmone/base_link"
pose: 
  pose: 
    position: 
      x: 0.434333643274
      y: 3.15508950863
      z: 0.0
    orientation: 
      x: 0.0
      y: 0.0
      z: 0.841471268829
      w: 0.540301863531
  covariance: [4506587548.717683, -322065145.9881409, 0.0, 0.0, 0.0, -4.107165143753893e-15, -322065145.9881412, 23067149.742018852, 0.0, 0.0, 0.0, -5.345895283696326e-16, 0.0, 0.0, 5.979109314179176e-07, 8.631439469458679e-20, -2.1876455288211568e-13, 0.0, 0.0, 0.0, 8.631439469458678e-20, 4.983556094344608e-07, -3.254877133249271e-27, 0.0, 0.0, 0.0, -2.1876455288211566e-13, -3.2427809542659216e-27, 4.983556094343416e-07, 0.0, -4.107165143753893e-15, -5.345895283696325e-16, 0.0, 0.0, 0.0, 9.880529173136964e-07]
twist: 
  twist: 
    linear: 
      x: 0.142799995885
      y: 0.0
      z: 0.0
    angular: 
      x: 0.0
      y: 0.0
      z: 0.0500604197259
  covariance: [9.999996236127604e-10, 0.0, 0.0, 0.0, 0.0, 0.0, 0.0, 198730.43191935009, 0.0, 0.0, 0.0, 0.0, 0.0, 0.0, 5.366020959553504e-07, -3.752213648163407e-24, 1.7137287965460793e-24, 0.0, 0.0, 0.0, -3.752213648163405e-24, 3.9913178407562846e-07, 1.094490799849263e-30, 0.0, 0.0, 0.0, 1.7137287965460796e-24, 1.0944126456248029e-30, 3.9913178407562846e-07, 0.0, 0.0, 0.0, 0.0, 0.0, 0.0, 9.969790129491248e-10]
---
header: 
  seq: 3908
  stamp: 
    secs: 1518209853
    nsecs: 312236547
  frame_id: "swarmone/odom"
child_frame_id: "swarmone/base_link"
pose: 
  pose: 
    position: 
      x: 0.428576203121
      y: 3.17453001177
      z: 0.0
    orientation: 
      x: 0.0
      y: 0.0
      z: 0.70327962132
      w: 0.710913338063
  covariance: [4511843584.731972, -321047937.17909753, 0.0, 0.0, 0.0, -4.6426153691220275e-15, -321047937.1790979, 22897573.241710905, 0.0, 0.0, 0.0, -9.69033822172378e-16, 0.0, 0.0, 6.002104865239783e-07, 4.051982749103834e-20, -2.4649460029151505e-13, 0.0, 0.0, 0.0, 4.051982749103831e-20, 5.001489385274573e-07, 1.5183421793178597e-25, 0.0, 0.0, 0.0, -2.46494600291515e-13, 1.5183412522212994e-25, 5.001489385273051e-07, 0.0, -4.6426153691220275e-15, -9.69033822172378e-16, 0.0, 0.0, 0.0, 1.0023580320596412e-06]
twist: 
  twist: 
    linear: 
      x: 0.27509995205
      y: 0.0
      z: 0.0
    angular: 
      x: 0.0
      y: 0.0
      z: -0.0996128486414
  covariance: [9.999996232390267e-10, 0.0, 0.0, 0.0, 0.0, 0.0, 0.0, 198882.59532817444, 0.0, 0.0, 0.0, 0.0, 0.0, 0.0, 5.386409704884524e-07, -4.7555904934691056e-24, -4.8783173088383e-26, 0.0, 0.0, 0.0, -4.7555904934691056e-24, 3.999912608228396e-07, -1.769275235549305e-32, 0.0, 0.0, 0.0, -4.878317308838298e-26, -1.7665717594217303e-32, 3.999912608228396e-07, 0.0, 0.0, 0.0, 0.0, 0.0, 0.0, 9.97021912856692e-10]
---
header: 
  seq: 3909
  stamp: 
    secs: 1518209853
    nsecs: 412689209
  frame_id: "swarmone/odom"
child_frame_id: "swarmone/base_link"
pose: 
  pose: 
    position: 
      x: 0.428934952957
      y: 3.20410828452
      z: 0.0
    orientation: 
      x: 0.0
      y: 0.0
      z: 0.692539123647
      w: 0.721380317321
  covariance: [4517673980.517759, -321284454.0730298, 0.0, 0.0, 0.0, -1.602283945971329e-14, -321284454.07303005, 22902004.7056849, 0.0, 0.0, 0.0, 5.128531727128834e-16, 0.0, 0.0, 7.409529398485927e-07, -1.2972623183729361e-19, -5.474751621442875e-13, 0.0, 0.0, 0.0, -1.2972623183729364e-19, 6.268788839123204e-07, -2.606024021295715e-25, 0.0, 0.0, 0.0, -5.474751621442875e-13, -2.606054771521671e-25, 6.268788839111631e-07, 0.0, -1.602283945971329e-14, 5.128531727128834e-16, 0.0, 0.0, 0.0, 2.361343932941061e-06]
twist: 
  twist: 
    linear: 
      x: 0.314299990174
      y: 0.0
      z: 0.0
    angular: 
      x: 0.0
      y: 0.0
      z: -0.0996830555284
  covariance: [9.999996263063078e-10, 0.0, 0.0, 0.0, 0.0, 0.0, 0.0, 199036.0139236186, 0.0, 0.0, 0.0, 0.0, 0.0, 0.0, 6.746380767323442e-07, -3.6342857718322067e-23, -1.4838181034430503e-24, 0.0, 0.0, 0.0, -3.6342857718322067e-23, 4.717775798506792e-07, -5.085270012984799e-30, 0.0, 0.0, 0.0, -1.4838181034430507e-24, -5.085836986488672e-30, 4.717775798506792e-07, 0.0, 0.0, 0.0, 0.0, 0.0, 0.0, 9.987322214831397e-10]
---
header: 
  seq: 3910
  stamp: 
    secs: 1518209853
    nsecs: 512446880
  frame_id: "swarmone/odom"
child_frame_id: "swarmone/base_link"
pose: 
  pose: 
    position: 
      x: 0.430087659915
      y: 3.23237413823
      z: 0.0
    orientation: 
      x: 0.0
      y: 0.0
      z: 0.706824908835
      w: 0.707388541221
  covariance: [4523465508.817888, -321606174.4969541, 0.0, 0.0, 0.0, -1.765365898089051e-14, -321606174.4969543, 22918617.474129785, 0.0, 0.0, 0.0, 5.197803147067096e-16, 0.0, 0.0, 5.860045661259194e-07, 2.4372360182330496e-20, -5.303319778539401e-13, 0.0, 0.0, 0.0, 2.4372360182330502e-20, 4.891911289615194e-07, 2.2853594782935813e-25, 0.0, 0.0, 0.0, -5.303319778539402e-13, 2.285359699253937e-25, 4.891911289608396e-07, 0.0, -1.765365898089051e-14, 5.197803147067096e-16, 0.0, 0.0, 0.0, 9.165273435832009e-07]
twist: 
  twist: 
    linear: 
      x: 0.252100028845
      y: 0.0
      z: 0.0
    angular: 
      x: 0.0
      y: 0.0
      z: -0.0200976640308
  covariance: [9.999996235429823e-10, 0.0, 0.0, 0.0, 0.0, 0.0, 0.0, 199188.44914223172, 0.0, 0.0, 0.0, 0.0, 0.0, 0.0, 5.261312369711797e-07, -8.885574059113625e-24, -8.39438281810935e-27, 0.0, 0.0, 0.0, -8.885574059113626e-24, 3.947967611328371e-07, -3.6944623345844124e-32, 0.0, 0.0, 0.0, -8.39438281810935e-27, -3.694497418533899e-32, 3.947967611328371e-07, 0.0, 0.0, 0.0, 0.0, 0.0, 0.0, 9.967445350100108e-10]
---
header: 
  seq: 3911
  stamp: 
    secs: 1518209853
    nsecs: 612148285
  frame_id: "swarmone/odom"
child_frame_id: "swarmone/base_link"
pose: 
  pose: 
    position: 
      x: 0.429977645233
      y: 3.25455594037
      z: 0.0
    orientation: 
      x: 0.0
      y: 0.0
      z: 0.628793223465
      w: 0.777572557466
  covariance: [4529264497.25634, -321812298.5361764, 0.0, 0.0, 0.0, -8.014603506977497e-15, -321812298.53617656, 22918955.852032334, 0.0, 0.0, 0.0, 8.782726638095856e-16, 0.0, 0.0, 5.932315185090241e-07, -4.303689956665091e-20, -4.297767367305008e-13, 0.0, 0.0, 0.0, -4.303689956665091e-20, 4.947295859575201e-07, -4.519053254478721e-26, 0.0, 0.0, 0.0, -4.2977673673050054e-13, -4.519282509005714e-26, 4.947295859570659e-07, 0.0, -8.014603506977497e-15, 8.782726638095856e-16, 0.0, 0.0, 0.0, 9.594426878213685e-07]
twist: 
  twist: 
    linear: 
      x: 0.19220002623
      y: 0.0
      z: 0.0
    angular: 
      x: 0.0
      y: 0.0
      z: 0.0100622120168
  covariance: [9.999996233173216e-10, 0.0, 0.0, 0.0, 0.0, 0.0, 0.0, 199340.8761278301, 0.0, 0.0, 0.0, 0.0, 0.0, 0.0, 5.324697668793851e-07, -7.562259572380121e-24, -1.6158350869509409e-24, 0.0, 0.0, 0.0, -7.562259572380116e-24, 3.9740518477481085e-07, -2.1543136861994428e-30, 0.0, 0.0, 0.0, -1.6158350869509405e-24, -2.1555482903668534e-30, 3.9740518477481085e-07, 0.0, 0.0, 0.0, 0.0, 0.0, 0.0, 9.968893952517406e-10]
---
header: 
  seq: 3912
  stamp: 
    secs: 1518209853
    nsecs: 711930752
  frame_id: "swarmone/odom"
child_frame_id: "swarmone/base_link"
pose: 
  pose: 
    position: 
      x: 0.434032127791
      y: 3.27334622807
      z: 0.0
    orientation: 
      x: 0.0
      y: 0.0
      z: 0.854714287312
      w: 0.51909872574
  covariance: [4534945437.494843, -322619411.76208466, 0.0, 0.0, 0.0, -5.9334934184729154e-15, -322619411.7620849, 23004346.37600376, 0.0, 0.0, 0.0, -8.472862130743508e-16, 0.0, 0.0, 5.97910931910534e-07, 6.893984695692142e-20, -3.279504202357008e-13, 0.0, 0.0, 0.0, 6.893984695692139e-20, 4.983554576460071e-07, 3.343430037972998e-26, 0.0, 0.0, 0.0, -3.279504202357007e-13, 3.345000435690518e-26, 4.983554576457397e-07, 0.0, -5.933493418472916e-15, -8.472862130743508e-16, 0.0, 0.0, 0.0, 9.880529173137077e-07]
twist: 
  twist: 
    linear: 
      x: 0.193000001762
      y: 0.0
      z: 0.0
    angular: 
      x: 0.0
      y: 0.0
      z: 9.06295813398e-05
  covariance: [9.999996236417923e-10, 0.0, 0.0, 0.0, 0.0, 0.0, 0.0, 199493.50488280124, 0.0, 0.0, 0.0, 0.0, 0.0, 0.0, 5.366020969306035e-07, -5.489006969400185e-24, 2.8462456029304633e-24, 0.0, 0.0, 0.0, -5.489006969400184e-24, 3.991317905323915e-07, 2.655295310590731e-30, 0.0, 0.0, 0.0, 2.8462456029304633e-24, 2.655836382634559e-30, 3.991317905323915e-07, 0.0, 0.0, 0.0, 0.0, 0.0, 0.0, 9.96979012949125e-10]
---
header: 
  seq: 3913
  stamp: 
    secs: 1518209853
    nsecs: 812443018
  frame_id: "swarmone/odom"
child_frame_id: "swarmone/base_link"
pose: 
  pose: 
    position: 
      x: 0.425048591982
      y: 3.29535424554
      z: 0.0
    orientation: 
      x: 0.0
      y: 0.0
      z: 0.655617279234
      w: 0.755093360565
  covariance: [4540143573.477911, -321451558.36229634, 0.0, 0.0, 0.0, -5.899684156378263e-15, -321451558.36229664, 22814915.371580645, 0.0, 0.0, 0.0, -1.0539153981572063e-15, 0.0, 0.0, 5.88441969804526e-07, 2.1107949228730507e-20, -3.217156881425501e-13, 0.0, 0.0, 0.0, 2.110794922873051e-20, 4.910508610693541e-07, 1.6983578326078668e-26, 0.0, 0.0, 0.0, -3.2171568814255005e-13, 1.6986059040298374e-26, 4.910508610691024e-07, 0.0, -5.8996841563782635e-15, -1.053915398157207e-15, 0.0, 0.0, 0.0, 9.308324583305175e-07]
twist: 
  twist: 
    linear: 
      x: 0.291199965281
      y: 0.0
      z: 0.0
    angular: 
      x: 0.0
      y: 0.0
      z: -0.0698717718711
  covariance: [9.999996265413369e-10, 0.0, 0.0, 0.0, 0.0, 0.0, 0.0, 199647.3286962631, 0.0, 0.0, 0.0, 0.0, 0.0, 0.0, 5.282631978705904e-07, -5.459314759658658e-24, -7.68439409485514e-25, 0.0, 0.0, 0.0, -5.459314759658659e-24, 3.9566944016394966e-07, -7.210659020201967e-31, 0.0, 0.0, 0.0, -7.684394094855142e-25, -7.211509070633292e-31, 3.9566944016394966e-07, 0.0, 0.0, 0.0, 0.0, 0.0, 0.0, 9.967942979776468e-10]
---
header: 
  seq: 3914
  stamp: 
    secs: 1518209853
    nsecs: 912786245
  frame_id: "swarmone/odom"
child_frame_id: "swarmone/base_link"
pose: 
  pose: 
    position: 
      x: 0.429253287062
      y: 3.32593097736
      z: 0.0
    orientation: 
      x: 0.0
      y: 0.0
      z: 0.66687023288
      w: 0.745173867294
  covariance: [4545939438.8385725, -322065119.6359199, 0.0, 0.0, 0.0, -9.424611854327642e-15, -322065119.6359203, 22872411.816018514, 0.0, 0.0, 0.0, 1.1873917699794352e-15, 0.0, 0.0, 5.955848018523783e-07, -4.901006681132151e-20, -4.986245842123127e-13, 0.0, 0.0, 0.0, -4.9010066811321497e-20, 4.965494704077584e-07, 1.8182566492431488e-25, 0.0, 0.0, 0.0, -4.986245842123125e-13, 1.818276180240219e-25, 4.965494704071435e-07, 0.0, -9.424611854327644e-15, 1.1873917699794354e-15, 0.0, 0.0, 0.0, 9.737478025685394e-07]
twist: 
  twist: 
    linear: 
      x: 0.324599991597
      y: 0.0
      z: 0.0
    angular: 
      x: 0.0
      y: 0.0
      z: -0.109356320653
  covariance: [9.999996258739754e-10, 0.0, 0.0, 0.0, 0.0, 0.0, 0.0, 199800.9726674557, 0.0, 0.0, 0.0, 0.0, 0.0, 0.0, 5.345451848111496e-07, -9.130371571229138e-24, -1.0161764118484065e-24, 0.0, 0.0, 0.0, -9.130371571229138e-24, 3.982702692407469e-07, -1.643029221409709e-30, 0.0, 0.0, 0.0, -1.0161764118484065e-24, -1.643066816117707e-30, 3.982702692407469e-07, 0.0, 0.0, 0.0, 0.0, 0.0, 0.0, 9.969348590145476e-10]
---
header: 
  seq: 3915
  stamp: 
    secs: 1518209854
    nsecs:  12524843
  frame_id: "swarmone/odom"
child_frame_id: "swarmone/base_link"
pose: 
  pose: 
    position: 
      x: 0.432802991102
      y: 3.35550519427
      z: 0.0
    orientation: 
      x: 0.0
      y: 0.0
      z: 0.677971565538
      w: 0.735088128269
  covariance: [4551728184.104563, -322589804.0854898, 0.0, 0.0, 0.0, -1.0856874528291403e-14, -322589804.08549017, 22917510.46435766, 0.0, 0.0, 0.0, 1.0405972377983285e-15, 0.0, 0.0, 5.979109289455021e-07, 8.527838190469064e-20, -5.58818298298529e-13, 0.0, 0.0, 0.0, 8.527838190469066e-20, 4.983551731236955e-07, 4.94023054803707e-25, 0.0, 0.0, 0.0, -5.58818298298529e-13, 4.94025027381035e-25, 4.983551731229185e-07, 0.0, -1.0856874528291406e-14, 1.040597237798329e-15, 0.0, 0.0, 0.0, 9.880529173136346e-07]
twist: 
  twist: 
    linear: 
      x: 0.271500024605
      y: 0.0
      z: 0.0
    angular: 
      x: 0.0
      y: 0.0
      z: -0.0699093704935
  covariance: [9.999996234667965e-10, 0.0, 0.0, 0.0, 0.0, 0.0, 0.0, 199953.7689368129, 0.0, 0.0, 0.0, 0.0, 0.0, 0.0, 5.366020910227465e-07, -1.0504021492988838e-23, -8.509983624914832e-25, 0.0, 0.0, 0.0, -1.0504021492988835e-23, 3.9913175088237026e-07, -1.5618978817262272e-30, 0.0, 0.0, 0.0, -8.50998362491483e-25, -1.5620890902126399e-30, 3.9913175088237026e-07, 0.0, 0.0, 0.0, 0.0, 0.0, 0.0, 9.969790129491232e-10]
---
header: 
  seq: 3916
  stamp: 
    secs: 1518209854
    nsecs: 112411261
  frame_id: "swarmone/odom"
child_frame_id: "swarmone/base_link"
pose: 
  pose: 
    position: 
      x: 0.434903548366
      y: 3.37927707865
      z: 0.0
    orientation: 
      x: 0.0
      y: 0.0
      z: 0.624897511681
      w: 0.780706795087
  covariance: [4557548155.618758, -323029343.19657326, 0.0, 0.0, 0.0, -8.883878726218757e-15, -323029343.1965735, 22950531.24387697, 0.0, 0.0, 0.0, 1.345005978968058e-15, 0.0, 0.0, 5.932315313304129e-07, -2.6081697022906026e-20, -4.592099599347601e-13, 0.0, 0.0, 0.0, -2.6081697022906032e-20, 4.947296252363157e-07, 9.539657307742557e-26, 0.0, 0.0, 0.0, -4.592099599347599e-13, 9.539614804168749e-26, 4.94729625235797e-07, 0.0, -8.883878726218757e-15, 1.345005978968058e-15, 0.0, 0.0, 0.0, 9.594426878216802e-07]
twist: 
  twist: 
    linear: 
      x: 0.205100028069
      y: 0.0
      z: 0.0
    angular: 
      x: 0.0
      y: 0.0
      z: -0.00987557596566
  covariance: [9.99999624057817e-10, 0.0, 0.0, 0.0, 0.0, 0.0, 0.0, 200106.86971536823, 0.0, 0.0, 0.0, 0.0, 0.0, 0.0, 5.324697922906106e-07, -8.063073456446553e-24, -1.8081038740634042e-24, 0.0, 0.0, 0.0, -8.063073456446556e-24, 3.9740535356987174e-07, -2.5876387081302142e-30, 0.0, 0.0, 0.0, -1.8081038740634046e-24, -2.5874804403076398e-30, 3.9740535356987174e-07, 0.0, 0.0, 0.0, 0.0, 0.0, 0.0, 9.968893952517495e-10]
---
header: 
  seq: 3917
  stamp: 
    secs: 1518209854
    nsecs: 212112188
  frame_id: "swarmone/odom"
child_frame_id: "swarmone/base_link"
pose: 
  pose: 
    position: 
      x: 0.439308871297
      y: 3.39691730629
      z: 0.0
    orientation: 
      x: 0.0
      y: 0.0
      z: 0.655618571823
      w: 0.75509223826
  covariance: [4563240672.586285, -323867611.93353325, 0.0, 0.0, 0.0, -1.3824757394181206e-14, -323867611.9335335, 23040086.950938437, 0.0, 0.0, 0.0, 2.226488784706574e-15, 0.0, 0.0, 7.814474148813417e-07, -1.6393131222092175e-19, -3.8494447719947833e-13, 0.0, 0.0, 0.0, -1.6393131222092173e-19, 6.708056581206164e-07, -2.7739929726959946e-25, 0.0, 0.0, 0.0, -3.849444771994783e-13, -2.7740134230546997e-25, 6.708056581199383e-07, 0.0, -1.3824757394181206e-14, 2.226488784706574e-15, 0.0, 0.0, 0.0, 3.0765996702455555e-06]
twist: 
  twist: 
    linear: 
      x: 0.158100019093
      y: 0.0
      z: 0.0
    angular: 
      x: 0.0
      y: 0.0
      z: 0.0100486759836
  covariance: [9.999996233154741e-10, 0.0, 0.0, 0.0, 0.0, 0.0, 0.0, 200259.76409961836, 0.0, 0.0, 0.0, 0.0, 0.0, 0.0, 7.1833660350976e-07, -3.501070242135848e-23, -4.961084616004997e-24, 0.0, 0.0, 0.0, -3.501070242135847e-23, 5.03068376777781e-07, -1.5271837901854058e-29, 0.0, 0.0, 0.0, -4.9610846160049956e-24, -1.5271846032225735e-29, 5.03068376777781e-07, 0.0, 0.0, 0.0, 0.0, 0.0, 0.0, 9.990264796461812e-10]
---
header: 
  seq: 3918
  stamp: 
    secs: 1518209854
    nsecs: 312633038
  frame_id: "swarmone/odom"
child_frame_id: "swarmone/base_link"
pose: 
  pose: 
    position: 
      x: 0.44155884358
      y: 3.41312511678
      z: 0.0
    orientation: 
      x: 0.0
      y: 0.0
      z: 0.862404366195
      w: 0.506220020513
  covariance: [4569070349.526658, -324485001.3887457, 0.0, 0.0, 0.0, -1.0317060975637793e-14, -324485001.38874584, 23098030.89044079, 0.0, 0.0, 0.0, -1.3347160144479955e-16, 0.0, 0.0, 5.979109817108889e-07, 8.025949606590854e-20, -2.6327867279566657e-13, 0.0, 0.0, 0.0, 8.025949606590854e-20, 4.983556475719856e-07, 3.404214078179326e-26, 0.0, 0.0, 0.0, -2.632786727956666e-13, 3.403983242372915e-26, 4.98355647571813e-07, 0.0, -1.0317060975637793e-14, -1.3347160144479955e-16, 0.0, 0.0, 0.0, 9.880529173149928e-07]
twist: 
  twist: 
    linear: 
      x: 0.167699996637
      y: 0.0
      z: 0.0
    angular: 
      x: 0.0
      y: 0.0
      z: 0.0100906295665
