header: 
  seq: 6462
  stamp: 
    secs: 1518210108
    nsecs: 712532043
  frame_id: "swarmone/odom"
child_frame_id: "swarmone/base_link"
pose: 
  pose: 
    position: 
      x: 0.479450517553
      y: 6.16360702312
      z: 0.0
    orientation: 
      x: 0.0
      y: 0.0
      z: 0.674288174991
      w: 0.738468318256
  covariance: [55450966140.79265, -3354487846.340057, 0.0, 0.0, 0.0, 6.72890621435787e-37, -3354487846.3400598, 203112999.24913102, 0.0, 0.0, 0.0, -6.126377289453667e-38, 0.0, 0.0, 6.113247913601087e-07, 1.86190527426983e-42, 2.870045325466801e-35, 0.0, 0.0, 0.0, 1.8619052742698304e-42, 5.089276525471304e-07, 5.671867705483558e-31, 0.0, 0.0, 0.0, 2.8700453254668003e-35, -5.671867705483558e-31, 5.089276525471304e-07, 0.0, 6.728906214357871e-37, -6.126377289453667e-38, 0.0, 0.0, 0.0, 1.0738836057919817e-06]
twist: 
  twist: 
    linear: 
      x: -6.26597275167e-30
      y: 0.0
      z: 0.0
    angular: 
      x: 0.0
      y: 0.0
      z: 0.000111226030325
  covariance: [9.999996275096337e-10, 0.0, 0.0, 0.0, 0.0, 0.0, 0.0, 899263.6423947903, 0.0, 0.0, 0.0, 0.0, 0.0, 0.0, 5.485722114866394e-07, 6.146840711179683e-46, 5.596488828273968e-47, 0.0, 0.0, 0.0, 6.146840711179685e-46, 4.042533975969006e-07, -1.70700350768304e-34, 0.0, 0.0, 0.0, 5.596488828273971e-47, 1.70700350768304e-34, 4.042533975969006e-07, 0.0, 0.0, 0.0, 0.0, 0.0, 0.0, 9.972193478633137e-10]
---
header: 
  seq: 6463
  stamp: 
    secs: 1518210108
    nsecs: 811703205
  frame_id: "swarmone/odom"
child_frame_id: "swarmone/base_link"
pose: 
  pose: 
    position: 
      x: 0.479450517553
      y: 6.16360702312
      z: 0.0
    orientation: 
      x: 0.0
      y: 0.0
      z: 0.674288093305
      w: 0.738468392842
  covariance: [55493683207.652626, -3357718331.503549, 0.0, 0.0, 0.0, 3.928957492532671e-37, -3357718331.5035515, 203347147.0882472, 0.0, 0.0, 0.0, -3.577174608556732e-38, 0.0, 0.0, 5.979108903168148e-07, 1.1542589097787032e-42, 2.5769242981958943e-35, 0.0, 0.0, 0.0, 1.1542589097787029e-42, 4.983553417114869e-07, 1.3453065170018778e-30, 0.0, 0.0, 0.0, 2.5769242981958933e-35, -1.3453065170018778e-30, 4.983553417114869e-07, 0.0, 3.928957492532671e-37, -3.577174608556732e-38, 0.0, 0.0, 0.0, 9.880529173126813e-07]
twist: 
  twist: 
    linear: 
      x: -5.8849943978e-30
      y: 0.0
      z: 0.0
    angular: 
      x: 0.0
      y: 0.0
      z: 9.06295659955e-05
  covariance: [9.9999962118069e-10, 0.0, 0.0, 0.0, 0.0, 0.0, 0.0, 899677.7580499913, 0.0, 0.0, 0.0, 0.0, 0.0, 0.0, 5.366020140914821e-07, 4.833361049818976e-46, 4.400611461004612e-47, 0.0, 0.0, 0.0, 4.833361049818975e-46, 3.9913123438763015e-07, 3.4919684932046778e-37, 0.0, 0.0, 0.0, 4.400611461004612e-47, -3.4919684932046778e-37, 3.9913123438763015e-07, 0.0, 0.0, 0.0, 0.0, 0.0, 0.0, 9.96979012949097e-10]
---
header: 
  seq: 6464
  stamp: 
    secs: 1518210108
    nsecs: 912524462
  frame_id: "swarmone/odom"
child_frame_id: "swarmone/base_link"
pose: 
  pose: 
    position: 
      x: 0.479450517553
      y: 6.16360702312
      z: 0.0
    orientation: 
      x: 0.0
      y: 0.0
      z: 0.685289381494
      w: 0.728270872417
  covariance: [55537138037.83469, -3361004571.221001, 0.0, 0.0, 0.0, 8.485556776487652e-37, -3361004571.2210045, 203585351.2313795, 0.0, 0.0, 0.0, -5.532053889071199e-38, 0.0, 0.0, 7.751198087998581e-07, 3.287522514420054e-42, 2.75391547026437e-35, 0.0, 0.0, 0.0, 3.287522514420054e-42, 6.636785755821689e-07, -1.1085929465943812e-30, 0.0, 0.0, 0.0, 2.7539154702643707e-35, 1.1085929465943812e-30, 6.636785755821689e-07, 0.0, 8.485556776487652e-37, -5.532053889071199e-38, 0.0, 0.0, 0.0, 2.9478536375323594e-06]
twist: 
  twist: 
    linear: 
      x: -5.52160565357e-30
      y: 0.0
      z: 0.0
    angular: 
      x: 0.0
      y: 0.0
      z: 4.06386348186e-05
  covariance: [9.999996277564732e-10, 0.0, 0.0, 0.0, 0.0, 0.0, 0.0, 900098.894423809, 0.0, 0.0, 0.0, 0.0, 0.0, 0.0, 7.113586508142358e-07, 2.400727655885074e-45, 1.4609769822098643e-46, 0.0, 0.0, 0.0, 2.400727655885075e-45, 4.977131909931625e-07, -5.507472039996464e-36, 0.0, 0.0, 0.0, 1.4609769822098643e-46, 5.507472039996464e-36, 4.977131909931625e-07, 0.0, 0.0, 0.0, 0.0, 0.0, 0.0, 9.989840336265856e-10]
---
header: 
  seq: 6465
  stamp: 
    secs: 1518210109
    nsecs:  12511015
  frame_id: "swarmone/odom"
child_frame_id: "swarmone/base_link"
pose: 
  pose: 
    position: 
      x: 0.479450517553
      y: 6.16360702312
      z: 0.0
    orientation: 
      x: 0.0
      y: 0.0
      z: 0.674288152188
      w: 0.738468339077
  covariance: [55580358276.391945, -3363621510.9932327, 0.0, 0.0, 0.0, 5.6103541536785015e-37, -3363621510.9932365, 203743799.6001415, 0.0, 0.0, 0.0, -4.0874185801430956e-38, 0.0, 0.0, 5.955847778392756e-07, 1.3395253876654781e-42, 2.277547468564784e-35, 0.0, 0.0, 0.0, 1.3395253876654783e-42, 4.965491519421346e-07, -2.7687953780354543e-31, 0.0, 0.0, 0.0, 2.2775474685647841e-35, 2.7687953780354543e-31, 4.965491519421346e-07, 0.0, 5.610354153678502e-37, -4.087418580143095e-38, 0.0, 0.0, 0.0, 9.737478025680028e-07]
twist: 
  twist: 
    linear: 
      x: -5.18328868451e-30
      y: 0.0
      z: 0.0
    angular: 
      x: 0.0
      y: 0.0
      z: 0.00012260557816
  covariance: [9.999996244576507e-10, 0.0, 0.0, 0.0, 0.0, 0.0, 0.0, 900516.6739663853, 0.0, 0.0, 0.0, 0.0, 0.0, 0.0, 5.345451373077049e-07, 4.178732162693658e-46, 3.802998299035952e-47, 0.0, 0.0, 0.0, 4.178732162693659e-46, 3.9826995713712736e-07, 3.915400544723899e-35, 0.0, 0.0, 0.0, 3.8029982990359524e-47, -3.915400544723899e-35, 3.9826995713712736e-07, 0.0, 0.0, 0.0, 0.0, 0.0, 0.0, 9.969348590145309e-10]
---
header: 
  seq: 6466
  stamp: 
    secs: 1518210109
    nsecs: 112703323
  frame_id: "swarmone/odom"
child_frame_id: "swarmone/base_link"
pose: 
  pose: 
    position: 
      x: 0.479450517553
      y: 6.16360702312
      z: 0.0
    orientation: 
      x: 0.0
      y: 0.0
      z: 0.677972106871
      w: 0.735087628997
  covariance: [55623595764.60792, -3366891875.2201047, 0.0, 0.0, 0.0, 3.1466981369368457e-37, -3366891875.220109, 203980897.22240236, 0.0, 0.0, 0.0, -2.653617822131914e-38, 0.0, 0.0, 5.955847916292145e-07, 1.4026389143050876e-42, 2.1423713936473627e-35, 0.0, 0.0, 0.0, 1.4026389143050876e-42, 4.965492352182951e-07, -2.603016260355087e-30, 0.0, 0.0, 0.0, 2.1423713936473633e-35, 2.603016260355087e-30, 4.965492352182951e-07, 0.0, 3.1466981369368457e-37, -2.6536178221319145e-38, 0.0, 0.0, 0.0, 9.737478025682904e-07]
twist: 
  twist: 
    linear: 
      x: -4.86509462268e-30
      y: 0.0
      z: 0.0
    angular: 
      x: 0.0
      y: 0.0
      z: 0.000153256972967
  covariance: [9.999996252760624e-10, 0.0, 0.0, 0.0, 0.0, 0.0, 0.0, 900935.4428823746, 0.0, 0.0, 0.0, 0.0, 0.0, 0.0, 5.345451645100862e-07, 3.928932135096067e-46, 3.1813993961986356e-47, 0.0, 0.0, 0.0, 3.9289321350960644e-46, 3.9827013379072583e-07, -9.590125554374426e-35, 0.0, 0.0, 0.0, 3.1813993961986346e-47, 9.590125554374426e-35, 3.9827013379072583e-07, 0.0, 0.0, 0.0, 0.0, 0.0, 0.0, 9.969348590145404e-10]
---
header: 
  seq: 6467
  stamp: 
    secs: 1518210109
    nsecs: 212713003
  frame_id: "swarmone/odom"
child_frame_id: "swarmone/base_link"
pose: 
  pose: 
    position: 
      x: 0.479450517553
      y: 6.16360702312
      z: 0.0
    orientation: 
      x: 0.0
      y: 0.0
      z: 0.674288147437
      w: 0.738468343415
  covariance: [55666818396.47439, -3369943698.681381, 0.0, 0.0, 0.0, 2.918423573417171e-37, -3369943698.6813865, 204191732.81021017, 0.0, 0.0, 0.0, -2.5580395177124734e-38, 0.0, 0.0, 5.932315398324369e-07, 1.1576760943228665e-42, 1.996371297168246e-35, 0.0, 0.0, 0.0, 1.1576760943228668e-42, 4.947296945873388e-07, 2.2273181689382224e-31, 0.0, 0.0, 0.0, 1.9963712971682455e-35, -2.2273181689382224e-31, 4.947296945873388e-07, 0.0, 2.9184235734171705e-37, -2.5580395177124734e-38, 0.0, 0.0, 0.0, 9.594426878218854e-07]
twist: 
  twist: 
    linear: 
      x: -4.56694336842e-30
      y: 0.0
      z: 0.0
    angular: 
      x: 0.0
      y: 0.0
      z: 0.000124424127952
  covariance: [9.999996245498993e-10, 0.0, 0.0, 0.0, 0.0, 0.0, 0.0, 901353.5779275337, 0.0, 0.0, 0.0, 0.0, 0.0, 0.0, 5.324698091372431e-07, 3.5723287238657996e-46, 3.252432551241999e-47, 0.0, 0.0, 0.0, 3.5723287238657996e-46, 3.974054653403217e-07, 9.574080882507972e-35, 0.0, 0.0, 0.0, 3.252432551241999e-47, -9.574080882507972e-35, 3.974054653403217e-07, 0.0, 0.0, 0.0, 0.0, 0.0, 0.0, 9.968893952517555e-10]
---
header: 
  seq: 6468
  stamp: 
    secs: 1518210109
    nsecs: 312172651
  frame_id: "swarmone/odom"
child_frame_id: "swarmone/base_link"
pose: 
  pose: 
    position: 
      x: 0.479450517553
      y: 6.16360702312
      z: 0.0
    orientation: 
      x: 0.0
      y: 0.0
      z: 0.677972061482
      w: 0.73508767086
  covariance: [55709792946.63915, -3373194629.04427, 0.0, 0.0, 0.0, 2.846687507118635e-37, -3373194629.0442753, 204427471.38515234, 0.0, 0.0, 0.0, -2.3960890602975466e-38, 0.0, 0.0, 6.047315794863429e-07, 1.0602439767027646e-42, 1.9116181206382261e-35, 0.0, 0.0, 0.0, 1.0602439767027644e-42, 5.036977108166006e-07, 4.880496413439072e-31, 0.0, 0.0, 0.0, 1.9116181206382264e-35, -4.880496413439072e-31, 5.036977108166006e-07, 0.0, 2.846687507118635e-37, -2.3960890602975466e-38, 0.0, 0.0, 0.0, 1.0309682615514698e-06]
twist: 
  twist: 
    linear: 
      x: -4.28850983436e-30
      y: 0.0
      z: 0.0
    angular: 
      x: 0.0
      y: 0.0
      z: 0.00011583360655
  covariance: [9.999996223462629e-10, 0.0, 0.0, 0.0, 0.0, 0.0, 0.0, 901769.5416100646, 0.0, 0.0, 0.0, 0.0, 0.0, 0.0, 5.426653599913529e-07, 3.839180841123259e-46, 3.1086789002569837e-47, 0.0, 0.0, 0.0, 3.8391808411232574e-46, 4.017028262617084e-07, 3.7462536791865974e-35, 0.0, 0.0, 0.0, 3.1086789002569827e-47, -3.7462536791865974e-35, 4.017028262617084e-07, 0.0, 0.0, 0.0, 0.0, 0.0, 0.0, 9.971041583847453e-10]
---
header: 
  seq: 6469
  stamp: 
    secs: 1518210109
    nsecs: 411935091
  frame_id: "swarmone/odom"
child_frame_id: "swarmone/base_link"
pose: 
  pose: 
    position: 
      x: 0.479450517553
      y: 6.16360702312
      z: 0.0
    orientation: 
      x: 0.0
      y: 0.0
      z: 0.66313569069
      w: 0.748499202226
  covariance: [55752962041.140175, -3376243240.3578057, 0.0, 0.0, 0.0, 2.6622022541572396e-37, -3376243240.3578115, 204638133.19516045, 0.0, 0.0, 0.0, -2.8615267566190194e-38, 0.0, 0.0, 5.979109305675306e-07, 1.4075530238367077e-42, 1.774195498548219e-35, 0.0, 0.0, 0.0, 1.4075530238367074e-42, 4.983555076563684e-07, 1.7921555160431502e-30, 0.0, 0.0, 0.0, 1.774195498548219e-35, -1.7921555160431502e-30, 4.983555076563684e-07, 0.0, 2.6622022541572396e-37, -2.861526756619019e-38, 0.0, 0.0, 0.0, 9.88052917313676e-07]
twist: 
  twist: 
    linear: 
      x: -4.02630958047e-30
      y: 0.0
      z: 0.0
    angular: 
      x: 0.0
      y: 0.0
      z: 0.000120839421637
  covariance: [9.999996235618484e-10, 0.0, 0.0, 0.0, 0.0, 0.0, 0.0, 902186.9001792264, 0.0, 0.0, 0.0, 0.0, 0.0, 0.0, 5.366020942655321e-07, 3.317079017892787e-46, 4.026372292911914e-47, 0.0, 0.0, 0.0, 3.317079017892787e-46, 3.9913177278902736e-07, -3.9261317780111027e-35, 0.0, 0.0, 0.0, 4.026372292911913e-47, 3.9261317780111005e-35, 3.9913177278902736e-07, 0.0, 0.0, 0.0, 0.0, 0.0, 0.0, 9.96979012949124e-10]
---
header: 
  seq: 6470
  stamp: 
    secs: 1518210109
    nsecs: 512444496
  frame_id: "swarmone/odom"
child_frame_id: "swarmone/base_link"
pose: 
  pose: 
    position: 
      x: 0.479450517553
      y: 6.16360702312
      z: 0.0
    orientation: 
      x: 0.0
      y: 0.0
      z: 0.674288141463
      w: 0.738468348869
  covariance: [55796305669.30974, -3380180156.9989963, 0.0, 0.0, 0.0, 2.411980054996866e-37, -3380180156.9990015, 204955267.90174013, 0.0, 0.0, 0.0, -2.446842121362671e-38, 0.0, 0.0, 5.90850788457011e-07, 9.43410935134817e-43, 1.6511974828305183e-35, 0.0, 0.0, 0.0, 9.434109351348168e-43, 4.928971413539588e-07, -2.0153062001761784e-30, 0.0, 0.0, 0.0, 1.651197482830518e-35, 2.0153062001761784e-30, 4.928971413539588e-07, 0.0, 2.411980054996866e-37, -2.446842121362671e-38, 0.0, 0.0, 0.0, 9.451375730766136e-07]
twist: 
  twist: 
    linear: 
      x: -3.77841262283e-30
      y: 0.0
      z: 0.0
    angular: 
      x: 0.0
      y: 0.0
      z: 0.000126297437385
  covariance: [9.99999626530237e-10, 0.0, 0.0, 0.0, 0.0, 0.0, 0.0, 902607.5139019036, 0.0, 0.0, 0.0, 0.0, 0.0, 0.0, 5.30375957456417e-07, 2.8842524657917333e-46, 2.6261731944483533e-47, 0.0, 0.0, 0.0, 2.8842524657917325e-46, 3.965389260120448e-07, -1.9902012425253182e-38, 0.0, 0.0, 0.0, 2.626173194448354e-47, 1.9902012425253182e-38, 3.965389260120448e-07, 0.0, 0.0, 0.0, 0.0, 0.0, 0.0, 9.96842562499159e-10]
---
header: 
  seq: 6471
  stamp: 
    secs: 1518210109
    nsecs: 612423420
  frame_id: "swarmone/odom"
child_frame_id: "swarmone/base_link"
pose: 
  pose: 
    position: 
      x: 0.479450517553
      y: 6.16360702312
      z: 0.0
    orientation: 
      x: 0.0
      y: 0.0
      z: 0.670587399595
      w: 0.741830532874
  covariance: [55839584940.03293, -3383455217.8821383, 0.0, 0.0, 0.0, 2.2861398339312368e-37, -3383455217.8821425, 205192869.97563586, 0.0, 0.0, 0.0, -2.2374392995180399e-38, 0.0, 0.0, 5.979109451724506e-07, 1.038043737726195e-42, 1.5665548498348364e-35, 0.0, 0.0, 0.0, 1.038043737726195e-42, 4.983555534468958e-07, 4.252361076930695e-31, 0.0, 0.0, 0.0, 1.5665548498348358e-35, -4.252361076930695e-31, 4.983555534468958e-07, 0.0, 2.2861398339312363e-37, -2.2374392995180396e-38, 0.0, 0.0, 0.0, 9.880529173140355e-07]
twist: 
  twist: 
    linear: 
      x: -3.54692659635e-30
      y: 0.0
      z: 0.0
    angular: 
      x: 0.0
      y: 0.0
      z: 0.000120839421783
  covariance: [9.999996244270721e-10, 0.0, 0.0, 0.0, 0.0, 0.0, 0.0, 903026.0373344447, 0.0, 0.0, 0.0, 0.0, 0.0, 0.0, 5.36602123348314e-07, 2.9352613222213366e-46, 2.9686741659985283e-47, 0.0, 0.0, 0.0, 2.9352613222213374e-46, 3.991319679409902e-07, 1.3531356126259395e-34, 0.0, 0.0, 0.0, 2.9686741659985288e-47, -1.3531356126259395e-34, 3.991319679409902e-07, 0.0, 0.0, 0.0, 0.0, 0.0, 0.0, 9.969790129491342e-10]
---
header: 
  seq: 6472
  stamp: 
    secs: 1518210109
    nsecs: 712180853
  frame_id: "swarmone/odom"
child_frame_id: "swarmone/base_link"
pose: 
  pose: 
    position: 
      x: 0.479450517553
      y: 6.16360702312
      z: 0.0
    orientation: 
      x: 0.0
      y: 0.0
      z: 0.674288142683
      w: 0.738468347755
  covariance: [55882753568.22648, -3386939991.026856, 0.0, 0.0, 0.0, 2.1105139632818076e-37, -3386939991.02686, 205456190.66243577, 0.0, 0.0, 0.0, -1.9946585488683647e-38, 0.0, 0.0, 5.90850736147599e-07, 8.247147202839555e-43, 1.4437172784030217e-35, 0.0, 0.0, 0.0, 8.247147202839555e-43, 4.928969806934242e-07, 4.537540648011422e-31, 0.0, 0.0, 0.0, 1.4437172784030212e-35, -4.537540648011422e-31, 4.928969806934242e-07, 0.0, 2.1105139632818076e-37, -1.9946585488683647e-38, 0.0, 0.0, 0.0, 9.451375730753637e-07]
twist: 
  twist: 
    linear: 
      x: -3.33007486916e-30
      y: 0.0
      z: 0.0
    angular: 
      x: 0.0
      y: 0.0
      z: 0.000126297436914
  covariance: [9.999996235420596e-10, 0.0, 0.0, 0.0, 0.0, 0.0, 0.0, 903443.7625063498, 0.0, 0.0, 0.0, 0.0, 0.0, 0.0, 5.303758540988498e-07, 2.5218341948932472e-46, 2.2960910349021494e-47, 0.0, 0.0, 0.0, 2.5218341948932464e-46, 3.9653824422990937e-07, -4.03924797949889e-35, 0.0, 0.0, 0.0, 2.296091034902149e-47, 4.0392479794988887e-35, 3.9653824422990937e-07, 0.0, 0.0, 0.0, 0.0, 0.0, 0.0, 9.968425624991218e-10]
---
header: 
  seq: 6473
  stamp: 
    secs: 1518210109
    nsecs: 812720299
  frame_id: "swarmone/odom"
child_frame_id: "swarmone/base_link"
pose: 
  pose: 
    position: 
      x: 0.479450517553
      y: 6.16360702312
      z: 0.0
    orientation: 
      x: 0.0
      y: 0.0
      z: 0.674288146822
      w: 0.738468343977
  covariance: [55926329443.44153, -3390238102.9876595, 0.0, 0.0, 0.0, 1.9877488675363565e-37, -3390238102.9876633, 205695533.69982913, 0.0, 0.0, 0.0, -1.809774820317457e-38, 0.0, 0.0, 5.932315761489525e-07, 7.965481852730748e-43, 1.373721440139035e-35, 0.0, 0.0, 0.0, 7.965481852730748e-43, 4.947298066144631e-07, 1.1895830723580302e-30, 0.0, 0.0, 0.0, 1.373721440139035e-35, -1.1895830723580302e-30, 4.947298066144631e-07, 0.0, 1.9877488675363565e-37, -1.809774820317457e-38, 0.0, 0.0, 0.0, 9.594426878227627e-07]
twist: 
  twist: 
    linear: 
      x: -3.12498527362e-30
      y: 0.0
      z: 0.0
    angular: 
      x: 0.0
      y: 0.0
      z: 0.000124424128236
  covariance: [9.999996266489237e-10, 0.0, 0.0, 0.0, 0.0, 0.0, 0.0, 903864.8926076738, 0.0, 0.0, 0.0, 0.0, 0.0, 0.0, 5.324698810877312e-07, 2.458113614764382e-46, 2.238028740763413e-47, 0.0, 0.0, 0.0, 2.458113614764382e-46, 3.974059427760584e-07, 1.5287813596311455e-34, 0.0, 0.0, 0.0, 2.238028740763413e-47, -1.5287813596311455e-34, 3.974059427760584e-07, 0.0, 0.0, 0.0, 0.0, 0.0, 0.0, 9.968893952517811e-10]
---
header: 
  seq: 6474
  stamp: 
    secs: 1518210109
    nsecs: 911767483
  frame_id: "swarmone/odom"
child_frame_id: "swarmone/base_link"
pose: 
  pose: 
    position: 
      x: 0.479450517553
      y: 6.16360702312
      z: 0.0
    orientation: 
      x: 0.0
      y: 0.0
      z: 0.674288597543
      w: 0.738467932427
  covariance: [55969285089.19431, -3393489542.8965116, 0.0, 0.0, 0.0, 4.197619733036445e-37, -3393489542.8965154, 205931519.45912066, 0.0, 0.0, 0.0, -3.821788603726305e-38, 0.0, 0.0, 7.668701663092438e-07, 2.4420495643354585e-42, 1.4481264373851575e-35, 0.0, 0.0, 0.0, 2.442049564335459e-42, 6.545370471504039e-07, 1.8295841040984027e-30, 0.0, 0.0, 0.0, 1.4481264373851578e-35, -1.8295841040984027e-30, 6.545370471504039e-07, 0.0, 4.197619733036445e-37, -3.821788603726305e-38, 0.0, 0.0, 0.0, 2.7904973753221187e-06]
twist: 
  twist: 
    linear: 
      x: -2.93520581756e-30
      y: 0.0
      z: 0.0
    angular: 
      x: 0.0
      y: 0.0
      z: 4.2926149994e-05
  covariance: [9.999996206777006e-10, 0.0, 0.0, 0.0, 0.0, 0.0, 0.0, 904279.9000153777, 0.0, 0.0, 0.0, 0.0, 0.0, 0.0, 7.023456770970496e-07, 1.179370695417599e-45, 1.0737756179488617e-46, 0.0, 0.0, 0.0, 1.179370695417599e-45, 4.910070966559507e-07, -3.7124996647282018e-34, 0.0, 0.0, 0.0, 1.0737756179488615e-46, 3.7124996647282018e-34, 4.910070966559507e-07, 0.0, 0.0, 0.0, 0.0, 0.0, 0.0, 9.989268457098437e-10]
---
header: 
  seq: 6475
  stamp: 
    secs: 1518210110
    nsecs:  12509346
  frame_id: "swarmone/odom"
child_frame_id: "swarmone/base_link"
pose: 
  pose: 
    position: 
      x: 0.479450517553
      y: 6.16360702312
      z: 0.0
    orientation: 
      x: 0.0
      y: 0.0
      z: 0.674288153864
      w: 0.738468337547
  covariance: [56013002744.90378, -3396798910.903031, 0.0, 0.0, 0.0, 2.921914539625354e-37, -3396798910.9030347, 206171738.52719522, 0.0, 0.0, 0.0, -2.6602735444886337e-38, 0.0, 0.0, 5.979109963949027e-07, 7.319116742066477e-43, 1.2262588397485164e-35, 0.0, 0.0, 0.0, 7.319116742066474e-43, 4.983557135204136e-07, -2.7179422887876585e-31, 0.0, 0.0, 0.0, 1.2262588397485164e-35, 2.7179422887876585e-31, 4.983557135204136e-07, 0.0, 2.921914539625354e-37, -2.6602735444886337e-38, 0.0, 0.0, 0.0, 9.880529173153486e-07]
twist: 
  twist: 
    linear: 
      x: -2.75409340625e-30
      y: 0.0
      z: 0.0
    angular: 
      x: 0.0
      y: 0.0
      z: 0.000120839422113
  covariance: [9.999996274448505e-10, 0.0, 0.0, 0.0, 0.0, 0.0, 0.0, 904702.1384171584, 0.0, 0.0, 0.0, 0.0, 0.0, 0.0, 5.366022255641525e-07, 2.302527843750364e-46, 2.0963731542528005e-47, 0.0, 0.0, 0.0, 2.3025278437503652e-46, 3.991326590392143e-07, -5.783118556881703e-37, 0.0, 0.0, 0.0, 2.096373154252801e-47, 5.783118556881703e-37, 3.991326590392143e-07, 0.0, 0.0, 0.0, 0.0, 0.0, 0.0, 9.969790129491685e-10]
---
header: 
  seq: 6476
  stamp: 
    secs: 1518210110
    nsecs: 112524509
  frame_id: "swarmone/odom"
child_frame_id: "swarmone/base_link"
pose: 
  pose: 
    position: 
      x: 0.479450517553
      y: 6.16360702312
      z: 0.0
    orientation: 
      x: 0.0
      y: 0.0
      z: 0.674288146822
      w: 0.738468343977
  covariance: [56056432028.60029, -3400086751.410322, 0.0, 0.0, 0.0, 1.659880971872765e-37, -3400086751.4103255, 206410426.4078394, 0.0, 0.0, 0.0, -1.5112624477179077e-38, 0.0, 0.0, 5.932315402130732e-07, 6.553208066559742e-43, 1.1301928837384134e-35, 0.0, 0.0, 0.0, 6.553208066559744e-43, 4.947296957661224e-07, 4.377011117099034e-31, 0.0, 0.0, 0.0, 1.1301928837384133e-35, -4.377011117099034e-31, 4.947296957661224e-07, 0.0, 1.659880971872765e-37, -1.5112624477179077e-38, 0.0, 0.0, 0.0, 9.59442687821895e-07]
twist: 
  twist: 
    linear: 
      x: -2.58530507608e-30
      y: 0.0
      z: 0.0
    angular: 
      x: 0.0
      y: 0.0
      z: 0.000124424127905
  covariance: [9.999996245715175e-10, 0.0, 0.0, 0.0, 0.0, 0.0, 0.0, 905121.461008714, 0.0, 0.0, 0.0, 0.0, 0.0, 0.0, 5.324698098931185e-07, 2.0223954734362206e-46, 1.8413222782798026e-47, 0.0, 0.0, 0.0, 2.0223954734362213e-46, 3.974054703879431e-07, 3.2834444185330255e-34, 0.0, 0.0, 0.0, 1.8413222782798036e-47, -3.2834444185330255e-34, 3.974054703879431e-07, 0.0, 0.0, 0.0, 0.0, 0.0, 0.0, 9.968893952517559e-10]
---
header: 
  seq: 6477
  stamp: 
    secs: 1518210110
    nsecs: 212511539
  frame_id: "swarmone/odom"
child_frame_id: "swarmone/base_link"
pose: 
  pose: 
    position: 
      x: 0.479450517553
      y: 6.16360702312
      z: 0.0
    orientation: 
      x: 0.0
      y: 0.0
      z: 0.67797204396
      w: 0.73508768702
  covariance: [56099875994.7273, -3403375943.361257, 0.0, 0.0, 0.0, 1.543262215027313e-37, -3403375943.3612604, 206649240.78818268, 0.0, 0.0, 0.0, -1.3014373802881728e-38, 0.0, 0.0, 5.932315382682106e-07, 5.47476022604392e-43, 1.0606287093282145e-35, 0.0, 0.0, 0.0, 5.474760226043919e-43, 4.947296898969102e-07, 1.2315746515893632e-30, 0.0, 0.0, 0.0, 1.0606287093282148e-35, -1.2315746515893632e-30, 4.947296898969102e-07, 0.0, 1.5432622150273129e-37, -1.3014373802881728e-38, 0.0, 0.0, 0.0, 9.594426878218473e-07]
twist: 
  twist: 
    linear: 
      x: -2.42690311056e-30
      y: 0.0
      z: 0.0
    angular: 
      x: 0.0
      y: 0.0
      z: 0.000124424127893
  covariance: [9.999996244594023e-10, 0.0, 0.0, 0.0, 0.0, 0.0, 0.0, 905540.795143147, 0.0, 0.0, 0.0, 0.0, 0.0, 0.0, 5.3246980603632e-07, 1.8995179618361967e-46, 1.5381139506772478e-47, 0.0, 0.0, 0.0, 1.899517961836197e-46, 3.974054447301175e-07, 1.9701653340745e-35, 0.0, 0.0, 0.0, 1.5381139506772485e-47, -1.9701653340745e-35, 3.974054447301175e-07, 0.0, 0.0, 0.0, 0.0, 0.0, 0.0, 9.968893952517542e-10]
---
header: 
  seq: 6478
  stamp: 
    secs: 1518210110
    nsecs: 312197685
  frame_id: "swarmone/odom"
child_frame_id: "swarmone/base_link"
pose: 
  pose: 
    position: 
      x: 0.479450517553
      y: 6.16360702312
      z: 0.0
    orientation: 
      x: 0.0
      y: 0.0
      z: 0.674288143918
      w: 0.738468346628
  covariance: [56143253295.58051, -3406441893.2770944, 0.0, 0.0, 0.0, 1.4295753362644813e-37, -3406441893.277098, 206861349.85626882, 0.0, 0.0, 0.0, -1.25303606834625e-38, 0.0, 0.0, 5.908507311421783e-07, 5.637935579803427e-43, 9.871241030293177e-36, 0.0, 0.0, 0.0, 5.6379355798034256e-43, 4.928969653108235e-07, -4.3582845013915915e-32, 0.0, 0.0, 0.0, 9.871241030293177e-36, 4.3582845013915915e-32, 4.928969653108235e-07, 0.0, 1.4295753362644813e-37, -1.25303606834625e-38, 0.0, 0.0, 0.0, 9.451375730752434e-07]
twist: 
  twist: 
    linear: 
      x: -2.2786267542e-30
      y: 0.0
      z: 0.0
    angular: 
      x: 0.0
      y: 0.0
      z: 0.000126297436875
  covariance: [9.999996232564114e-10, 0.0, 0.0, 0.0, 0.0, 0.0, 0.0, 905958.9963160496, 0.0, 0.0, 0.0, 0.0, 0.0, 0.0, 5.303758442052045e-07, 1.7242449622099013e-46, 1.5698367400488762e-47, 0.0, 0.0, 0.0, 1.724244962209901e-46, 3.9653817890538974e-07, -3.943826776945979e-35, 0.0, 0.0, 0.0, 1.5698367400488762e-47, 3.943826776945979e-35, 3.9653817890538974e-07, 0.0, 0.0, 0.0, 0.0, 0.0, 0.0, 9.96842562499118e-10]
---
header: 
  seq: 6479
  stamp: 
    secs: 1518210110
    nsecs: 412699699
  frame_id: "swarmone/odom"
child_frame_id: "swarmone/base_link"
pose: 
  pose: 
    position: 
      x: 0.479450517553
      y: 6.16360702312
      z: 0.0
    orientation: 
      x: 0.0
      y: 0.0
      z: 0.67428861515
      w: 0.738467916351
  covariance: [56186975110.635376, -3409752618.197174, 0.0, 0.0, 0.0, 3.1668629556100763e-37, -3409752618.197179, 207101779.86691865, 0.0, 0.0, 0.0, -2.8833200870014756e-38, 0.0, 0.0, 7.706938209442413e-07, 1.8466565428296143e-42, 1.0676881640997547e-35, 0.0, 0.0, 0.0, 1.846656542829615e-42, 6.587532041613753e-07, -4.235166480428139e-31, 0.0, 0.0, 0.0, 1.0676881640997549e-35, 4.235166480428139e-31, 6.587532041613753e-07, 0.0, 3.1668629556100763e-37, -2.883320087001475e-38, 0.0, 0.0, 0.0, 2.8620229490551342e-06]
twist: 
  twist: 
    linear: 
      x: -2.13834204762e-30
      y: 0.0
      z: 0.0
    angular: 
      x: 0.0
      y: 0.0
      z: 4.18552424058e-05
  covariance: [9.999996265012647e-10, 0.0, 0.0, 0.0, 0.0, 0.0, 0.0, 906380.750525308, 0.0, 0.0, 0.0, 0.0, 0.0, 0.0, 7.065113192320178e-07, 8.964714769778304e-46, 8.162057747106557e-47, 0.0, 0.0, 0.0, 8.964714769778306e-46, 4.940778039378351e-07, 7.793131898516857e-34, 0.0, 0.0, 0.0, 8.162057747106559e-47, -7.793131898516857e-34, 4.940778039378351e-07, 0.0, 0.0, 0.0, 0.0, 0.0, 0.0, 9.98953618420676e-10]
---
header: 
  seq: 6480
  stamp: 
    secs: 1518210110
    nsecs: 512444735
  frame_id: "swarmone/odom"
child_frame_id: "swarmone/base_link"
pose: 
  pose: 
    position: 
      x: 0.479450517553
      y: 6.16360702312
      z: 0.0
    orientation: 
      x: 0.0
      y: 0.0
      z: 0.677971993316
      w: 0.73508773373
  covariance: [56230394523.186424, -3413040654.12187, 0.0, 0.0, 0.0, 2.1526223010759064e-37, -3413040654.1218753, 207340589.07653975, 0.0, 0.0, 0.0, -1.8705162912324738e-38, 0.0, 0.0, 6.002104909498457e-07, 3.59422037580556e-43, 8.890031788127017e-36, 0.0, 0.0, 0.0, 3.59422037580556e-43, 5.0014895244624e-07, -5.735855098259004e-32, 0.0, 0.0, 0.0, 8.890031788127016e-36, 5.735855098259004e-32, 5.0014895244624e-07, 0.0, 2.1526223010759064e-37, -1.8705162912324735e-38, 0.0, 0.0, 0.0, 1.0023580320597994e-06]
twist: 
  twist: 
    linear: 
      x: -2.00762025353e-30
      y: 0.0
      z: 0.0
    angular: 
      x: 0.0
      y: 0.0
      z: 8.93425695687e-05
  covariance: [9.999996234925437e-10, 0.0, 0.0, 0.0, 0.0, 0.0, 0.0, 906799.4574902987, 0.0, 0.0, 0.0, 0.0, 0.0, 0.0, 5.386409795122627e-07, 1.7094345511771131e-46, 1.384355983343847e-47, 0.0, 0.0, 0.0, 1.7094345511771131e-46, 3.99991326506416e-07, -1.9660578345829353e-35, 0.0, 0.0, 0.0, 1.3843559833438466e-47, 1.9660578345829353e-35, 3.99991326506416e-07, 0.0, 0.0, 0.0, 0.0, 0.0, 0.0, 9.970219128566945e-10]
---
header: 
  seq: 6481
  stamp: 
    secs: 1518210110
    nsecs: 612706184
  frame_id: "swarmone/odom"
child_frame_id: "swarmone/base_link"
pose: 
  pose: 
    position: 
      x: 0.479450517553
      y: 6.16360702312
      z: 0.0
    orientation: 
      x: 0.0
      y: 0.0
      z: 0.674288150956
      w: 0.738468340201
  covariance: [56274103316.970116, -3416130775.209059, 0.0, 0.0, 0.0, 1.2312412285319842e-37, -3416130775.209064, 207554438.93143597, 0.0, 0.0, 0.0, -1.0788089123836146e-38, 0.0, 0.0, 5.955847963247342e-07, 4.8851578174344236e-43, 8.30368114153848e-36, 0.0, 0.0, 0.0, 4.885157817434424e-43, 4.965492086840977e-07, 4.779978531442245e-31, 0.0, 0.0, 0.0, 8.303681141538483e-36, -4.779978531442245e-31, 4.965492086840977e-07, 0.0, 1.2312412285319842e-37, -1.0788089123836146e-38, 0.0, 0.0, 0.0, 9.737478025684058e-07]
twist: 
  twist: 
    linear: 
      x: -1.88429703999e-30
      y: 0.0
      z: 0.0
    angular: 
      x: 0.0
      y: 0.0
      z: 0.000122605578402
  covariance: [9.999996255500728e-10, 0.0, 0.0, 0.0, 0.0, 0.0, 0.0, 907220.4621795734, 0.0, 0.0, 0.0, 0.0, 0.0, 0.0, 5.345451738419233e-07, 1.5215413281895216e-46, 1.385292957760607e-47, 0.0, 0.0, 0.0, 1.5215413281895216e-46, 3.9827019615763855e-07, 1.9180659239843276e-34, 0.0, 0.0, 0.0, 1.3852929577606076e-47, -1.9180659239843276e-34, 3.9827019615763855e-07, 0.0, 0.0, 0.0, 0.0, 0.0, 0.0, 9.969348590145437e-10]
---
header: 
  seq: 6482
  stamp: 
    secs: 1518210110
    nsecs: 712178946
  frame_id: "swarmone/odom"
child_frame_id: "swarmone/base_link"
pose: 
  pose: 
    position: 
      x: 0.479450517553
      y: 6.16360702312
      z: 0.0
    orientation: 
      x: 0.0
      y: 0.0
      z: 0.677972040451
      w: 0.735087690256
  covariance: [56317457803.11881, -3419414379.869698, 0.0, 0.0, 0.0, 1.1134463229576423e-37, -3419414379.869704, 207792977.6297092, 0.0, 0.0, 0.0, -9.397196625465659e-39, 0.0, 0.0, 5.908507161358616e-07, 3.888809628360985e-43, 7.647825750157436e-36, 0.0, 0.0, 0.0, 3.888809628360984e-43, 4.928969193644905e-07, 1.58819600599913e-30, 0.0, 0.0, 0.0, 7.647825750157433e-36, -1.58819600599913e-30, 4.928969193644905e-07, 0.0, 1.1134463229576425e-37, -9.39719662546566e-39, 0.0, 0.0, 0.0, 9.451375730748851e-07]
twist: 
  twist: 
    linear: 
      x: -1.76940320754e-30
      y: 0.0
      z: 0.0
    angular: 
      x: 0.0
      y: 0.0
      z: 0.000126297436737
  covariance: [9.999996223989462e-10, 0.0, 0.0, 0.0, 0.0, 0.0, 0.0, 907638.2838665128, 0.0, 0.0, 0.0, 0.0, 0.0, 0.0, 5.303758145561577e-07, 1.3370332514763874e-46, 1.0826537850629696e-47, 0.0, 0.0, 0.0, 1.3370332514763874e-46, 3.965379833624168e-07, 4.838207565535486e-37, 0.0, 0.0, 0.0, 1.0826537850629699e-47, -4.838207565535486e-37, 3.965379833624168e-07, 0.0, 0.0, 0.0, 0.0, 0.0, 0.0, 9.968425624991075e-10]
---
header: 
  seq: 6483
  stamp: 
    secs: 1518210110
    nsecs: 812827349
  frame_id: "swarmone/odom"
child_frame_id: "swarmone/base_link"
pose: 
  pose: 
    position: 
      x: 0.479450517553
      y: 6.16360702312
      z: 0.0
    orientation: 
      x: 0.0
      y: 0.0
      z: 0.677973061251
      w: 0.735086748771
  covariance: [56361389616.85959, -3422520691.200762, 0.0, 0.0, 0.0, 5.382414219824424e-37, -3422520691.2007675, 208007988.75254178, 0.0, 0.0, 0.0, -4.358278606404799e-38, 0.0, 0.0, 8.796513719898125e-07, 1.702222760321726e-42, 6.194711294767467e-36, 0.0, 0.0, 0.0, 1.7022227603217263e-42, 7.961071906129725e-07, -1.7612967361349985e-31, 0.0, 0.0, 0.0, 6.194711294767466e-36, 1.7612967361349985e-31, 7.961071906129725e-07, 0.0, 5.382414219824424e-37, -4.358278606404799e-38, 0.0, 0.0, 0.0, 6.810234618987744e-06]
twist: 
  twist: 
    linear: 
      x: -1.66032065035e-30
      y: 0.0
      z: 0.0
    angular: 
      x: 0.0
      y: 0.0
      z: 1.32057017076e-05
  covariance: [9.999996270778435e-10, 0.0, 0.0, 0.0, 0.0, 0.0, 0.0, 908061.1742260994, 0.0, 0.0, 0.0, 0.0, 0.0, 0.0, 8.344213944953979e-07, 1.2481195149124016e-45, 1.0106313843805656e-46, 0.0, 0.0, 0.0, 1.2481195149124013e-45, 6.204391956094909e-07, 3.7085844201576413e-34, 0.0, 0.0, 0.0, 1.0106313843805652e-46, -3.7085844201576413e-34, 6.204391956094909e-07, 0.0, 0.0, 0.0, 0.0, 0.0, 0.0, 9.99559809725078e-10]
---
header: 
  seq: 6484
  stamp: 
    secs: 1518210110
    nsecs: 912184000
  frame_id: "swarmone/odom"
child_frame_id: "swarmone/base_link"
pose: 
  pose: 
    position: 
      x: 0.479450517553
      y: 6.16360702312
      z: 0.0
    orientation: 
      x: 0.0
      y: 0.0
      z: 0.674288136876
      w: 0.738468353058
  covariance: [56404784449.51609, -3425589189.9414268, 0.0, 0.0, 0.0, 2.9564883252855577e-37, -3425589189.9414325, 208220398.16332942, 0.0, 0.0, 0.0, -2.4569942288990884e-38, 0.0, 0.0, 5.860045374021296e-07, 3.682208930356371e-43, 6.652683843092023e-36, 0.0, 0.0, 0.0, 3.682208930356372e-43, 4.891913999798074e-07, -4.989059174418473e-31, 0.0, 0.0, 0.0, 6.652683843092022e-36, 4.989059174418473e-31, 4.891913999798074e-07, 0.0, 2.9564883252855572e-37, -2.4569942288990884e-38, 0.0, 0.0, 0.0, 9.16527343582652e-07]
twist: 
  twist: 
    linear: 
      x: -1.55918873361e-30
      y: 0.0
      z: 0.0
    angular: 
      x: 0.0
      y: 0.0
      z: 0.000130218534081
  covariance: [9.999996219307142e-10, 0.0, 0.0, 0.0, 0.0, 0.0, 0.0, 908478.7659028346, 0.0, 0.0, 0.0, 0.0, 0.0, 0.0, 5.261311807777134e-07, 1.1109205449555058e-46, 1.0109532125564471e-47, 0.0, 0.0, 0.0, 1.1109205449555058e-46, 3.947964050257272e-07, -1.1360433271974835e-37, 0.0, 0.0, 0.0, 1.0109532125564471e-47, 1.1360433271974835e-37, 3.947964050257272e-07, 0.0, 0.0, 0.0, 0.0, 0.0, 0.0, 9.967445350099895e-10]
---
header: 
  seq: 6485
  stamp: 
    secs: 1518210111
    nsecs:  12282372
  frame_id: "swarmone/odom"
child_frame_id: "swarmone/base_link"
pose: 
  pose: 
    position: 
      x: 0.479450517553
      y: 6.16360702312
      z: 0.0
    orientation: 
      x: 0.0
      y: 0.0
      z: 0.674288146822
      w: 0.738468343977
  covariance: [56448492601.719444, -3428900260.0050693, 0.0, 0.0, 0.0, 9.173492011461647e-38, -3428900260.005074, 208461004.25297672, 0.0, 0.0, 0.0, -8.352139424040521e-39, 0.0, 0.0, 5.932315459290508e-07, 3.713260545815847e-43, 6.403736996246564e-36, 0.0, 0.0, 0.0, 3.713260545815847e-43, 4.947297133771961e-07, 1.5808694168283732e-30, 0.0, 0.0, 0.0, 6.403736996246566e-36, -1.5808694168283732e-30, 4.947297133771961e-07, 0.0, 9.173492011461648e-38, -8.35213942404052e-39, 0.0, 0.0, 0.0, 9.594426878220315e-07]
twist: 
  twist: 
    linear: 
      x: -1.46355944111e-30
      y: 0.0
      z: 0.0
    angular: 
      x: 0.0
      y: 0.0
      z: 0.000124424127971
  covariance: [9.99999624902152e-10, 0.0, 0.0, 0.0, 0.0, 0.0, 0.0, 908899.6044412031, 0.0, 0.0, 0.0, 0.0, 0.0, 0.0, 5.324698212095791e-07, 1.1458549708799204e-46, 1.0432620307276143e-47, 0.0, 0.0, 0.0, 1.145854970879921e-46, 3.9740554533491195e-07, -4.3077241629281435e-37, 0.0, 0.0, 0.0, 1.0432620307276145e-47, 4.30772416292793e-37, 3.9740554533491195e-07, 0.0, 0.0, 0.0, 0.0, 0.0, 0.0, 9.968893952517596e-10]
---
header: 
  seq: 6486
  stamp: 
    secs: 1518210111
    nsecs: 112508297
  frame_id: "swarmone/odom"
child_frame_id: "swarmone/base_link"
pose: 
  pose: 
    position: 
      x: 0.479450517553
      y: 6.16360702312
      z: 0.0
    orientation: 
      x: 0.0
      y: 0.0
      z: 0.677972043961
      w: 0.735087687019
  covariance: [56492283570.06636, -3432217843.854818, 0.0, 0.0, 0.0, 8.757393388870662e-38, -3432217843.854822, 208702112.14481187, 0.0, 0.0, 0.0, -7.385134662707775e-39, 0.0, 0.0, 5.932315547023841e-07, 3.1067065028968523e-43, 6.018641850774288e-36, 0.0, 0.0, 0.0, 3.106706502896853e-43, 4.947297405961928e-07, 3.087788898995811e-31, 0.0, 0.0, 0.0, 6.01864185077429e-36, -3.087788898995811e-31, 4.947297405961928e-07, 0.0, 8.757393388870662e-38, -7.385134662707774e-39, 0.0, 0.0, 0.0, 9.594426878222446e-07]
twist: 
  twist: 
    linear: 
      x: -1.37368745692e-30
      y: 0.0
      z: 0.0
    angular: 
      x: 0.0
      y: 0.0
      z: 0.000124424128041
  covariance: [9.999996254089343e-10, 0.0, 0.0, 0.0, 0.0, 0.0, 0.0, 909321.10944193, 0.0, 0.0, 0.0, 0.0, 0.0, 0.0, 5.324698385973425e-07, 1.0779003312747425e-46, 8.728180038704166e-48, 0.0, 0.0, 0.0, 1.0779003312747433e-46, 3.974056608200508e-07, -1.5345877019862058e-34, 0.0, 0.0, 0.0, 8.72818003870417e-48, 1.5345877019862058e-34, 3.974056608200508e-07, 0.0, 0.0, 0.0, 0.0, 0.0, 0.0, 9.968893952517658e-10]
---
header: 
  seq: 6487
  stamp: 
    secs: 1518210111
    nsecs: 212078094
  frame_id: "swarmone/odom"
child_frame_id: "swarmone/base_link"
pose: 
  pose: 
    position: 
      x: 0.479450517553
      y: 6.16360702312
      z: 0.0
    orientation: 
      x: 0.0
      y: 0.0
      z: 0.670587396681
      w: 0.741830535508
  covariance: [56535852183.54538, -3435299460.9421854, 0.0, 0.0, 0.0, 8.239344750002268e-38, -3435299460.942189, 208915502.5757127, 0.0, 0.0, 0.0, -7.783810736819907e-39, 0.0, 0.0, 5.955847491047656e-07, 3.6844328186997284e-43, 5.642480167820939e-36, 0.0, 0.0, 0.0, 3.6844328186997284e-43, 4.965490621995515e-07, -2.7829554363105683e-30, 0.0, 0.0, 0.0, 5.642480167820941e-36, 2.7829554363105683e-30, 4.965490621995515e-07, 0.0, 8.239344750002268e-38, -7.783810736819908e-39, 0.0, 0.0, 0.0, 9.7374780256725e-07]
twist: 
  twist: 
    linear: 
      x: -1.28985191907e-30
      y: 0.0
      z: 0.0
    angular: 
      x: 0.0
      y: 0.0
      z: 0.000122605578033
  covariance: [9.999996227891124e-10, 0.0, 0.0, 0.0, 0.0, 0.0, 0.0, 909739.9840848123, 0.0, 0.0, 0.0, 0.0, 0.0, 0.0, 5.345450800264009e-07, 1.0328933317636864e-46, 1.0446364711784894e-47, 0.0, 0.0, 0.0, 1.0328933317636866e-46, 3.982695696996327e-07, -9.613079642243824e-35, 0.0, 0.0, 0.0, 1.0446364711784896e-47, 9.613079642243824e-35, 3.982695696996327e-07, 0.0, 0.0, 0.0, 0.0, 0.0, 0.0, 9.969348590145112e-10]
---
header: 
  seq: 6488
  stamp: 
    secs: 1518210111
    nsecs: 311919212
  frame_id: "swarmone/odom"
child_frame_id: "swarmone/base_link"
pose: 
  pose: 
    position: 
      x: 0.479450517553
      y: 6.16360702312
      z: 0.0
    orientation: 
      x: 0.0
      y: 0.0
      z: 0.674288156769
      w: 0.738468334894
  covariance: [56579486941.06075, -3438825900.9122863, 0.0, 0.0, 0.0, 7.948925976749717e-38, -3438825900.91229, 209182483.64095858, 0.0, 0.0, 0.0, -7.499453453309869e-39, 0.0, 0.0, 6.002104971777262e-07, 3.251722073748783e-43, 5.3675848041798564e-36, 0.0, 0.0, 0.0, 3.2517220737487827e-43, 5.001490128028143e-07, 1.8479834116261523e-30, 0.0, 0.0, 0.0, 5.367584804179858e-36, -1.8479834116261523e-30, 5.001490128028143e-07, 0.0, 7.948925976749716e-38, -7.499453453309869e-39, 0.0, 0.0, 0.0, 1.0023580320599076e-06]
twist: 
  twist: 
    linear: 
      x: -1.21093262407e-30
      y: 0.0
      z: 0.0
    angular: 
      x: 0.0
      y: 0.0
      z: 0.000119123426248
  covariance: [9.999996238763737e-10, 0.0, 0.0, 0.0, 0.0, 0.0, 0.0, 910160.1292725429, 0.0, 0.0, 0.0, 0.0, 0.0, 0.0, 5.386409917663108e-07, 1.0300304884032421e-46, 9.378128939462461e-48, 0.0, 0.0, 0.0, 1.0300304884032421e-46, 3.9999140456162227e-07, -3.9336014401924066e-35, 0.0, 0.0, 0.0, 9.37812893946246e-48, 3.9336014401924066e-35, 3.9999140456162227e-07, 0.0, 0.0, 0.0, 0.0, 0.0, 0.0, 9.97021912856699e-10]
---
header: 
  seq: 6489
  stamp: 
    secs: 1518210111
    nsecs: 412410021
  frame_id: "swarmone/odom"
child_frame_id: "swarmone/base_link"
pose: 
  pose: 
    position: 
      x: 0.479450517553
      y: 6.16360702312
      z: 0.0
    orientation: 
      x: 0.0
      y: 0.0
      z: 0.674288150343
      w: 0.738468340762
  covariance: [56623475070.772514, -3442159285.215832, 0.0, 0.0, 0.0, 7.441269112027622e-38, -3442159285.215835, 209424832.20955017, 0.0, 0.0, 0.0, -6.775010082129925e-39, 0.0, 0.0, 5.955848118371755e-07, 2.954085220255914e-43, 5.019975285213637e-36, 0.0, 0.0, 0.0, 2.9540852202559143e-43, 4.965492567503414e-07, -1.527900259840791e-31, 0.0, 0.0, 0.0, 5.0199752852136394e-36, 1.527900259840791e-31, 4.965492567503414e-07, 0.0, 7.441269112027623e-38, -6.775010082129925e-39, 0.0, 0.0, 0.0, 9.737478025687852e-07]
twist: 
  twist: 
    linear: 
      x: -1.13638979702e-30
      y: 0.0
      z: 0.0
    angular: 
      x: 0.0
      y: 0.0
      z: 0.000122605578586
  covariance: [9.999996264567095e-10, 0.0, 0.0, 0.0, 0.0, 0.0, 0.0, 910583.1390511876, 0.0, 0.0, 0.0, 0.0, 0.0, 0.0, 5.345452046599988e-07, 9.198452016950324e-47, 8.374877271916076e-48, 0.0, 0.0, 0.0, 9.198452016950326e-47, 3.9827040191695097e-07, -2.889951089541767e-34, 0.0, 0.0, 0.0, 8.374877271916076e-48, 2.889951089541767e-34, 3.9827040191695097e-07, 0.0, 0.0, 0.0, 0.0, 0.0, 0.0, 9.969348590145544e-10]
---
header: 
  seq: 6490
  stamp: 
    secs: 1518210111
    nsecs: 512413979
  frame_id: "swarmone/odom"
child_frame_id: "swarmone/base_link"
pose: 
  pose: 
    position: 
      x: 0.479450517553
      y: 6.16360702312
      z: 0.0
    orientation: 
      x: 0.0
      y: 0.0
      z: 0.6742881433
      w: 0.738468347192
  covariance: [56667277216.35857, -3445478851.805931, 0.0, 0.0, 0.0, 6.747053145322833e-38, -3445478851.805933, 209666206.3515257, 0.0, 0.0, 0.0, -6.142951562657787e-39, 0.0, 0.0, 5.908507533805418e-07, 2.648589616551501e-43, 4.6369166222743656e-36, 0.0, 0.0, 0.0, 2.648589616551502e-43, 4.928970336172174e-07, 2.5753355590295668e-31, 0.0, 0.0, 0.0, 4.6369166222743656e-36, -2.5753355590295668e-31, 4.928970336172174e-07, 0.0, 6.747053145322833e-38, -6.142951562657785e-39, 0.0, 0.0, 0.0, 9.451375730757751e-07]
twist: 
  twist: 
    linear: 
      x: -1.06675246255e-30
      y: 0.0
      z: 0.0
    angular: 
      x: 0.0
      y: 0.0
      z: 0.000126297437072
  covariance: [9.999996245266924e-10, 0.0, 0.0, 0.0, 0.0, 0.0, 0.0, 911004.2295581946, 0.0, 0.0, 0.0, 0.0, 0.0, 0.0, 5.30375888147476e-07, 8.099535436360018e-47, 7.374351535542207e-48, 0.0, 0.0, 0.0, 8.099535436360018e-47, 3.9653846879449703e-07, -2.0152628149677739e-35, 0.0, 0.0, 0.0, 7.374351535542206e-48, 2.0152628149677739e-35, 3.9653846879449703e-07, 0.0, 0.0, 0.0, 0.0, 0.0, 0.0, 9.968425624991342e-10]
---
header: 
  seq: 6491
  stamp: 
    secs: 1518210111
    nsecs: 612448931
  frame_id: "swarmone/odom"
child_frame_id: "swarmone/base_link"
pose: 
  pose: 
    position: 
      x: 0.479450517553
      y: 6.16360702312
      z: 0.0
    orientation: 
      x: 0.0
      y: 0.0
      z: 0.674288174991
      w: 0.738468318255
  covariance: [56711120023.33243, -3448801775.467061, 0.0, 0.0, 0.0, 6.842199387211866e-38, -3448801775.4670634, 209907854.70608273, 0.0, 0.0, 0.0, -6.229580765615658e-39, 0.0, 0.0, 6.1132474600968e-07, 2.9538654980867806e-43, 4.551610859454625e-36, 0.0, 0.0, 0.0, 2.9538654980867798e-43, 5.089275073420312e-07, 8.709220691892329e-31, 0.0, 0.0, 0.0, 4.551610859454625e-36, -8.709220691892329e-31, 5.089275073420312e-07, 0.0, 6.842199387211866e-38, -6.22958076561566e-39, 0.0, 0.0, 0.0, 1.0738836057907382e-06]
twist: 
  twist: 
    linear: 
      x: -1.0013634565e-30
      y: 0.0
      z: 0.0
    angular: 
      x: 0.0
      y: 0.0
      z: 0.000111226030041
  covariance: [9.999996246501613e-10, 0.0, 0.0, 0.0, 0.0, 0.0, 0.0, 911425.5804352214, 0.0, 0.0, 0.0, 0.0, 0.0, 0.0, 5.485721195727011e-07, 9.739777189761564e-47, 8.867735193231513e-48, 0.0, 0.0, 0.0, 9.739777189761564e-47, 4.0425275392199633e-07, 1.3335924492246243e-34, 0.0, 0.0, 0.0, 8.867735193231509e-48, -1.3335924492246256e-34, 4.0425275392199633e-07, 0.0, 0.0, 0.0, 0.0, 0.0, 0.0, 9.972193478632862e-10]
---
header: 
  seq: 6492
  stamp: 
    secs: 1518210111
    nsecs: 712331057
  frame_id: "swarmone/odom"
child_frame_id: "swarmone/base_link"
pose: 
  pose: 
    position: 
      x: 0.479450517553
      y: 6.16360702312
      z: 0.0
    orientation: 
      x: 0.0
      y: 0.0
      z: 0.674288146821
      w: 0.738468343977
  covariance: [56754922891.15621, -3452121944.7140527, 0.0, 0.0, 0.0, 6.20516734619971e-38, -3452121944.714055, 210149332.69005737, 0.0, 0.0, 0.0, -5.64958158311245e-39, 0.0, 0.0, 5.932315310477905e-07, 2.3794024937229934e-43, 4.103815848803245e-36, 0.0, 0.0, 0.0, 2.3794024937229926e-43, 4.947296675187373e-07, 6.332716185766072e-32, 0.0, 0.0, 0.0, 4.1038158488032446e-36, -6.332716185766072e-32, 4.947296675187373e-07, 0.0, 6.205167346199711e-38, -5.649581583112451e-39, 0.0, 0.0, 0.0, 9.594426878216753e-07]
twist: 
  twist: 
    linear: 
      x: -9.40070499449e-31
      y: 0.0
      z: 0.0
    angular: 
      x: 0.0
      y: 0.0
      z: 0.000124424127808
  covariance: [9.999996240406729e-10, 0.0, 0.0, 0.0, 0.0, 0.0, 0.0, 911846.417205491, 0.0, 0.0, 0.0, 0.0, 0.0, 0.0, 5.324697917442866e-07, 7.343833355513576e-47, 6.686310435781007e-48, 0.0, 0.0, 0.0, 7.343833355513579e-47, 3.974053501360452e-07, 5.677173879752216e-35, 0.0, 0.0, 0.0, 6.686310435781008e-48, -5.677173879752215e-35, 3.974053501360452e-07, 0.0, 0.0, 0.0, 0.0, 0.0, 0.0, 9.968893952517493e-10]
---
header: 
  seq: 6493
  stamp: 
    secs: 1518210111
    nsecs: 811929703
  frame_id: "swarmone/odom"
child_frame_id: "swarmone/base_link"
pose: 
  pose: 
    position: 
      x: 0.479450517553
      y: 6.16360702312
      z: 0.0
    orientation: 
      x: 0.0
      y: 0.0
      z: 0.66686987358
      w: 0.745174188839
  covariance: [56798628343.01584, -3455435075.5863757, 0.0, 0.0, 0.0, 5.579092214267527e-38, -3455435075.5863786, 210390332.14783272, 0.0, 0.0, 0.0, -5.830370782268952e-39, 0.0, 0.0, 5.932315113821075e-07, 2.7160042821013213e-43, 3.841683007710966e-36, 0.0, 0.0, 0.0, 2.7160042821013213e-43, 4.947296064855885e-07, -2.208853996311267e-30, 0.0, 0.0, 0.0, 3.8416830077109655e-36, 2.208853996311267e-30, 4.947296064855885e-07, 0.0, 5.579092214267527e-38, -5.830370782268952e-39, 0.0, 0.0, 0.0, 9.594426878211972e-07]
twist: 
  twist: 
    linear: 
      x: -8.82682903813e-31
      y: 0.0
      z: 0.0
    angular: 
      x: 0.0
      y: 0.0
      z: 0.000124424127652
  covariance: [9.99999622904998e-10, 0.0, 0.0, 0.0, 0.0, 0.0, 0.0, 912266.1885543227, 0.0, 0.0, 0.0, 0.0, 0.0, 0.0, 5.324697527669147e-07, 6.860401851778427e-47, 7.632135954407172e-48, 0.0, 0.0, 0.0, 6.860401851778424e-47, 3.974050912109737e-07, -1.3537593463552798e-34, 0.0, 0.0, 0.0, 7.63213595440717e-48, 1.3537593463552798e-34, 3.974050912109737e-07, 0.0, 0.0, 0.0, 0.0, 0.0, 0.0, 9.968893952517356e-10]
---
header: 
  seq: 6494
  stamp: 
    secs: 1518210111
    nsecs: 912638903
  frame_id: "swarmone/odom"
child_frame_id: "swarmone/base_link"
pose: 
  pose: 
    position: 
      x: 0.479699410406
      y: 6.16635089228
      z: 0.0
    orientation: 
      x: 0.0
      y: 0.0
      z: 0.852108564137
      w: 0.523365068499
  covariance: [56842758287.695755, -3459224308.501772, 0.0, 0.0, 0.0, 5.356719627704057e-38, -3459224308.5017753, 210687479.8168384, 0.0, 0.0, 0.0, 1.624291422229485e-38, 0.0, 0.0, 6.134738901114321e-07, -3.7433775730581763e-42, 3.80754631883004e-36, 0.0, 0.0, 0.0, -3.7433775730581763e-42, 5.106467522997464e-07, -6.475559533705781e-30, 0.0, 0.0, 0.0, 3.807546318830039e-36, 6.475559533705781e-30, 5.106467522997464e-07, 0.0, 5.356719627704056e-38, 1.6242914222294852e-38, 0.0, 0.0, 0.0, 1.0881887205379559e-06]
twist: 
  twist: 
    linear: 
      x: 0.0550999794651
      y: 0.0
      z: 0.0
    angular: 
      x: 0.0
      y: 0.0
      z: -0.00964324565872
  covariance: [9.999996273166868e-10, 0.0, 0.0, 0.0, 0.0, 0.0, 0.0, 912690.771447431, 0.0, 0.0, 0.0, 0.0, 0.0, 0.0, 5.50507338532934e-07, 7.4501094786171815e-47, -3.7774351206701973e-47, 0.0, 0.0, 0.0, 7.450109478617183e-47, 4.050983276790278e-07, 9.16808985425742e-34, 0.0, 0.0, 0.0, -3.777435120670198e-47, -9.16808985425742e-34, 4.050983276790278e-07, 0.0, 0.0, 0.0, 0.0, 0.0, 0.0, 9.972557345796997e-10]
---
header: 
  seq: 6495
  stamp: 
    secs: 1518210112
    nsecs:  12270689
  frame_id: "swarmone/odom"
child_frame_id: "swarmone/base_link"
pose: 
  pose: 
    position: 
      x: 0.477616703539
      y: 6.17955671587
      z: 0.0
    orientation: 
      x: 0.0
      y: 0.0
      z: 0.670587188364
      w: 0.741830723819
  covariance: [56881963028.6565, -3450474466.635442, 0.0, 0.0, 0.0, -1.9029520409017196e-15, -3450474466.635445, 209485576.19435334, 0.0, 0.0, 0.0, -3.6598848060326563e-16, 0.0, 0.0, 6.024838916702498e-07, -3.4748828877170265e-21, -9.796057717944732e-14, 0.0, 0.0, 0.0, -3.474882887717025e-21, 5.019295117309054e-07, -5.059309283910698e-27, 0.0, 0.0, 0.0, -9.796057717944731e-14, -5.059309611085841e-27, 5.019295117308812e-07, 0.0, -1.90295204090172e-15, -3.6598848060326563e-16, 0.0, 0.0, 0.0, 1.0166631468056614e-06]
twist: 
  twist: 
    linear: 
      x: 0.223399937825
      y: 0.0
      z: 0.0
    angular: 
      x: 0.0
      y: 0.0
      z: -0.139588905612
  covariance: [9.999996230384145e-10, 0.0, 0.0, 0.0, 0.0, 0.0, 0.0, 913110.9416532099, 0.0, 0.0, 0.0, 0.0, 0.0, 0.0, 5.406619879543565e-07, -1.9232743578509176e-24, -1.9319175683639125e-25, 0.0, 0.0, 0.0, -1.923274357850917e-24, 4.008483217389977e-07, -5.790361566143659e-32, 0.0, 0.0, 0.0, -1.9319175683639107e-25, -5.797654393535569e-32, 4.008483217389977e-07, 0.0, 0.0, 0.0, 0.0, 0.0, 0.0, 9.970636114131051e-10]
---
header: 
  seq: 6496
  stamp: 
    secs: 1518210112
    nsecs: 112326145
  frame_id: "swarmone/odom"
child_frame_id: "swarmone/base_link"
pose: 
  pose: 
    position: 
      x: 0.479790868306
      y: 6.20010192306
      z: 0.0
    orientation: 
      x: 0.0
      y: 0.0
      z: 0.624897258396
      w: 0.780706997822
  covariance: [56925906088.65555, -3454023922.566569, 0.0, 0.0, 0.0, -7.626550304794901e-15, -3454023922.5665727, 209754020.1318108, 0.0, 0.0, 0.0, 1.2334512811845783e-15, 0.0, 0.0, 5.955847823357485e-07, 5.974123146525905e-20, -3.909441147585485e-13, 0.0, 0.0, 0.0, 5.974123146525905e-20, 4.96548961487285e-07, 2.7446383054716167e-25, 0.0, 0.0, 0.0, -3.9094411475854855e-13, 2.744645992183977e-25, 4.96548961486907e-07, 0.0, -7.6265503047949e-15, 1.2334512811845783e-15, 0.0, 0.0, 0.0, 9.73747802568064e-07]
twist: 
  twist: 
    linear: 
      x: 0.189100017935
      y: 0.0
      z: 0.0
    angular: 
      x: 0.0
      y: 0.0
      z: -0.1096934861
  covariance: [9.999996247316996e-10, 0.0, 0.0, 0.0, 0.0, 0.0, 0.0, 913533.0283310928, 0.0, 0.0, 0.0, 0.0, 0.0, 0.0, 5.345451460497665e-07, -7.028451980817202e-24, -1.5764412700459856e-24, 0.0, 0.0, 0.0, -7.028451980817201e-24, 3.982700106330287e-07, -1.9386783747041245e-30, 0.0, 0.0, 0.0, -1.5764412700459856e-24, -1.9388722977764717e-30, 3.982700106330287e-07, 0.0, 0.0, 0.0, 0.0, 0.0, 0.0, 9.969348590145342e-10]
---
header: 
  seq: 6497
  stamp: 
    secs: 1518210112
    nsecs: 211938620
  frame_id: "swarmone/odom"
child_frame_id: "swarmone/base_link"
pose: 
  pose: 
    position: 
      x: 0.483808818265
      y: 6.21584763404
      z: 0.0
    orientation: 
      x: 0.0
      y: 0.0
      z: 0.620986410564
      w: 0.783821330339
  covariance: [56968836676.187325, -3460139132.008941, 0.0, 0.0, 0.0, -6.088598533954049e-15, -3460139132.0089445, 210336336.11843866, 0.0, 0.0, 0.0, 1.3983248993813103e-15, 0.0, 0.0, 5.884419063803428e-07, -1.2973360369885989e-20, -3.2395525836061586e-13, 0.0, 0.0, 0.0, -1.2973360369885989e-20, 4.910510597745958e-07, 2.5502603889655746e-25, 0.0, 0.0, 0.0, -3.23955258360616e-13, 2.5502435704734874e-25, 4.910510597743408e-07, 0.0, -6.0885985339540476e-15, 1.3983248993813103e-15, 0.0, 0.0, 0.0, 9.308324583290193e-07]
twist: 
  twist: 
    linear: 
      x: 0.136000023985
      y: 0.0
      z: 0.0
    angular: 
      x: 0.0
      y: 0.0
      z: -0.0097435441274
  covariance: [9.999996229605822e-10, 0.0, 0.0, 0.0, 0.0, 0.0, 0.0, 913953.3754701565, 0.0, 0.0, 0.0, 0.0, 0.0, 0.0, 5.282630728954581e-07, -5.405422743881397e-24, -1.2701638316913485e-24, 0.0, 0.0, 0.0, -5.405422743881401e-24, 3.956686207654992e-07, -1.270193026275979e-30, 0.0, 0.0, 0.0, -1.270163831691349e-24, -1.270930800595541e-30, 3.956686207654992e-07, 0.0, 0.0, 0.0, 0.0, 0.0, 0.0, 9.967942979776004e-10]
---
header: 
  seq: 6498
  stamp: 
    secs: 1518210112
    nsecs: 312435389
  frame_id: "swarmone/odom"
child_frame_id: "swarmone/base_link"
pose: 
  pose: 
    position: 
      x: 0.486771315203
      y: 6.22649671235
      z: 0.0
    orientation: 
      x: 0.0
      y: 0.0
      z: 0.648034008489
      w: 0.761611399495
  covariance: [57012075431.125725, -3466527000.660249, 0.0, 0.0, 0.0, -4.3540476747190545e-15, -3466527000.660253, 210950995.74815208, 0.0, 0.0, 0.0, 8.593623037961194e-16, 0.0, 0.0, 5.932315732347705e-07, -1.361862155471262e-20, -2.342131350129876e-13, 0.0, 0.0, 0.0, -1.3618621554712627e-20, 4.947297559309366e-07, 4.466398878589662e-27, 0.0, 0.0, 0.0, -2.3421313501298765e-13, 4.4659284416652855e-27, 4.947297559308017e-07, 0.0, -4.3540476747190545e-15, 8.593623037961194e-16, 0.0, 0.0, 0.0, 9.59442687822692e-07]
twist: 
  twist: 
    linear: 
      x: 0.0823000225568
      y: 0.0
      z: 0.0
    angular: 
      x: 0.0
      y: 0.0
      z: 0.0798444697011
  covariance: [9.99999626480355e-10, 0.0, 0.0, 0.0, 0.0, 0.0, 0.0, 914377.5848234528, 0.0, 0.0, 0.0, 0.0, 0.0, 0.0, 5.324698753112994e-07, -4.159863551918633e-24, -6.7513495811717795e-25, 0.0, 0.0, 0.0, -4.159863551918633e-24, 3.9740590441043556e-07, -5.068457159793763e-31, 0.0, 0.0, 0.0, -6.7513495811717795e-25, -5.066550620557415e-31, 3.9740590441043556e-07, 0.0, 0.0, 0.0, 0.0, 0.0, 0.0, 9.968893952517788e-10]
---
header: 
  seq: 6499
  stamp: 
    secs: 1518210112
    nsecs: 412143946
  frame_id: "swarmone/odom"
child_frame_id: "swarmone/base_link"
pose: 
  pose: 
    position: 
      x: 0.487911362361
      y: 6.23243794671
      z: 0.0
    orientation: 
      x: 0.0
      y: 0.0
      z: 0.663135884309
      w: 0.748499030689
  covariance: [57055601606.33381, -3471374599.9181046, 0.0, 0.0, 0.0, -2.754662442077446e-15, -3471374599.9181075, 211378481.63825974, 0.0, 0.0, 0.0, 3.883351195335107e-16, 0.0, 0.0, 6.024838967358244e-07, -3.4959058133919956e-20, -1.4284445069068783e-13, 0.0, 0.0, 0.0, -3.495905813391994e-20, 5.019298194131533e-07, -3.7965013433810917e-26, 0.0, 0.0, 0.0, -1.428444506906878e-13, -3.7959040076540214e-26, 5.019298194131021e-07, 0.0, -2.7546624420774455e-15, 3.883351195335107e-16, 0.0, 0.0, 0.0, 1.0166631468057865e-06]
twist: 
  twist: 
    linear: 
      x: 0.0386000175704
      y: 0.0
      z: 0.0
    angular: 
      x: 0.0
      y: 0.0
      z: 0.0799706361286
  covariance: [9.999996233462397e-10, 0.0, 0.0, 0.0, 0.0, 0.0, 0.0, 914798.5967408995, 0.0, 0.0, 0.0, 0.0, 0.0, 0.0, 5.406619980831515e-07, -2.7983911628151914e-24, -3.3981022384204774e-25, 0.0, 0.0, 0.0, -2.7983911628151903e-24, 4.008483902985401e-07, -1.6104027702294256e-31, 0.0, 0.0, 0.0, -3.3981022384204774e-25, -1.6119420677622734e-31, 4.008483902985401e-07, 0.0, 0.0, 0.0, 0.0, 0.0, 0.0, 9.970636114131084e-10]
---
header: 
  seq: 6500
  stamp: 
    secs: 1518210112
    nsecs: 512650967
  frame_id: "swarmone/odom"
child_frame_id: "swarmone/base_link"
pose: 
  pose: 
    position: 
      x: 0.488233644911
      y: 6.23463367984
      z: 0.0
    orientation: 
      x: 0.0
      y: 0.0
      z: 0.663135685491
      w: 0.748499206832
  covariance: [57099752935.4856, -3475391801.9587197, 0.0, 0.0, 0.0, -1.272840499284208e-15, -3475391801.958723, 211703195.0356914, 0.0, 0.0, 0.0, 1.5450592654957635e-16, 0.0, 0.0, 5.955848129336216e-07, -1.0274887534149742e-20, -6.386558161561835e-14, 0.0, 0.0, 0.0, -1.0274887534149742e-20, 4.965492596876106e-07, -5.908961108667782e-27, 0.0, 0.0, 0.0, -6.386558161561833e-14, -5.909993841349518e-27, 4.965492596876007e-07, 0.0, -1.272840499284208e-15, 1.5450592654957635e-16, 0.0, 0.0, 0.0, 9.737478025688123e-07]
twist: 
  twist: 
    linear: 
      x: 0.00510001254846
      y: 0.0
      z: 0.0
    angular: 
      x: 0.0
      y: 0.0
      z: 0.0200613028807
  covariance: [9.99999626521011e-10, 0.0, 0.0, 0.0, 0.0, 0.0, 0.0, 915223.1108818662, 0.0, 0.0, 0.0, 0.0, 0.0, 0.0, 5.345452068398957e-07, -1.1683556274352176e-24, -1.4181798617290342e-25, 0.0, 0.0, 0.0, -1.1683556274352174e-24, 3.982704165024325e-07, -2.9349893398394087e-32, 0.0, 0.0, 0.0, -1.4181798617290338e-25, -2.8789670139172294e-32, 3.982704165024325e-07, 0.0, 0.0, 0.0, 0.0, 0.0, 0.0, 9.969348590145553e-10]
---
header: 
  seq: 6501
  stamp: 
    secs: 1518210112
    nsecs: 612147093
  frame_id: "swarmone/odom"
child_frame_id: "swarmone/base_link"
pose: 
  pose: 
    position: 
      x: 0.488268224669
      y: 6.23487555954
      z: 0.0
    orientation: 
      x: 0.0
      y: 0.0
      z: 0.666869864726
      w: 0.745174196762
  covariance: [57143487113.711334, -3479371570.7294874, 0.0, 0.0, 0.0, -1.1496877766253443e-16, -3479371570.7294908, 212024969.99090725, 0.0, 0.0, 0.0, 1.3463945151251365e-17, 0.0, 0.0, 5.884418980950054e-07, -4.944472013972407e-22, -5.112588272279712e-15, 0.0, 0.0, 0.0, -4.944472013972407e-22, 4.910509205927911e-07, -1.7532929317487367e-29, 0.0, 0.0, 0.0, -5.1125882722797126e-15, -1.7637485988542254e-29, 4.91050920592791e-07, 0.0, -1.1496877766253443e-16, 1.3463945151251362e-17, 0.0, 0.0, 0.0, 9.308324583288237e-07]
twist: 
  twist: 
    linear: 
      x: -0.000199998735347
      y: 0.0
      z: 0.0
    angular: 
      x: 0.0
      y: 0.0
      z: 0.000128228048771
  covariance: [9.999996224931038e-10, 0.0, 0.0, 0.0, 0.0, 0.0, 0.0, 915643.4846170667, 0.0, 0.0, 0.0, 0.0, 0.0, 0.0, 5.282630565713543e-07, -8.719632581090023e-26, -9.702913688844263e-27, 0.0, 0.0, 0.0, -8.719632581090026e-26, 3.9566851374130365e-07, -1.4046573254605187e-34, 0.0, 0.0, 0.0, -9.702913688844263e-27, -8.730710001891992e-35, 3.9566851374130365e-07, 0.0, 0.0, 0.0, 0.0, 0.0, 0.0, 9.967942979775944e-10]
---
header: 
  seq: 6502
  stamp: 
    secs: 1518210112
    nsecs: 711884499
  frame_id: "swarmone/odom"
child_frame_id: "swarmone/base_link"
pose: 
  pose: 
    position: 
      x: 0.488622662148
      y: 6.23879962189
      z: 0.0
    orientation: 
      x: 0.0
      y: 0.0
      z: 0.86742339967
      w: 0.497570744423
  covariance: [57187404355.87424, -3483143815.2943563, 0.0, 0.0, 0.0, 5.2745193546602936e-17, -3483143815.294359, 212320965.48227862, 0.0, 0.0, 0.0, 1.7116246137935005e-17, 0.0, 0.0, 5.955847606002605e-07, -1.5931391179712225e-21, 3.893542042484661e-15, 0.0, 0.0, 0.0, -1.5931391179712229e-21, 4.965491116291324e-07, 3.1759195300208874e-30, 0.0, 0.0, 0.0, 3.89354204248466e-15, 1.906351475516138e-30, 4.965491116291324e-07, 0.0, 5.2745193546602936e-17, 1.7116246137935e-17, 0.0, 0.0, 0.0, 9.737478025675304e-07]
twist: 
  twist: 
    linear: 
      x: 0.0795999691391
      y: 0.0
      z: 0.0
    angular: 
      x: 0.0
      y: 0.0
      z: -0.0297547887978
  covariance: [9.999996234615687e-10, 0.0, 0.0, 0.0, 0.0, 0.0, 0.0, 916065.0069365914, 0.0, 0.0, 0.0, 0.0, 0.0, 0.0, 5.345451028606981e-07, 6.184676669258946e-26, -3.6160950203960964e-26, 0.0, 0.0, 0.0, 6.184676669258946e-26, 3.982697220920467e-07, -6.145244091548846e-34, 0.0, 0.0, 0.0, -3.616095020396096e-26, 6.119934233201111e-34, 3.982697220920467e-07, 0.0, 0.0, 0.0, 0.0, 0.0, 0.0, 9.969348590145193e-10]
---
header: 
  seq: 6503
  stamp: 
    secs: 1518210112
    nsecs: 812420607
  frame_id: "swarmone/odom"
child_frame_id: "swarmone/base_link"
pose: 
  pose: 
    position: 
      x: 0.48497912974
      y: 6.25443883305
      z: 0.0
    orientation: 
      x: 0.0
      y: 0.0
      z: 0.659384516901
      w: 0.751805865148
  covariance: [57225877926.4557, -3473060316.8785634, 0.0, 0.0, 0.0, -2.5387117847213194e-15, -3473060316.878566, 210959287.07336947, 0.0, 0.0, 0.0, -4.791951449005446e-16, 0.0, 0.0, 6.047316495688074e-07, -7.134219197862358e-21, -1.3885251954862748e-13, 0.0, 0.0, 0.0, -7.134219197862358e-21, 5.036976374182165e-07, -3.014420862571344e-26, 0.0, 0.0, 0.0, -1.3885251954862748e-13, -3.014515308083524e-26, 5.036976374181678e-07, 0.0, -2.5387117847213198e-15, -4.791951449005449e-16, 0.0, 0.0, 0.0, 1.0309682615532645e-06]
twist: 
  twist: 
    linear: 
      x: 0.257899934502
      y: 0.0
      z: 0.0
    angular: 
      x: 0.0
      y: 0.0
      z: -0.15962354059
  covariance: [9.999996266355027e-10, 0.0, 0.0, 0.0, 0.0, 0.0, 0.0, 916490.0357342411, 0.0, 0.0, 0.0, 0.0, 0.0, 0.0, 5.426655007006107e-07, -2.7769832692820355e-24, -3.6337542472988856e-25, 0.0, 0.0, 0.0, -2.7769832692820333e-24, 4.017037883310924e-07, -1.5814552274779032e-31, 0.0, 0.0, 0.0, -3.6337542472988856e-25, -1.5841514993071078e-31, 4.017037883310924e-07, 0.0, 0.0, 0.0, 0.0, 0.0, 0.0, 9.971041583847906e-10]
---
header: 
  seq: 6504
  stamp: 
    secs: 1518210112
    nsecs: 911898851
  frame_id: "swarmone/odom"
child_frame_id: "swarmone/base_link"
pose: 
  pose: 
    position: 
      x: 0.488594552933
      y: 6.28362265225
      z: 0.0
    orientation: 
      x: 0.0
      y: 0.0
      z: 0.674287905052
      w: 0.738468564734
  covariance: [57269627295.018005, -3477259603.7317543, 0.0, 0.0, 0.0, -8.890514713490572e-15, -3477259603.7317567, 211307046.61888134, 0.0, 0.0, 0.0, 9.920332355809157e-16, 0.0, 0.0, 5.955847428210966e-07, 7.844290451882544e-20, -4.479481104310333e-13, 0.0, 0.0, 0.0, 7.844290451882544e-20, 4.965488791262274e-07, 5.138587017275989e-25, 0.0, 0.0, 0.0, -4.479481104310334e-13, 5.138587026824597e-25, 4.96548879125731e-07, 0.0, -8.890514713490572e-15, 9.920332355809157e-16, 0.0, 0.0, 0.0, 9.73747802567098e-07]
twist: 
  twist: 
    linear: 
      x: 0.3341999763
      y: 0.0
      z: 0.0
    angular: 
      x: 0.0
      y: 0.0
      z: -0.169478926278
