header: 
  seq: 1249
  stamp: 
    secs: 1518209587
    nsecs: 412189722
  frame_id: "swarmone/odom"
child_frame_id: "swarmone/base_link"
pose: 
  pose: 
    position: 
      x: 0.0
      y: 0.0
      z: 0.0
    orientation: 
      x: 0.0
      y: 0.0
      z: 0.696135409511
      w: 0.717910503911
  covariance: [15162847.3472623, -544222.4447653654, 0.0, 0.0, 0.0, 0.0, -544222.4447653656, 19539.441943734535, 0.0, 0.0, 0.0, 0.0, 0.0, 0.0, 5.932315030516607e-07, 0.0, 0.0, 0.0, 0.0, 0.0, 0.0, 4.947295409491182e-07, -1.1704648069327203e-31, 0.0, 0.0, 0.0, 0.0, 1.1704648069327203e-31, 4.947295409491182e-07, 0.0, 0.0, 0.0, 0.0, 0.0, 0.0, 9.594426878209956e-07]
twist: 
  twist: 
    linear: 
      x: 0.0
      y: 0.0
      z: 0.0
    angular: 
      x: 0.0
      y: 0.0
      z: 9.33180957347e-05
  covariance: [9.999996224239753e-10, 0.0, 0.0, 0.0, 0.0, 0.0, 0.0, 6490.109092731751, 0.0, 0.0, 0.0, 0.0, 0.0, 0.0, 5.324697362600743e-07, 0.0, 0.0, 0.0, 0.0, 0.0, 0.0, 3.9740498163347563e-07, -1.4153665232071386e-35, 0.0, 0.0, 0.0, 0.0, 1.4153665232071386e-35, 3.9740498163347563e-07, 0.0, 0.0, 0.0, 0.0, 0.0, 0.0, 9.968893952517296e-10]
---
header: 
  seq: 1250
  stamp: 
    secs: 1518209587
    nsecs: 512300491
  frame_id: "swarmone/odom"
child_frame_id: "swarmone/base_link"
pose: 
  pose: 
    position: 
      x: 0.0
      y: 0.0
      z: 0.0
    orientation: 
      x: 0.0
      y: 0.0
      z: 0.692537259873
      w: 0.721382106576
  covariance: [15223723.255514557, -546252.3637247009, 0.0, 0.0, 0.0, 0.0, -546252.3637247012, 19606.742937178096, 0.0, 0.0, 0.0, 0.0, 0.0, 0.0, 6.134738531618548e-07, 0.0, 0.0, 0.0, 0.0, 0.0, 0.0, 5.106463429346551e-07, -2.8289603014928803e-31, 0.0, 0.0, 0.0, 0.0, 2.8289603014928803e-31, 5.106463429346551e-07, 0.0, 0.0, 0.0, 0.0, 0.0, 0.0, 1.0881887205369666e-06]
twist: 
  twist: 
    linear: 
      x: 0.0
      y: 0.0
      z: 0.0
    angular: 
      x: 0.0
      y: 0.0
      z: 0.000109770562106
  covariance: [9.999996249516605e-10, 0.0, 0.0, 0.0, 0.0, 0.0, 0.0, 6505.7288681701175, 0.0, 0.0, 0.0, 0.0, 0.0, 0.0, 5.505072635913898e-07, 0.0, 0.0, 0.0, 0.0, 0.0, 0.0, 4.0509780326376973e-07, 1.8412698100399624e-35, 0.0, 0.0, 0.0, 0.0, -1.8412698100399619e-35, 4.0509780326376973e-07, 0.0, 0.0, 0.0, 0.0, 0.0, 0.0, 9.972557345796771e-10]
---
header: 
  seq: 1251
  stamp: 
    secs: 1518209587
    nsecs: 611725330
  frame_id: "swarmone/odom"
child_frame_id: "swarmone/base_link"
pose: 
  pose: 
    position: 
      x: 0.0
      y: 0.0
      z: 0.0
    orientation: 
      x: 0.0
      y: 0.0
      z: 0.692537228315
      w: 0.721382136872
  covariance: [15284353.694359098, -548577.5729286048, 0.0, 0.0, 0.0, 0.0, -548577.5729286053, 19695.55169947342, 0.0, 0.0, 0.0, 0.0, 0.0, 0.0, 5.932314993059071e-07, 0.0, 0.0, 0.0, 0.0, 0.0, 0.0, 4.947295701364831e-07, -7.675174387063274e-32, 0.0, 0.0, 0.0, 0.0, 7.675174387063274e-32, 4.947295701364831e-07, 0.0, 0.0, 0.0, 0.0, 0.0, 0.0, 9.594426878209084e-07]
twist: 
  twist: 
    linear: 
      x: 0.0
      y: 0.0
      z: 0.0
    angular: 
      x: 0.0
      y: 0.0
      z: 0.000124424127521
  covariance: [9.999996222055458e-10, 0.0, 0.0, 0.0, 0.0, 0.0, 0.0, 6521.266409918657, 0.0, 0.0, 0.0, 0.0, 0.0, 0.0, 5.324697288559981e-07, 0.0, 0.0, 0.0, 0.0, 0.0, 0.0, 3.974049328176197e-07, -1.9708423846632972e-35, 0.0, 0.0, 0.0, 0.0, 1.9708423846632972e-35, 3.974049328176197e-07, 0.0, 0.0, 0.0, 0.0, 0.0, 0.0, 9.96889395251727e-10]
---
header: 
  seq: 1252
  stamp: 
    secs: 1518209587
    nsecs: 712087154
  frame_id: "swarmone/odom"
child_frame_id: "swarmone/base_link"
pose: 
  pose: 
    position: 
      x: 0.0
      y: 0.0
      z: 0.0
    orientation: 
      x: 0.0
      y: 0.0
      z: 0.692537221436
      w: 0.721382143476
  covariance: [15345751.307706226, -550932.5286794942, 0.0, 0.0, 0.0, 0.0, -550932.5286794949, 19785.510674266254, 0.0, 0.0, 0.0, 0.0, 0.0, 0.0, 5.884419592735215e-07, 0.0, 0.0, 0.0, 0.0, 0.0, 0.0, 4.910511084868209e-07, 4.4609365250427194e-31, 0.0, 0.0, 0.0, 0.0, -4.4609365250427194e-31, 4.910511084868209e-07, 0.0, 0.0, 0.0, 0.0, 0.0, 0.0, 9.308324583302682e-07]
twist: 
  twist: 
    linear: 
      x: 0.0
      y: 0.0
      z: 0.0
    angular: 
      x: 0.0
      y: 0.0
      z: 0.0001282280172
  covariance: [9.999996259470123e-10, 0.0, 0.0, 0.0, 0.0, 0.0, 0.0, 6536.9754519978505, 0.0, 0.0, 0.0, 0.0, 0.0, 0.0, 5.282631771180343e-07, 0.0, 0.0, 0.0, 0.0, 0.0, 0.0, 3.956693040424524e-07, 5.80800537504986e-35, 0.0, 0.0, 0.0, 0.0, -5.80800537504986e-35, 3.956693040424524e-07, 0.0, 0.0, 0.0, 0.0, 0.0, 0.0, 9.96794297977639e-10]
---
header: 
  seq: 1253
  stamp: 
    secs: 1518209587
    nsecs: 811777115
  frame_id: "swarmone/odom"
child_frame_id: "swarmone/base_link"
pose: 
  pose: 
    position: 
      x: 0.0
      y: 0.0
      z: 0.0
    orientation: 
      x: 0.0
      y: 0.0
      z: 0.696135863768
      w: 0.717910063431
  covariance: [15406933.113806093, -553279.3939460904, 0.0, 0.0, 0.0, 0.0, -553279.3939460911, 19875.170012450817, 0.0, 0.0, 0.0, 0.0, 0.0, 0.0, 7.571515347131815e-07, 0.0, 0.0, 0.0, 0.0, 0.0, 0.0, 6.43980656342956e-07, -4.211246433827349e-31, 0.0, 0.0, 0.0, 0.0, 4.211246433827349e-31, 6.43980656342956e-07, 0.0, 0.0, 0.0, 0.0, 0.0, 0.0, 2.6188359983698258e-06]
twist: 
  twist: 
    linear: 
      x: 0.0
      y: 0.0
      z: 0.0
    angular: 
      x: 0.0
      y: 0.0
      z: 4.57345429044e-05
  covariance: [9.999996232713953e-10, 0.0, 0.0, 0.0, 0.0, 0.0, 0.0, 6552.604289995116, 0.0, 0.0, 0.0, 0.0, 0.0, 0.0, 6.918489069148719e-07, 0.0, 0.0, 0.0, 0.0, 0.0, 0.0, 4.834858381424506e-07, -8.989947585585287e-35, 0.0, 0.0, 0.0, 0.0, 8.989947585585287e-35, 4.834858381424506e-07, 0.0, 0.0, 0.0, 0.0, 0.0, 0.0, 9.9885663585552e-10]
---
header: 
  seq: 1254
  stamp: 
    secs: 1518209587
    nsecs: 912648439
  frame_id: "swarmone/odom"
child_frame_id: "swarmone/base_link"
pose: 
  pose: 
    position: 
      x: 0.0
      y: 0.0
      z: 0.0
    orientation: 
      x: 0.0
      y: 0.0
      z: 0.696135912294
      w: 0.717910016377
  covariance: [15469060.705582628, -555351.5924927962, 0.0, 0.0, 0.0, 0.0, -555351.592492797, 19943.887150024195, 0.0, 0.0, 0.0, 0.0, 0.0, 0.0, 7.684148567498737e-07, 0.0, 0.0, 0.0, 0.0, 0.0, 0.0, 6.562360739376795e-07, 3.489828085549779e-32, 0.0, 0.0, 0.0, 0.0, -3.489828085549779e-32, 6.562360739376795e-07, 0.0, 0.0, 0.0, 0.0, 0.0, 0.0, 2.81910760481744e-06]
twist: 
  twist: 
    linear: 
      x: 0.0
      y: 0.0
      z: 0.0
    angular: 
      x: 0.0
      y: 0.0
      z: 4.24912777439e-05
  covariance: [9.99999627952566e-10, 0.0, 0.0, 0.0, 0.0, 0.0, 0.0, 6568.443674851978, 0.0, 0.0, 0.0, 0.0, 0.0, 0.0, 7.04026112089697e-07, 0.0, 0.0, 0.0, 0.0, 0.0, 0.0, 4.922406465776231e-07, 9.635523108591123e-35, 0.0, 0.0, 0.0, 0.0, -9.635523108591123e-35, 4.922406465776231e-07, 0.0, 0.0, 0.0, 0.0, 0.0, 0.0, 9.989377175302069e-10]
---
header: 
  seq: 1255
  stamp: 
    secs: 1518209588
    nsecs:  12325287
  frame_id: "swarmone/odom"
child_frame_id: "swarmone/base_link"
pose: 
  pose: 
    position: 
      x: 0.0
      y: 0.0
      z: 0.0
    orientation: 
      x: 0.0
      y: 0.0
      z: 0.692537222038
      w: 0.721382142898
  covariance: [15530649.325998278, -557405.5234553511, 0.0, 0.0, 0.0, 0.0, -557405.5234553516, 20011.990665175097, 0.0, 0.0, 0.0, 0.0, 0.0, 0.0, 5.884419111614425e-07, 0.0, 0.0, 0.0, 0.0, 0.0, 0.0, 4.910509619128075e-07, 8.516004174526305e-32, 0.0, 0.0, 0.0, 0.0, -8.516004174526305e-32, 4.910509619128075e-07, 0.0, 0.0, 0.0, 0.0, 0.0, 0.0, 9.30832458329179e-07]
twist: 
  twist: 
    linear: 
      x: 0.0
      y: 0.0
      z: 0.0
    angular: 
      x: 0.0
      y: 0.0
      z: 0.000128228016632
  covariance: [9.999996232192757e-10, 0.0, 0.0, 0.0, 0.0, 0.0, 0.0, 6584.1205535765175, 0.0, 0.0, 0.0, 0.0, 0.0, 0.0, 5.282630825080176e-07, 0.0, 0.0, 0.0, 0.0, 0.0, 0.0, 3.956686884943509e-07, -3.7887142548458697e-35, 0.0, 0.0, 0.0, 0.0, 3.7887142548458937e-35, 3.956686884943509e-07, 0.0, 0.0, 0.0, 0.0, 0.0, 0.0, 9.967942979776037e-10]
---
header: 
  seq: 1256
  stamp: 
    secs: 1518209588
    nsecs: 111938715
  frame_id: "swarmone/odom"
child_frame_id: "swarmone/base_link"
pose: 
  pose: 
    position: 
      x: 0.0
      y: 0.0
      z: 0.0
    orientation: 
      x: 0.0
      y: 0.0
      z: 0.692537231755
      w: 0.72138213357
  covariance: [15592372.46176929, -559772.9399755531, 0.0, 0.0, 0.0, 0.0, -559772.9399755535, 20102.424487970737, 0.0, 0.0, 0.0, 0.0, 0.0, 0.0, 5.955847520968239e-07, 0.0, 0.0, 0.0, 0.0, 0.0, 0.0, 4.965490721589408e-07, 2.436846475742843e-31, 0.0, 0.0, 0.0, 0.0, -2.436846475742843e-31, 4.965490721589408e-07, 0.0, 0.0, 0.0, 0.0, 0.0, 0.0, 9.737478025673224e-07]
twist: 
  twist: 
    linear: 
      x: 0.0
      y: 0.0
      z: 0.0
    angular: 
      x: 0.0
      y: 0.0
      z: 0.000122605578066
  covariance: [9.999996229644303e-10, 0.0, 0.0, 0.0, 0.0, 0.0, 0.0, 6599.812362244192, 0.0, 0.0, 0.0, 0.0, 0.0, 0.0, 5.345450859671842e-07, 0.0, 0.0, 0.0, 0.0, 0.0, 0.0, 3.9826960930161386e-07, 1.896644465307552e-35, 0.0, 0.0, 0.0, 0.0, -1.896644465307552e-35, 3.9826960930161386e-07, 0.0, 0.0, 0.0, 0.0, 0.0, 0.0, 9.969348590145133e-10]
---
header: 
  seq: 1257
  stamp: 
    secs: 1518209588
    nsecs: 212473154
  frame_id: "swarmone/odom"
child_frame_id: "swarmone/base_link"
pose: 
  pose: 
    position: 
      x: 0.0
      y: 0.0
      z: 0.0
    orientation: 
      x: 0.0
      y: 0.0
      z: 0.69613540695
      w: 0.717910506394
  covariance: [15654865.132370405, -562170.1491610412, 0.0, 0.0, 0.0, 0.0, -562170.1491610416, 20194.00887107338, 0.0, 0.0, 0.0, 0.0, 0.0, 0.0, 5.908507901822884e-07, 0.0, 0.0, 0.0, 0.0, 0.0, 0.0, 4.928971067994411e-07, 9.348020265258435e-32, 0.0, 0.0, 0.0, 0.0, -9.348020265258435e-32, 4.928971067994411e-07, 0.0, 0.0, 0.0, 0.0, 0.0, 0.0, 9.451375730766546e-07]
twist: 
  twist: 
    linear: 
      x: 0.0
      y: 0.0
      z: 0.0
    angular: 
      x: 0.0
      y: 0.0
      z: 9.47230781006e-05
  covariance: [9.999996266289434e-10, 0.0, 0.0, 0.0, 0.0, 0.0, 0.0, 6615.6745179164245, 0.0, 0.0, 0.0, 0.0, 0.0, 0.0, 5.303759608636556e-07, 0.0, 0.0, 0.0, 0.0, 0.0, 0.0, 3.9653894845643077e-07, -1.586410449823392e-38, 0.0, 0.0, 0.0, 0.0, 1.586410449823392e-38, 3.9653894845643077e-07, 0.0, 0.0, 0.0, 0.0, 0.0, 0.0, 9.968425624991602e-10]
---
header: 
  seq: 1258
  stamp: 
    secs: 1518209588
    nsecs: 311911345
  frame_id: "swarmone/odom"
child_frame_id: "swarmone/base_link"
pose: 
  pose: 
    position: 
      x: 0.0
      y: 0.0
      z: 0.0
    orientation: 
      x: 0.0
      y: 0.0
      z: 0.692537270197
      w: 0.721382096665
  covariance: [15716895.572061162, -564239.1833554377, 0.0, 0.0, 0.0, 0.0, -564239.1833554379, 20262.624175982328, 0.0, 0.0, 0.0, 0.0, 0.0, 0.0, 6.197808499898596e-07, 0.0, 0.0, 0.0, 0.0, 0.0, 0.0, 5.157312273049336e-07, -6.6010082216640645e-31, 0.0, 0.0, 0.0, 0.0, 6.6010082216640645e-31, 5.157312273049336e-07, 0.0, 0.0, 0.0, 0.0, 0.0, 0.0, 1.1311040647741468e-06]
twist: 
  twist: 
    linear: 
      x: 0.0
      y: 0.0
      z: 0.0
    angular: 
      x: 0.0
      y: 0.0
      z: 0.00010562407411
  covariance: [9.999996222595954e-10, 0.0, 0.0, 0.0, 0.0, 0.0, 0.0, 6631.388694634374, 0.0, 0.0, 0.0, 0.0, 0.0, 0.0, 5.562143034267451e-07, 0.0, 0.0, 0.0, 0.0, 0.0, 0.0, 4.0761783696729085e-07, -9.602493490531321e-35, 0.0, 0.0, 0.0, 0.0, 9.602493490531321e-35, 4.0761783696729085e-07, 0.0, 0.0, 0.0, 0.0, 0.0, 0.0, 9.973593968223865e-10]
---
header: 
  seq: 1259
  stamp: 
    secs: 1518209588
    nsecs: 411917686
  frame_id: "swarmone/odom"
child_frame_id: "swarmone/base_link"
pose: 
  pose: 
    position: 
      x: 0.0
      y: 0.0
      z: 0.0
    orientation: 
      x: 0.0
      y: 0.0
      z: 0.696135497484
      w: 0.717910418606
  covariance: [15779456.176687311, -566638.9781429732, 0.0, 0.0, 0.0, 0.0, -566638.9781429733, 20354.30653451665, 0.0, 0.0, 0.0, 0.0, 0.0, 0.0, 6.134738466965517e-07, 0.0, 0.0, 0.0, 0.0, 0.0, 0.0, 5.106463223286077e-07, -7.847463754026843e-32, 0.0, 0.0, 0.0, 0.0, 7.847463754026843e-32, 5.106463223286077e-07, 0.0, 0.0, 0.0, 0.0, 0.0, 0.0, 1.0881887205367976e-06]
twist: 
  twist: 
    linear: 
      x: 0.0
      y: 0.0
      z: 0.0
    angular: 
      x: 0.0
      y: 0.0
      z: 0.000109770562066
  covariance: [9.99999624535851e-10, 0.0, 0.0, 0.0, 0.0, 0.0, 0.0, 6647.217737842857, 0.0, 0.0, 0.0, 0.0, 0.0, 0.0, 5.505072504974106e-07, 0.0, 0.0, 0.0, 0.0, 0.0, 0.0, 4.050977120116596e-07, 9.628826689721264e-38, 0.0, 0.0, 0.0, 0.0, -9.628826689721264e-38, 4.050977120116596e-07, 0.0, 0.0, 0.0, 0.0, 0.0, 0.0, 9.972557345796732e-10]
---
header: 
  seq: 1260
  stamp: 
    secs: 1518209588
    nsecs: 512482643
  frame_id: "swarmone/odom"
child_frame_id: "swarmone/base_link"
pose: 
  pose: 
    position: 
      x: 0.0
      y: 0.0
      z: 0.0
    orientation: 
      x: 0.0
      y: 0.0
      z: 0.692537228913
      w: 0.721382136298
  covariance: [15842589.613785293, -568744.7731990077, 0.0, 0.0, 0.0, 0.0, -568744.7731990077, 20424.13987970428, 0.0, 0.0, 0.0, 0.0, 0.0, 0.0, 5.932315779143079e-07, 0.0, 0.0, 0.0, 0.0, 0.0, 0.0, 4.947298126417097e-07, 2.889146878392793e-31, 0.0, 0.0, 0.0, 0.0, -2.889146878392793e-31, 4.947298126417097e-07, 0.0, 0.0, 0.0, 0.0, 0.0, 0.0, 9.594426878228087e-07]
twist: 
  twist: 
    linear: 
      x: 0.0
      y: 0.0
      z: 0.0
    angular: 
      x: 0.0
      y: 0.0
      z: 0.000124424128226
  covariance: [9.999996267492698e-10, 0.0, 0.0, 0.0, 0.0, 0.0, 0.0, 6663.160583262275, 0.0, 0.0, 0.0, 0.0, 0.0, 0.0, 5.324698846024189e-07, 0.0, 0.0, 0.0, 0.0, 0.0, 0.0, 3.9740596641472145e-07, 3.0027315336346335e-35, 0.0, 0.0, 0.0, 0.0, -3.0027315336346335e-35, 3.9740596641472145e-07, 0.0, 0.0, 0.0, 0.0, 0.0, 0.0, 9.968893952517824e-10]
---
header: 
  seq: 1261
  stamp: 
    secs: 1518209588
    nsecs: 611692190
  frame_id: "swarmone/odom"
child_frame_id: "swarmone/base_link"
pose: 
  pose: 
    position: 
      x: 0.0
      y: 0.0
      z: 0.0
    orientation: 
      x: 0.0
      y: 0.0
      z: 0.692537228315
      w: 0.721382136872
  covariance: [15905047.606762474, -571140.6770137055, 0.0, 0.0, 0.0, 0.0, -571140.6770137055, 20515.67492346712, 0.0, 0.0, 0.0, 0.0, 0.0, 0.0, 5.932314842354033e-07, 0.0, 0.0, 0.0, 0.0, 0.0, 0.0, 4.947295236027436e-07, -2.7450962279729866e-31, 0.0, 0.0, 0.0, 0.0, 2.7450962279729866e-31, 4.947295236027436e-07, 0.0, 0.0, 0.0, 0.0, 0.0, 0.0, 9.59442687820541e-07]
twist: 
  twist: 
    linear: 
      x: 0.0
      y: 0.0
      z: 0.0
    angular: 
      x: 0.0
      y: 0.0
      z: 0.000124424127409
  covariance: [9.999996213360311e-10, 0.0, 0.0, 0.0, 0.0, 0.0, 0.0, 6678.913514399756, 0.0, 0.0, 0.0, 0.0, 0.0, 0.0, 5.324696989812077e-07, 0.0, 0.0, 0.0, 0.0, 0.0, 0.0, 3.9740473426693843e-07, -8.659072748191168e-35, 0.0, 0.0, 0.0, 0.0, 8.659072748191168e-35, 3.9740473426693843e-07, 0.0, 0.0, 0.0, 0.0, 0.0, 0.0, 9.968893952517164e-10]
---
header: 
  seq: 1262
  stamp: 
    secs: 1518209588
    nsecs: 712195635
  frame_id: "swarmone/odom"
child_frame_id: "swarmone/base_link"
pose: 
  pose: 
    position: 
      x: 0.0
      y: 0.0
      z: 0.0
    orientation: 
      x: 0.0
      y: 0.0
      z: 0.696135459832
      w: 0.717910455116
  covariance: [15968520.917888157, -573575.8088701242, 0.0, 0.0, 0.0, 0.0, -573575.808870124, 20608.721301050948, 0.0, 0.0, 0.0, 0.0, 0.0, 0.0, 5.884419691819419e-07, 0.0, 0.0, 0.0, 0.0, 0.0, 0.0, 4.9105113884074e-07, -2.9455786576516104e-31, 0.0, 0.0, 0.0, 0.0, 2.9455786576516104e-31, 4.9105113884074e-07, 0.0, 0.0, 0.0, 0.0, 0.0, 0.0, 9.308324583305021e-07]
twist: 
  twist: 
    linear: 
      x: 0.0
      y: 0.0
      z: 0.0
    angular: 
      x: 0.0
      y: 0.0
      z: 0.00012822801729
  covariance: [9.999996265065777e-10, 0.0, 0.0, 0.0, 0.0, 0.0, 0.0, 6694.8971969090235, 0.0, 0.0, 0.0, 0.0, 0.0, 0.0, 5.282631966419712e-07, 0.0, 0.0, 0.0, 0.0, 0.0, 0.0, 3.9566943204669317e-07, -7.210584674495517e-35, 0.0, 0.0, 0.0, 0.0, 7.210584674495517e-35, 3.9566943204669317e-07, 0.0, 0.0, 0.0, 0.0, 0.0, 0.0, 9.967942979776463e-10]
---
header: 
  seq: 1263
  stamp: 
    secs: 1518209588
    nsecs: 812550545
  frame_id: "swarmone/odom"
child_frame_id: "swarmone/base_link"
pose: 
  pose: 
    position: 
      x: 0.0
      y: 0.0
      z: 0.0
    orientation: 
      x: 0.0
      y: 0.0
      z: 0.688921680622
      w: 0.724835786898
  covariance: [16032125.273263684, -575697.6819996613, 0.0, 0.0, 0.0, 0.0, -575697.681999661, 20679.09890311349, 0.0, 0.0, 0.0, 0.0, 0.0, 0.0, 5.955848026409824e-07, 0.0, 0.0, 0.0, 0.0, 0.0, 0.0, 4.9654922869797e-07, 3.530812172891042e-31, 0.0, 0.0, 0.0, 0.0, -3.530812172891042e-31, 4.9654922869797e-07, 0.0, 0.0, 0.0, 0.0, 0.0, 0.0, 9.737478025685587e-07]
twist: 
  twist: 
    linear: 
      x: 0.0
      y: 0.0
      z: 0.0
    angular: 
      x: 0.0
      y: 0.0
      z: 0.000122605578518
  covariance: [9.999996259202318e-10, 0.0, 0.0, 0.0, 0.0, 0.0, 0.0, 6710.882685144077, 0.0, 0.0, 0.0, 0.0, 0.0, 0.0, 5.34545186381738e-07, 0.0, 0.0, 0.0, 0.0, 0.0, 0.0, 3.982702797269362e-07, -1.9855785449774049e-35, 0.0, 0.0, 0.0, 0.0, 1.985578544977406e-35, 3.982702797269362e-07, 0.0, 0.0, 0.0, 0.0, 0.0, 0.0, 9.96934859014548e-10]
---
header: 
  seq: 1264
  stamp: 
    secs: 1518209588
    nsecs: 911707401
  frame_id: "swarmone/odom"
child_frame_id: "swarmone/base_link"
pose: 
  pose: 
    position: 
      x: 0.0
      y: 0.0
      z: 0.0
    orientation: 
      x: 0.0
      y: 0.0
      z: 0.692537224269
      w: 0.721382140756
  covariance: [16095117.726949897, -578430.3055484442, 0.0, 0.0, 0.0, 0.0, -578430.3055484438, 20794.142144882757, 0.0, 0.0, 0.0, 0.0, 0.0, 0.0, 5.908506937970868e-07, 0.0, 0.0, 0.0, 0.0, 0.0, 0.0, 4.928968511476784e-07, 9.840950504580035e-32, 0.0, 0.0, 0.0, 0.0, -9.840950504580035e-32, 4.928968511476784e-07, 0.0, 0.0, 0.0, 0.0, 0.0, 0.0, 9.451375730743514e-07]
twist: 
  twist: 
    linear: 
      x: 0.0
      y: 0.0
      z: 0.0
    angular: 
      x: 0.0
      y: 0.0
      z: 0.000126297436536
  covariance: [9.999996211226746e-10, 0.0, 0.0, 0.0, 0.0, 0.0, 0.0, 6726.702311939186, 0.0, 0.0, 0.0, 0.0, 0.0, 0.0, 5.303757704172639e-07, 0.0, 0.0, 0.0, 0.0, 0.0, 0.0, 3.9653769220933807e-07, 3.839256866417487e-35, 0.0, 0.0, 0.0, 0.0, -3.8392568664174874e-35, 3.9653769220933807e-07, 0.0, 0.0, 0.0, 0.0, 0.0, 0.0, 9.968425624990916e-10]
---
header: 
  seq: 1265
  stamp: 
    secs: 1518209589
    nsecs:  12042284
  frame_id: "swarmone/odom"
child_frame_id: "swarmone/base_link"
pose: 
  pose: 
    position: 
      x: 0.0
      y: 0.0
      z: 0.0
    orientation: 
      x: 0.0
      y: 0.0
      z: 0.696135463254
      w: 0.717910451798
  covariance: [16159089.351121396, -580885.5383650243, 0.0, 0.0, 0.0, 0.0, -580885.538365024, 20887.99923737095, 0.0, 0.0, 0.0, 0.0, 0.0, 0.0, 5.908507763783608e-07, 0.0, 0.0, 0.0, 0.0, 0.0, 0.0, 4.928971048324006e-07, 2.050861948131328e-31, 0.0, 0.0, 0.0, 0.0, -2.050861948131328e-31, 4.928971048324006e-07, 0.0, 0.0, 0.0, 0.0, 0.0, 0.0, 9.45137573076324e-07]
twist: 
  twist: 
    linear: 
      x: 0.0
      y: 0.0
      z: 0.0
    angular: 
      x: 0.0
      y: 0.0
      z: 0.000126297437285
  covariance: [9.999996258405205e-10, 0.0, 0.0, 0.0, 0.0, 0.0, 0.0, 6742.735172932148, 0.0, 0.0, 0.0, 0.0, 0.0, 0.0, 5.303759335851627e-07, 0.0, 0.0, 0.0, 0.0, 0.0, 0.0, 3.965387684556665e-07, 6.796547908874601e-35, 0.0, 0.0, 0.0, 0.0, -6.796547908874601e-35, 3.965387684556665e-07, 0.0, 0.0, 0.0, 0.0, 0.0, 0.0, 9.968425624991507e-10]
---
header: 
  seq: 1266
  stamp: 
    secs: 1518209589
    nsecs: 112201214
  frame_id: "swarmone/odom"
child_frame_id: "swarmone/base_link"
pose: 
  pose: 
    position: 
      x: 0.0
      y: 0.0
      z: 0.0
    orientation: 
      x: 0.0
      y: 0.0
      z: 0.69613546385
      w: 0.71791045122
  covariance: [16223174.501355203, -583024.3306634275, 0.0, 0.0, 0.0, 0.0, -583024.330663427, 20958.96191802277, 0.0, 0.0, 0.0, 0.0, 0.0, 0.0, 5.908507641663865e-07, 0.0, 0.0, 0.0, 0.0, 0.0, 0.0, 4.928970673250908e-07, -9.199704771871027e-31, 0.0, 0.0, 0.0, 0.0, 9.199704771871027e-31, 4.928970673250908e-07, 0.0, 0.0, 0.0, 0.0, 0.0, 0.0, 9.451375730760322e-07]
twist: 
  twist: 
    linear: 
      x: 0.0
      y: 0.0
      z: 0.0
    angular: 
      x: 0.0
      y: 0.0
      z: 0.000126297437175
  covariance: [9.999996251431572e-10, 0.0, 0.0, 0.0, 0.0, 0.0, 0.0, 6758.76531043317, 0.0, 0.0, 0.0, 0.0, 0.0, 0.0, 5.303759094556414e-07, 0.0, 0.0, 0.0, 0.0, 0.0, 0.0, 3.965386092885997e-07, 1.0084187070799972e-35, 0.0, 0.0, 0.0, 0.0, -1.0084187070799972e-35, 3.965386092885997e-07, 0.0, 0.0, 0.0, 0.0, 0.0, 0.0, 9.968425624991416e-10]
---
header: 
  seq: 1267
  stamp: 
    secs: 1518209589
    nsecs: 212200403
  frame_id: "swarmone/odom"
child_frame_id: "swarmone/base_link"
pose: 
  pose: 
    position: 
      x: 0.0
      y: 0.0
      z: 0.0
    orientation: 
      x: 0.0
      y: 0.0
      z: 0.692537228916
      w: 0.721382136295
  covariance: [16287360.123727743, -585166.1803243817, 0.0, 0.0, 0.0, 0.0, -585166.1803243811, 21030.01813775971, 0.0, 0.0, 0.0, 0.0, 0.0, 0.0, 5.932315391038175e-07, 0.0, 0.0, 0.0, 0.0, 0.0, 0.0, 4.947296928665714e-07, -1.6909191256871718e-31, 0.0, 0.0, 0.0, 0.0, 1.6909191256871718e-31, 4.947296928665714e-07, 0.0, 0.0, 0.0, 0.0, 0.0, 0.0, 9.594426878218672e-07]
twist: 
  twist: 
    linear: 
      x: 0.0
      y: 0.0
      z: 0.0
    angular: 
      x: 0.0
      y: 0.0
      z: 0.000124424127904
  covariance: [9.99999624507754e-10, 0.0, 0.0, 0.0, 0.0, 0.0, 0.0, 6774.795211710405, 0.0, 0.0, 0.0, 0.0, 0.0, 0.0, 5.324698076901844e-07, 0.0, 0.0, 0.0, 0.0, 0.0, 0.0, 3.974054556750511e-07, 2.8776051905113004e-35, 0.0, 0.0, 0.0, 0.0, -2.8776051905113004e-35, 3.974054556750511e-07, 0.0, 0.0, 0.0, 0.0, 0.0, 0.0, 9.968893952517549e-10]
---
header: 
  seq: 1268
  stamp: 
    secs: 1518209589
    nsecs: 311707497
  frame_id: "swarmone/odom"
child_frame_id: "swarmone/base_link"
pose: 
  pose: 
    position: 
      x: 0.0
      y: 0.0
      z: 0.0
    orientation: 
      x: 0.0
      y: 0.0
      z: 0.692537224875
      w: 0.721382140174
  covariance: [16351408.433118353, -587624.042662016, 0.0, 0.0, 0.0, 0.0, -587624.0426620155, 21123.961599794082, 0.0, 0.0, 0.0, 0.0, 0.0, 0.0, 5.908507185522908e-07, 0.0, 0.0, 0.0, 0.0, 0.0, 0.0, 4.928969271748428e-07, 4.036338812528556e-31, 0.0, 0.0, 0.0, 0.0, -4.036338812528556e-31, 4.928969271748428e-07, 0.0, 0.0, 0.0, 0.0, 0.0, 0.0, 9.451375730749426e-07]
twist: 
  twist: 
    linear: 
      x: 0.0
      y: 0.0
      z: 0.0
    angular: 
      x: 0.0
      y: 0.0
      z: 0.000126297436762
  covariance: [9.999996225369934e-10, 0.0, 0.0, 0.0, 0.0, 0.0, 0.0, 6790.771372731984, 0.0, 0.0, 0.0, 0.0, 0.0, 0.0, 5.303758193289946e-07, 0.0, 0.0, 0.0, 0.0, 0.0, 0.0, 3.965380148140178e-07, 5.842801777266246e-35, 0.0, 0.0, 0.0, 0.0, -5.842801777266246e-35, 3.965380148140178e-07, 0.0, 0.0, 0.0, 0.0, 0.0, 0.0, 9.968425624991092e-10]
---
header: 
  seq: 1269
  stamp: 
    secs: 1518209589
    nsecs: 412315369
  frame_id: "swarmone/odom"
child_frame_id: "swarmone/base_link"
pose: 
  pose: 
    position: 
      x: 0.0
      y: 0.0
      z: 0.0
    orientation: 
      x: 0.0
      y: 0.0
      z: 0.692537231755
      w: 0.72138213357
  covariance: [16416369.983281568, -590117.2849577039, 0.0, 0.0, 0.0, 0.0, -590117.2849577036, 21219.271831811184, 0.0, 0.0, 0.0, 0.0, 0.0, 0.0, 5.955848197167901e-07, 0.0, 0.0, 0.0, 0.0, 0.0, 0.0, 4.965492816881844e-07, -2.15324520282499e-31, 0.0, 0.0, 0.0, 0.0, 2.15324520282499e-31, 4.965492816881844e-07, 0.0, 0.0, 0.0, 0.0, 0.0, 0.0, 9.737478025689767e-07]
twist: 
  twist: 
    linear: 
      x: 0.0
      y: 0.0
      z: 0.0
    angular: 
      x: 0.0
      y: 0.0
      z: 0.000122605578668
  covariance: [9.999996269182163e-10, 0.0, 0.0, 0.0, 0.0, 0.0, 0.0, 6806.949785780059, 0.0, 0.0, 0.0, 0.0, 0.0, 0.0, 5.345452203074379e-07, 0.0, 0.0, 0.0, 0.0, 0.0, 0.0, 3.9827050626569434e-07, 1.8964306256892598e-35, 0.0, 0.0, 0.0, 0.0, -1.8964306256892598e-35, 3.9827050626569434e-07, 0.0, 0.0, 0.0, 0.0, 0.0, 0.0, 9.969348590145598e-10]
---
header: 
  seq: 1270
  stamp: 
    secs: 1518209589
    nsecs: 512185097
  frame_id: "swarmone/odom"
child_frame_id: "swarmone/base_link"
pose: 
  pose: 
    position: 
      x: 0.0
      y: 0.0
      z: 0.0
    orientation: 
      x: 0.0
      y: 0.0
      z: 0.692537231755
      w: 0.72138213357
  covariance: [16481058.987692464, -592600.3983922033, 0.0, 0.0, 0.0, 0.0, -592600.398392203, 21314.209244675807, 0.0, 0.0, 0.0, 0.0, 0.0, 0.0, 5.955847696609572e-07, 0.0, 0.0, 0.0, 0.0, 0.0, 0.0, 4.965491265960394e-07, 4.3855536285096495e-31, 0.0, 0.0, 0.0, 0.0, -4.3855536285096495e-31, 4.965491265960394e-07, 0.0, 0.0, 0.0, 0.0, 0.0, 0.0, 9.73747802567753e-07]
twist: 
  twist: 
    linear: 
      x: 0.0
      y: 0.0
      z: 0.0
    angular: 
      x: 0.0
      y: 0.0
      z: 0.000122605578214
  covariance: [9.999996239913132e-10, 0.0, 0.0, 0.0, 0.0, 0.0, 0.0, 6823.034897746936, 0.0, 0.0, 0.0, 0.0, 0.0, 0.0, 5.345451208664436e-07, 0.0, 0.0, 0.0, 0.0, 0.0, 0.0, 3.982698424011936e-07, 5.761040017127857e-35, 0.0, 0.0, 0.0, 0.0, -5.761040017127857e-35, 3.982698424011936e-07, 0.0, 0.0, 0.0, 0.0, 0.0, 0.0, 9.969348590145255e-10]
---
header: 
  seq: 1271
  stamp: 
    secs: 1518209589
    nsecs: 612462282
  frame_id: "swarmone/odom"
child_frame_id: "swarmone/base_link"
pose: 
  pose: 
    position: 
      x: 0.0
      y: 0.0
      z: 0.0
    orientation: 
      x: 0.0
      y: 0.0
      z: 0.692537224875
      w: 0.721382140174
  covariance: [16546216.962616328, -595101.8465209899, 0.0, 0.0, 0.0, 0.0, -595101.8465209897, 21409.86209254841, 0.0, 0.0, 0.0, 0.0, 0.0, 0.0, 5.90850772384136e-07, 0.0, 0.0, 0.0, 0.0, 0.0, 0.0, 4.928970925158976e-07, 8.06924687724352e-31, 0.0, 0.0, 0.0, 0.0, -8.06924687724352e-31, 4.928970925158976e-07, 0.0, 0.0, 0.0, 0.0, 0.0, 0.0, 9.451375730762292e-07]
twist: 
  twist: 
    linear: 
      x: 0.0
      y: 0.0
      z: 0.0
    angular: 
      x: 0.0
      y: 0.0
      z: 0.000126297437243
  covariance: [9.999996256125007e-10, 0.0, 0.0, 0.0, 0.0, 0.0, 0.0, 6839.211114263564, 0.0, 0.0, 0.0, 0.0, 0.0, 0.0, 5.303759256964694e-07, 0.0, 0.0, 0.0, 0.0, 0.0, 0.0, 3.965387164807493e-07, -1.0117066074669132e-35, 0.0, 0.0, 0.0, 0.0, 1.0117066074669132e-35, 3.965387164807493e-07, 0.0, 0.0, 0.0, 0.0, 0.0, 0.0, 9.968425624991478e-10]
---
header: 
  seq: 1272
  stamp: 
    secs: 1518209589
    nsecs: 712224722
  frame_id: "swarmone/odom"
child_frame_id: "swarmone/base_link"
pose: 
  pose: 
    position: 
      x: 0.0
      y: 0.0
      z: 0.0
    orientation: 
      x: 0.0
      y: 0.0
      z: 0.69613547352
      w: 0.717910441843
  covariance: [16611244.837164007, -597598.5781762382, 0.0, 0.0, 0.0, 0.0, -597598.5781762379, 21505.34715701321, 0.0, 0.0, 0.0, 0.0, 0.0, 0.0, 5.979109305517342e-07, 0.0, 0.0, 0.0, 0.0, 0.0, 0.0, 4.98355508708148e-07, 3.874831543576975e-32, 0.0, 0.0, 0.0, 0.0, -3.874831543576975e-32, 4.98355508708148e-07, 0.0, 0.0, 0.0, 0.0, 0.0, 0.0, 9.880529173136738e-07]
twist: 
  twist: 
    linear: 
      x: 0.0
      y: 0.0
      z: 0.0
    angular: 
      x: 0.0
      y: 0.0
      z: 0.000120839421653
  covariance: [9.999996235622885e-10, 0.0, 0.0, 0.0, 0.0, 0.0, 0.0, 6855.329649197642, 0.0, 0.0, 0.0, 0.0, 0.0, 0.0, 5.366020942238732e-07, 0.0, 0.0, 0.0, 0.0, 0.0, 0.0, 3.991317723213792e-07, -2.3757591846121598e-35, 0.0, 0.0, 0.0, 0.0, 2.3757591846121598e-35, 3.991317723213792e-07, 0.0, 0.0, 0.0, 0.0, 0.0, 0.0, 9.96979012949124e-10]
---
header: 
  seq: 1273
  stamp: 
    secs: 1518209589
    nsecs: 812704325
  frame_id: "swarmone/odom"
child_frame_id: "swarmone/base_link"
pose: 
  pose: 
    position: 
      x: 0.0
      y: 0.0
      z: 0.0
    orientation: 
      x: 0.0
      y: 0.0
      z: 0.692537239233
      w: 0.721382126391
  covariance: [16676970.259748021, -599793.1366024608, 0.0, 0.0, 0.0, 0.0, -599793.1366024604, 21578.189631494246, 0.0, 0.0, 0.0, 0.0, 0.0, 0.0, 6.002105395642332e-07, 0.0, 0.0, 0.0, 0.0, 0.0, 0.0, 5.001491458343122e-07, -1.4435858534990615e-31, 0.0, 0.0, 0.0, 0.0, 1.4435858534990615e-31, 5.001491458343122e-07, 0.0, 0.0, 0.0, 0.0, 0.0, 0.0, 1.0023580320609687e-06]
twist: 
  twist: 
    linear: 
      x: 0.0
      y: 0.0
      z: 0.0
    angular: 
      x: 0.0
      y: 0.0
      z: 0.000119123426623
  covariance: [9.999996264130327e-10, 0.0, 0.0, 0.0, 0.0, 0.0, 0.0, 6871.589638506628, 0.0, 0.0, 0.0, 0.0, 0.0, 0.0, 5.38641076426e-07, 0.0, 0.0, 0.0, 0.0, 0.0, 0.0, 3.999919766223165e-07, -1.1310578752878594e-38, 0.0, 0.0, 0.0, 0.0, 1.1310578752878594e-38, 3.999919766223165e-07, 0.0, 0.0, 0.0, 0.0, 0.0, 0.0, 9.970219128567274e-10]
---
header: 
  seq: 1274
  stamp: 
    secs: 1518209589
    nsecs: 911795616
  frame_id: "swarmone/odom"
child_frame_id: "swarmone/base_link"
pose: 
  pose: 
    position: 
      x: 0.0
      y: 0.0
      z: 0.0
    orientation: 
      x: 0.0
      y: 0.0
      z: 0.696135463246
      w: 0.717910451805
  covariance: [16741967.862013495, -602288.6817588874, 0.0, 0.0, 0.0, 0.0, -602288.681758887, 21673.628231298484, 0.0, 0.0, 0.0, 0.0, 0.0, 0.0, 5.90850689148413e-07, 0.0, 0.0, 0.0, 0.0, 0.0, 0.0, 4.928968369372535e-07, 4.766387667117814e-31, 0.0, 0.0, 0.0, 0.0, -4.766387667117814e-31, 4.928968369372535e-07, 0.0, 0.0, 0.0, 0.0, 0.0, 0.0, 9.451375730742409e-07]
twist: 
  twist: 
    linear: 
      x: 0.0
      y: 0.0
      z: 0.0
    angular: 
      x: 0.0
      y: 0.0
      z: 0.000126297436488
  covariance: [9.999996208568863e-10, 0.0, 0.0, 0.0, 0.0, 0.0, 0.0, 6887.650130603511, 0.0, 0.0, 0.0, 0.0, 0.0, 0.0, 5.303757612355499e-07, 0.0, 0.0, 0.0, 0.0, 0.0, 0.0, 3.965376317082441e-07, 1.1067069954621538e-34, 0.0, 0.0, 0.0, 0.0, -1.1067069954621538e-34, 3.965376317082441e-07, 0.0, 0.0, 0.0, 0.0, 0.0, 0.0, 9.968425624990883e-10]
---
header: 
  seq: 1275
  stamp: 
    secs: 1518209590
    nsecs:  12454033
  frame_id: "swarmone/odom"
child_frame_id: "swarmone/base_link"
pose: 
  pose: 
    position: 
      x: 0.0
      y: 0.0
      z: 0.0
    orientation: 
      x: 0.0
      y: 0.0
      z: 0.692537232352
      w: 0.721382132996
  covariance: [16808224.50454099, -604500.9500355197, 0.0, 0.0, 0.0, 0.0, -604500.9500355193, 21747.057716667317, 0.0, 0.0, 0.0, 0.0, 0.0, 0.0, 5.955848231178992e-07, 0.0, 0.0, 0.0, 0.0, 0.0, 0.0, 4.965492922267472e-07, 5.6332653131150575e-31, 0.0, 0.0, 0.0, 0.0, -5.6332653131150575e-31, 4.965492922267472e-07, 0.0, 0.0, 0.0, 0.0, 0.0, 0.0, 9.737478025690599e-07]
twist: 
  twist: 
    linear: 
      x: 0.0
      y: 0.0
      z: 0.0
    angular: 
      x: 0.0
      y: 0.0
      z: 0.000122605578698
  covariance: [9.999996271171112e-10, 0.0, 0.0, 0.0, 0.0, 0.0, 0.0, 6903.990224502164, 0.0, 0.0, 0.0, 0.0, 0.0, 0.0, 5.345452270643222e-07, 0.0, 0.0, 0.0, 0.0, 0.0, 0.0, 3.9827055137877505e-07, 3.8287879934518955e-35, 0.0, 0.0, 0.0, 0.0, -3.8287879934518955e-35, 3.9827055137877505e-07, 0.0, 0.0, 0.0, 0.0, 0.0, 0.0, 9.969348590145623e-10]
---
header: 
  seq: 1276
  stamp: 
    secs: 1518209590
    nsecs: 112189531
  frame_id: "swarmone/odom"
child_frame_id: "swarmone/base_link"
pose: 
  pose: 
    position: 
      x: 0.0
      y: 0.0
      z: 0.0
    orientation: 
      x: 0.0
      y: 0.0
      z: 0.692537228315
      w: 0.721382136872
  covariance: [16874056.786663376, -607028.5695528246, 0.0, 0.0, 0.0, 0.0, -607028.5695528245, 21843.723595048792, 0.0, 0.0, 0.0, 0.0, 0.0, 0.0, 5.93231520882421e-07, 0.0, 0.0, 0.0, 0.0, 0.0, 0.0, 4.947296366628635e-07, -2.9203619875029204e-32, 0.0, 0.0, 0.0, 0.0, 2.9203619875029204e-32, 4.947296366628635e-07, 0.0, 0.0, 0.0, 0.0, 0.0, 0.0, 9.594426878214272e-07]
twist: 
  twist: 
    linear: 
      x: 0.0
      y: 0.0
      z: 0.0
    angular: 
      x: 0.0
      y: 0.0
      z: 0.000124424127735
  covariance: [9.999996234543393e-10, 0.0, 0.0, 0.0, 0.0, 0.0, 0.0, 6920.20597168178, 0.0, 0.0, 0.0, 0.0, 0.0, 0.0, 5.324697715916039e-07, 0.0, 0.0, 0.0, 0.0, 0.0, 0.0, 3.974052161709973e-07, -8.573162848066735e-36, 0.0, 0.0, 0.0, 0.0, 8.573162848066735e-36, 3.974052161709973e-07, 0.0, 0.0, 0.0, 0.0, 0.0, 0.0, 9.968893952517422e-10]
---
header: 
  seq: 1277
  stamp: 
    secs: 1518209590
    nsecs: 212038040
  frame_id: "swarmone/odom"
child_frame_id: "swarmone/base_link"
pose: 
  pose: 
    position: 
      x: 0.0
      y: 0.0
      z: 0.0
    orientation: 
      x: 0.0
      y: 0.0
      z: 0.692537224875
      w: 0.721382140174
  covariance: [16940170.15852784, -609567.3160331363, 0.0, 0.0, 0.0, 0.0, -609567.3160331362, 21940.829509869713, 0.0, 0.0, 0.0, 0.0, 0.0, 0.0, 5.908507425195382e-07, 0.0, 0.0, 0.0, 0.0, 0.0, 0.0, 4.928970007866377e-07, 3.793694863763678e-31, 0.0, 0.0, 0.0, 0.0, -3.793694863763678e-31, 4.928970007866377e-07, 0.0, 0.0, 0.0, 0.0, 0.0, 0.0, 9.451375730755153e-07]
twist: 
  twist: 
    linear: 
      x: 0.0
      y: 0.0
      z: 0.0
    angular: 
      x: 0.0
      y: 0.0
      z: 0.000126297436977
  covariance: [9.999996239063123e-10, 0.0, 0.0, 0.0, 0.0, 0.0, 0.0, 6936.465511324799, 0.0, 0.0, 0.0, 0.0, 0.0, 0.0, 5.303758666856e-07, 0.0, 0.0, 0.0, 0.0, 0.0, 0.0, 3.9653832719345496e-07, 3.809342215081423e-35, 0.0, 0.0, 0.0, 0.0, -3.809342215081423e-35, 3.9653832719345496e-07, 0.0, 0.0, 0.0, 0.0, 0.0, 0.0, 9.968425624991263e-10]
---
header: 
  seq: 1278
  stamp: 
    secs: 1518209590
    nsecs: 312007666
  frame_id: "swarmone/odom"
child_frame_id: "swarmone/base_link"
pose: 
  pose: 
    position: 
      x: 0.0
      y: 0.0
      z: 0.0
    orientation: 
      x: 0.0
      y: 0.0
      z: 0.692537170877
      w: 0.721382192013
  covariance: [17006571.200668424, -612117.4444659554, 0.0, 0.0, 0.0, 0.0, -612117.4444659551, 22038.38531447807, 0.0, 0.0, 0.0, 0.0, 0.0, 0.0, 5.932315370650796e-07, 0.0, 0.0, 0.0, 0.0, 0.0, 0.0, 4.947296458363694e-07, -2.755891590837074e-31, 0.0, 0.0, 0.0, 0.0, 2.755891590837074e-31, 4.947296458363694e-07, 0.0, 0.0, 0.0, 0.0, 0.0, 0.0, 9.594426878218179e-07]
twist: 
  twist: 
    linear: 
      x: 0.0
      y: 0.0
      z: 0.0
    angular: 
      x: 0.0
      y: 0.0
      z: 9.33180959633e-05
  covariance: [9.99999624389713e-10, 0.0, 0.0, 0.0, 0.0, 0.0, 0.0, 6952.770272856902, 0.0, 0.0, 0.0, 0.0, 0.0, 0.0, 5.324698036508334e-07, 0.0, 0.0, 0.0, 0.0, 0.0, 0.0, 3.974054288680501e-07, 2.8600555455268662e-37, 0.0, 0.0, 0.0, 0.0, -2.8600555455268662e-37, 3.974054288680501e-07, 0.0, 0.0, 0.0, 0.0, 0.0, 0.0, 9.968893952517534e-10]
---
header: 
  seq: 1279
  stamp: 
    secs: 1518209590
    nsecs: 412026167
  frame_id: "swarmone/odom"
child_frame_id: "swarmone/base_link"
pose: 
  pose: 
    position: 
      x: 0.0
      y: 0.0
      z: 0.0
    orientation: 
      x: 0.0
      y: 0.0
      z: 0.692537252393
      w: 0.721382113756
  covariance: [17073212.94710372, -614677.1578419948, 0.0, 0.0, 0.0, 0.0, -614677.1578419949, 22136.32251004973, 0.0, 0.0, 0.0, 0.0, 0.0, 0.0, 6.091516107022842e-07, 0.0, 0.0, 0.0, 0.0, 0.0, 0.0, 5.071965676593308e-07, -2.311028883601352e-31, 0.0, 0.0, 0.0, 0.0, 2.311028883601352e-31, 5.071965676593308e-07, 0.0, 0.0, 0.0, 0.0, 0.0, 0.0, 1.0595784910446092e-06]
twist: 
  twist: 
    linear: 
      x: 0.0
      y: 0.0
      z: 0.0
    angular: 
      x: 0.0
      y: 0.0
      z: 0.000112720613182
  covariance: [9.999996245844957e-10, 0.0, 0.0, 0.0, 0.0, 0.0, 0.0, 6969.108559048139, 0.0, 0.0, 0.0, 0.0, 0.0, 0.0, 5.466202488763011e-07, 0.0, 0.0, 0.0, 0.0, 0.0, 0.0, 4.034053532193009e-07, -2.956574707958806e-35, 0.0, 0.0, 0.0, 0.0, 2.956574707958806e-35, 4.034053532193009e-07, 0.0, 0.0, 0.0, 0.0, 0.0, 0.0, 9.97181983264743e-10]
---
header: 
  seq: 1280
  stamp: 
    secs: 1518209590
    nsecs: 512464762
  frame_id: "swarmone/odom"
child_frame_id: "swarmone/base_link"
pose: 
  pose: 
    position: 
      x: 0.0
      y: 0.0
      z: 0.0
    orientation: 
      x: 0.0
      y: 0.0
      z: 0.692537228315
      w: 0.721382136872
  covariance: [17140344.699040107, -617256.0228018496, 0.0, 0.0, 0.0, 0.0, -617256.0228018498, 22235.006854997126, 0.0, 0.0, 0.0, 0.0, 0.0, 0.0, 5.932315692849269e-07, 0.0, 0.0, 0.0, 0.0, 0.0, 0.0, 4.947297860111844e-07, 7.886649189117494e-31, 0.0, 0.0, 0.0, 0.0, -7.886649189117494e-31, 4.947297860111844e-07, 0.0, 0.0, 0.0, 0.0, 0.0, 0.0, 9.594426878225995e-07]
twist: 
  twist: 
    linear: 
      x: 0.0
      y: 0.0
      z: 0.0
    angular: 
      x: 0.0
      y: 0.0
      z: 0.000124424128153
  covariance: [9.999996262509435e-10, 0.0, 0.0, 0.0, 0.0, 0.0, 0.0, 6985.541209433346, 0.0, 0.0, 0.0, 0.0, 0.0, 0.0, 5.324698675016663e-07, 0.0, 0.0, 0.0, 0.0, 0.0, 0.0, 3.974058528622836e-07, 1.9738488060338922e-35, 0.0, 0.0, 0.0, 0.0, -1.9738488060338933e-35, 3.974058528622836e-07, 0.0, 0.0, 0.0, 0.0, 0.0, 0.0, 9.968893952517762e-10]
---
header: 
  seq: 1281
  stamp: 
    secs: 1518209590
    nsecs: 612187862
  frame_id: "swarmone/odom"
child_frame_id: "swarmone/base_link"
pose: 
  pose: 
    position: 
      x: 0.0
      y: 0.0
      z: 0.0
    orientation: 
      x: 0.0
      y: 0.0
      z: 0.692537228315
      w: 0.721382136872
  covariance: [17207207.008740753, -619824.8746388294, 0.0, 0.0, 0.0, 0.0, -619824.8746388296, 22333.32263193458, 0.0, 0.0, 0.0, 0.0, 0.0, 0.0, 5.932315200203456e-07, 0.0, 0.0, 0.0, 0.0, 0.0, 0.0, 4.947296339988023e-07, -7.5837650002281445e-31, 0.0, 0.0, 0.0, 0.0, 7.5837650002281445e-31, 4.947296339988023e-07, 0.0, 0.0, 0.0, 0.0, 0.0, 0.0, 9.59442687821406e-07]
twist: 
  twist: 
    linear: 
      x: 0.0
      y: 0.0
      z: 0.0
    angular: 
      x: 0.0
      y: 0.0
      z: 0.00012442412773
  covariance: [9.999996234046971e-10, 0.0, 0.0, 0.0, 0.0, 0.0, 0.0, 7001.882338313056, 0.0, 0.0, 0.0, 0.0, 0.0, 0.0, 5.324697698818433e-07, 0.0, 0.0, 0.0, 0.0, 0.0, 0.0, 3.974052047930329e-07, 4.825666738112103e-35, 0.0, 0.0, 0.0, 0.0, -4.82566673811209e-35, 3.974052047930329e-07, 0.0, 0.0, 0.0, 0.0, 0.0, 0.0, 9.968893952517414e-10]
---
header: 
  seq: 1282
  stamp: 
    secs: 1518209590
    nsecs: 712723732
  frame_id: "swarmone/odom"
child_frame_id: "swarmone/base_link"
pose: 
  pose: 
    position: 
      x: 0.0
      y: 0.0
      z: 0.0
    orientation: 
      x: 0.0
      y: 0.0
      z: 0.692537235195
      w: 0.721382130267
  covariance: [17274825.34681313, -622423.1113984113, 0.0, 0.0, 0.0, 0.0, -622423.1113984117, 22432.777690509894, 0.0, 0.0, 0.0, 0.0, 0.0, 0.0, 5.979109825002783e-07, 0.0, 0.0, 0.0, 0.0, 0.0, 0.0, 4.983556703205775e-07, 7.572722701107269e-31, 0.0, 0.0, 0.0, 0.0, -7.572722701107269e-31, 4.983556703205775e-07, 0.0, 0.0, 0.0, 0.0, 0.0, 0.0, 9.880529173149594e-07]
twist: 
  twist: 
    linear: 
      x: 0.0
      y: 0.0
      z: 0.0
    angular: 
      x: 0.0
      y: 0.0
      z: 0.000120839422113
  covariance: [9.999996266349419e-10, 0.0, 0.0, 0.0, 0.0, 0.0, 0.0, 7018.382432216681, 0.0, 0.0, 0.0, 0.0, 0.0, 0.0, 5.366021977069893e-07, 0.0, 0.0, 0.0, 0.0, 0.0, 0.0, 3.9913246741682333e-07, 9.801125797971671e-36, 0.0, 0.0, 0.0, 0.0, -9.801125797971671e-36, 3.9913246741682333e-07, 0.0, 0.0, 0.0, 0.0, 0.0, 0.0, 9.969790129491594e-10]
---
header: 
  seq: 1283
  stamp: 
    secs: 1518209590
    nsecs: 812187672
  frame_id: "swarmone/odom"
child_frame_id: "swarmone/base_link"
pose: 
  pose: 
    position: 
      x: 0.0
      y: 0.0
      z: 0.0
    orientation: 
      x: 0.0
      y: 0.0
      z: 0.692537221436
      w: 0.721382143476
  covariance: [17341931.77803704, -625002.0118560771, 0.0, 0.0, 0.0, 0.0, -625002.0118560777, 22531.50705670104, 0.0, 0.0, 0.0, 0.0, 0.0, 0.0, 5.884418958025504e-07, 0.0, 0.0, 0.0, 0.0, 0.0, 0.0, 4.910509144244993e-07, -5.34300724865508e-32, 0.0, 0.0, 0.0, 0.0, 5.34300724865508e-32, 4.910509144244993e-07, 0.0, 0.0, 0.0, 0.0, 0.0, 0.0, 9.308324583287699e-07]
twist: 
  twist: 
    linear: 
      x: 0.0
      y: 0.0
      z: 0.0
    angular: 
      x: 0.0
      y: 0.0
      z: 0.000128228016621
  covariance: [9.999996223636614e-10, 0.0, 0.0, 0.0, 0.0, 0.0, 0.0, 7034.732091970473, 0.0, 0.0, 0.0, 0.0, 0.0, 0.0, 5.282630520559906e-07, 0.0, 0.0, 0.0, 0.0, 0.0, 0.0, 3.956684841694429e-07, -2.827070134877891e-35, 0.0, 0.0, 0.0, 0.0, 2.827070134877891e-35, 3.956684841694429e-07, 0.0, 0.0, 0.0, 0.0, 0.0, 0.0, 9.967942979775928e-10]
---
header: 
  seq: 1284
  stamp: 
    secs: 1518209590
    nsecs: 911956310
  frame_id: "swarmone/odom"
child_frame_id: "swarmone/base_link"
pose: 
  pose: 
    position: 
      x: 0.0
      y: 0.0
      z: 0.0
    orientation: 
      x: 0.0
      y: 0.0
      z: 0.696135466674
      w: 0.717910448482
  covariance: [17409453.16342148, -627597.1403070404, 0.0, 0.0, 0.0, 0.0, -627597.1403070412, 22630.870371451296, 0.0, 0.0, 0.0, 0.0, 0.0, 0.0, 5.932315231701175e-07, 0.0, 0.0, 0.0, 0.0, 0.0, 0.0, 4.947296437650664e-07, 1.3395891986738338e-31, 0.0, 0.0, 0.0, 0.0, -1.3395891986738338e-31, 4.947296437650664e-07, 0.0, 0.0, 0.0, 0.0, 0.0, 0.0, 9.594426878214816e-07]
twist: 
  twist: 
    linear: 
      x: 0.0
      y: 0.0
      z: 0.0
    angular: 
      x: 0.0
      y: 0.0
      z: 0.000124424127764
  covariance: [9.999996235867716e-10, 0.0, 0.0, 0.0, 0.0, 0.0, 0.0, 7051.15732995907, 0.0, 0.0, 0.0, 0.0, 0.0, 0.0, 5.324697761190197e-07, 0.0, 0.0, 0.0, 0.0, 0.0, 0.0, 3.97405246123748e-07, -2.3902728462901142e-35, 0.0, 0.0, 0.0, 0.0, 2.3902728462901142e-35, 3.97405246123748e-07, 0.0, 0.0, 0.0, 0.0, 0.0, 0.0, 9.968893952517435e-10]
---
header: 
  seq: 1285
  stamp: 
    secs: 1518209591
    nsecs:  12409925
  frame_id: "swarmone/odom"
child_frame_id: "swarmone/base_link"
pose: 
  pose: 
    position: 
      x: 0.0
      y: 0.0
      z: 0.0
    orientation: 
      x: 0.0
      y: 0.0
      z: 0.692537249552
      w: 0.721382116484
  covariance: [17477674.926946722, -629877.733664368, 0.0, 0.0, 0.0, 0.0, -629877.7336643689, 22706.644629315986, 0.0, 0.0, 0.0, 0.0, 0.0, 0.0, 6.069540671145644e-07, 0.0, 0.0, 0.0, 0.0, 0.0, 0.0, 5.05453473329164e-07, -1.7536593982449322e-31, 0.0, 0.0, 0.0, 0.0, 1.7536593982449322e-31, 5.05453473329164e-07, 0.0, 0.0, 0.0, 0.0, 0.0, 0.0, 1.0452733762992294e-06]
twist: 
  twist: 
    linear: 
      x: 0.0
      y: 0.0
      z: 0.0
    angular: 
      x: 0.0
      y: 0.0
      z: 0.000114255910229
  covariance: [9.99999626310146e-10, 0.0, 0.0, 0.0, 0.0, 0.0, 0.0, 7067.721152970732, 0.0, 0.0, 0.0, 0.0, 0.0, 0.0, 5.44651484234537e-07, 0.0, 0.0, 0.0, 0.0, 0.0, 0.0, 4.025559388345695e-07, -4.832447620022343e-35, 0.0, 0.0, 0.0, 0.0, 4.832447620022343e-35, 4.025559388345695e-07, 0.0, 0.0, 0.0, 0.0, 0.0, 0.0, 9.971436008267069e-10]
---
header: 
  seq: 1286
  stamp: 
    secs: 1518209591
    nsecs: 112163305
  frame_id: "swarmone/odom"
child_frame_id: "swarmone/base_link"
pose: 
  pose: 
    position: 
      x: 0.0
      y: 0.0
      z: 0.0
    orientation: 
      x: 0.0
      y: 0.0
      z: 0.692537228315
      w: 0.721382136872
  covariance: [17545608.26057757, -632488.7119404889, 0.0, 0.0, 0.0, 0.0, -632488.7119404897, 22806.615017046202, 0.0, 0.0, 0.0, 0.0, 0.0, 0.0, 5.932315221347109e-07, 0.0, 0.0, 0.0, 0.0, 0.0, 0.0, 4.947296405490392e-07, 3.324281040352418e-31, 0.0, 0.0, 0.0, 0.0, -3.324281040352418e-31, 4.947296405490392e-07, 0.0, 0.0, 0.0, 0.0, 0.0, 0.0, 9.594426878214591e-07]
twist: 
  twist: 
    linear: 
      x: 0.0
      y: 0.0
      z: 0.0
    angular: 
      x: 0.0
      y: 0.0
      z: 0.000124424127733
  covariance: [9.999996235258994e-10, 0.0, 0.0, 0.0, 0.0, 0.0, 0.0, 7084.1951670935705, 0.0, 0.0, 0.0, 0.0, 0.0, 0.0, 5.324697740814031e-07, 0.0, 0.0, 0.0, 0.0, 0.0, 0.0, 3.974052328532736e-07, 5.778014374137466e-35, 0.0, 0.0, 0.0, 0.0, -5.778014374137466e-35, 3.974052328532736e-07, 0.0, 0.0, 0.0, 0.0, 0.0, 0.0, 9.968893952517429e-10]
---
header: 
  seq: 1287
  stamp: 
    secs: 1518209591
    nsecs: 212021112
  frame_id: "swarmone/odom"
child_frame_id: "swarmone/base_link"
pose: 
  pose: 
    position: 
      x: 0.0
      y: 0.0
      z: 0.0
    orientation: 
      x: 0.0
      y: 0.0
      z: 0.692537228315
      w: 0.721382136872
  covariance: [17613824.14766964, -635110.8889419917, 0.0, 0.0, 0.0, 0.0, -635110.8889419924, 22907.02884494714, 0.0, 0.0, 0.0, 0.0, 0.0, 0.0, 5.93231529345897e-07, 0.0, 0.0, 0.0, 0.0, 0.0, 0.0, 4.947296627680242e-07, -8.13740850014972e-32, 0.0, 0.0, 0.0, 0.0, 8.13740850014972e-32, 4.947296627680242e-07, 0.0, 0.0, 0.0, 0.0, 0.0, 0.0, 9.594426878216315e-07]
twist: 
  twist: 
    linear: 
      x: 0.0
      y: 0.0
      z: 0.0
    angular: 
      x: 0.0
      y: 0.0
      z: 0.000124424127813
  covariance: [9.999996239434345e-10, 0.0, 0.0, 0.0, 0.0, 0.0, 0.0, 7100.71205065334, 0.0, 0.0, 0.0, 0.0, 0.0, 0.0, 5.324697883585474e-07, 0.0, 0.0, 0.0, 0.0, 0.0, 0.0, 3.974053274124879e-07, 1.9967024307423024e-35, 0.0, 0.0, 0.0, 0.0, -1.9967024307423024e-35, 3.974053274124879e-07, 0.0, 0.0, 0.0, 0.0, 0.0, 0.0, 9.968893952517482e-10]
---
header: 
  seq: 1288
  stamp: 
    secs: 1518209591
    nsecs: 312424183
  frame_id: "swarmone/odom"
child_frame_id: "swarmone/base_link"
pose: 
  pose: 
    position: 
      x: 0.0
      y: 0.0
      z: 0.0
    orientation: 
      x: 0.0
      y: 0.0
      z: 0.692537231755
      w: 0.72138213357
  covariance: [17682626.302369133, -637755.941723577, 0.0, 0.0, 0.0, 0.0, -637755.941723578, 23008.33340092123, 0.0, 0.0, 0.0, 0.0, 0.0, 0.0, 5.955848059035396e-07, 0.0, 0.0, 0.0, 0.0, 0.0, 0.0, 4.965492388913899e-07, -3.9490444526082753e-32, 0.0, 0.0, 0.0, 0.0, 3.9490444526082753e-32, 4.965492388913899e-07, 0.0, 0.0, 0.0, 0.0, 0.0, 0.0, 9.737478025686391e-07]
twist: 
  twist: 
    linear: 
      x: 0.0
      y: 0.0
      z: 0.0
    angular: 
      x: 0.0
      y: 0.0
      z: 0.000122605578541
  covariance: [9.999996261105176e-10, 0.0, 0.0, 0.0, 0.0, 0.0, 0.0, 7117.34499034733, 0.0, 0.0, 0.0, 0.0, 0.0, 0.0, 5.345451928667529e-07, 0.0, 0.0, 0.0, 0.0, 0.0, 0.0, 3.9827032308561437e-07, -3.81715664592437e-35, 0.0, 0.0, 0.0, 0.0, 3.81715664592437e-35, 3.9827032308561437e-07, 0.0, 0.0, 0.0, 0.0, 0.0, 0.0, 9.969348590145505e-10]
---
header: 
  seq: 1289
  stamp: 
    secs: 1518209591
    nsecs: 412292957
  frame_id: "swarmone/odom"
child_frame_id: "swarmone/base_link"
pose: 
  pose: 
    position: 
      x: 0.0
      y: 0.0
      z: 0.0
    orientation: 
      x: 0.0
      y: 0.0
      z: 0.692537228315
      w: 0.721382136872
  covariance: [17751275.47782013, -640395.4513403671, 0.0, 0.0, 0.0, 0.0, -640395.451340368, 23109.440291935487, 0.0, 0.0, 0.0, 0.0, 0.0, 0.0, 5.932315301067729e-07, 0.0, 0.0, 0.0, 0.0, 0.0, 0.0, 4.947296651198747e-07, -4.324877570345899e-31, 0.0, 0.0, 0.0, 0.0, 4.324877570345899e-31, 4.947296651198747e-07, 0.0, 0.0, 0.0, 0.0, 0.0, 0.0, 9.594426878216504e-07]
twist: 
  twist: 
    linear: 
      x: 0.0
      y: 0.0
      z: 0.0
    angular: 
      x: 0.0
      y: 0.0
      z: 0.000124424127817
  covariance: [9.999996239875125e-10, 0.0, 0.0, 0.0, 0.0, 0.0, 0.0, 7133.915168789193, 0.0, 0.0, 0.0, 0.0, 0.0, 0.0, 5.324697898677972e-07, 0.0, 0.0, 0.0, 0.0, 0.0, 0.0, 3.97405337459739e-07, 5.80467059674208e-35, 0.0, 0.0, 0.0, 0.0, -5.80467059674208e-35, 3.97405337459739e-07, 0.0, 0.0, 0.0, 0.0, 0.0, 0.0, 9.968893952517484e-10]
---
header: 
  seq: 1290
  stamp: 
    secs: 1518209591
    nsecs: 512179852
  frame_id: "swarmone/odom"
child_frame_id: "swarmone/base_link"
pose: 
  pose: 
    position: 
      x: 0.0
      y: 0.0
      z: 0.0
    orientation: 
      x: 0.0
      y: 0.0
      z: 0.692537224875
      w: 0.721382140174
  covariance: [17820150.24603193, -643043.9728235564, 0.0, 0.0, 0.0, 0.0, -643043.9728235574, 23210.907011190517, 0.0, 0.0, 0.0, 0.0, 0.0, 0.0, 5.908507452039339e-07, 0.0, 0.0, 0.0, 0.0, 0.0, 0.0, 4.928970090313597e-07, 2.770447344283605e-31, 0.0, 0.0, 0.0, 0.0, -2.770447344283605e-31, 4.928970090313597e-07, 0.0, 0.0, 0.0, 0.0, 0.0, 0.0, 9.451375730755795e-07]
twist: 
  twist: 
    linear: 
      x: 0.0
      y: 0.0
      z: 0.0
    angular: 
      x: 0.0
      y: 0.0
      z: 0.000126297437001
  covariance: [9.9999962405976e-10, 0.0, 0.0, 0.0, 0.0, 0.0, 0.0, 7150.514063076971, 0.0, 0.0, 0.0, 0.0, 0.0, 0.0, 5.30375871989668e-07, 0.0, 0.0, 0.0, 0.0, 0.0, 0.0, 3.965383621808794e-07, -6.957161477225016e-38, 0.0, 0.0, 0.0, 0.0, 6.957161477225016e-38, 3.965383621808794e-07, 0.0, 0.0, 0.0, 0.0, 0.0, 0.0, 9.968425624991282e-10]
---
header: 
  seq: 1291
  stamp: 
    secs: 1518209591
    nsecs: 612030983
  frame_id: "swarmone/odom"
child_frame_id: "swarmone/base_link"
pose: 
  pose: 
    position: 
      x: 0.0
      y: 0.0
      z: 0.0
    orientation: 
      x: 0.0
      y: 0.0
      z: 0.696135463251
      w: 0.7179104518
  covariance: [17889213.89654061, -645700.0409952268, 0.0, 0.0, 0.0, 0.0, -645700.0409952276, 23312.675623038318, 0.0, 0.0, 0.0, 0.0, 0.0, 0.0, 5.908507427002095e-07, 0.0, 0.0, 0.0, 0.0, 0.0, 0.0, 4.928970013948743e-07, 2.357903174682115e-31, 0.0, 0.0, 0.0, 0.0, -2.357903174682115e-31, 4.928970013948743e-07, 0.0, 0.0, 0.0, 0.0, 0.0, 0.0, 9.451375730755192e-07]
twist: 
  twist: 
    linear: 
      x: 0.0
      y: 0.0
      z: 0.0
    angular: 
      x: 0.0
      y: 0.0
      z: 0.000126297436982
  covariance: [9.999996239167664e-10, 0.0, 0.0, 0.0, 0.0, 0.0, 0.0, 7167.132732273512, 0.0, 0.0, 0.0, 0.0, 0.0, 0.0, 5.303758670408429e-07, 0.0, 0.0, 0.0, 0.0, 0.0, 0.0, 3.9653832950571727e-07, 4.2708506317115747e-38, 0.0, 0.0, 0.0, 0.0, -4.2708506317115747e-38, 3.9653832950571727e-07, 0.0, 0.0, 0.0, 0.0, 0.0, 0.0, 9.968425624991265e-10]
---
header: 
  seq: 1292
  stamp: 
    secs: 1518209591
    nsecs: 711960316
  frame_id: "swarmone/odom"
child_frame_id: "swarmone/base_link"
pose: 
  pose: 
    position: 
      x: 0.0
      y: 0.0
      z: 0.0
    orientation: 
      x: 0.0
      y: 0.0
      z: 0.692537225477
      w: 0.721382139596
  covariance: [17958570.734665144, -648020.2422697712, 0.0, 0.0, 0.0, 0.0, -648020.2422697722, 23389.81293709568, 0.0, 0.0, 0.0, 0.0, 0.0, 0.0, 5.90850748166579e-07, 0.0, 0.0, 0.0, 0.0, 0.0, 0.0, 4.928970181261051e-07, 3.145881499423284e-31, 0.0, 0.0, 0.0, 0.0, -3.145881499423284e-31, 4.928970181261051e-07, 0.0, 0.0, 0.0, 0.0, 0.0, 0.0, 9.451375730756499e-07]
twist: 
  twist: 
    linear: 
      x: 0.0
      y: 0.0
      z: 0.0
    angular: 
      x: 0.0
      y: 0.0
      z: 0.000126297437031
  covariance: [9.999996242289615e-10, 0.0, 0.0, 0.0, 0.0, 0.0, 0.0, 7183.790180271712, 0.0, 0.0, 0.0, 0.0, 0.0, 0.0, 5.303758778417847e-07, 0.0, 0.0, 0.0, 0.0, 0.0, 0.0, 3.965384007524197e-07, 9.671397585240525e-36, 0.0, 0.0, 0.0, 0.0, -9.671397585240525e-36, 3.965384007524197e-07, 0.0, 0.0, 0.0, 0.0, 0.0, 0.0, 9.968425624991303e-10]
---
header: 
  seq: 1293
  stamp: 
    secs: 1518209591
    nsecs: 811905622
  frame_id: "swarmone/odom"
child_frame_id: "swarmone/base_link"
pose: 
  pose: 
    position: 
      x: 0.0
      y: 0.0
      z: 0.0
    orientation: 
      x: 0.0
      y: 0.0
      z: 0.692537235195
      w: 0.721382130267
  covariance: [18028128.73314229, -650695.337441364, 0.0, 0.0, 0.0, 0.0, -650695.337441365, 23492.310689260208, 0.0, 0.0, 0.0, 0.0, 0.0, 0.0, 5.979109429062071e-07, 0.0, 0.0, 0.0, 0.0, 0.0, 0.0, 4.983555470967917e-07, 5.742191598548462e-31, 0.0, 0.0, 0.0, 0.0, -5.742191598548462e-31, 4.983555470967917e-07, 0.0, 0.0, 0.0, 0.0, 0.0, 0.0, 9.880529173139796e-07]
twist: 
  twist: 
    linear: 
      x: 0.0
      y: 0.0
      z: 0.0
    angular: 
      x: 0.0
      y: 0.0
      z: 0.000120839421763
  covariance: [9.99999624292657e-10, 0.0, 0.0, 0.0, 0.0, 0.0, 0.0, 7200.476090647828, 0.0, 0.0, 0.0, 0.0, 0.0, 0.0, 5.366021188339603e-07, 0.0, 0.0, 0.0, 0.0, 0.0, 0.0, 3.9913193761943936e-07, 9.64977048205166e-35, 0.0, 0.0, 0.0, 0.0, -9.64977048205166e-35, 3.9913193761943936e-07, 0.0, 0.0, 0.0, 0.0, 0.0, 0.0, 9.969790129491325e-10]
---
header: 
  seq: 1294
  stamp: 
    secs: 1518209591
    nsecs: 912446022
  frame_id: "swarmone/odom"
child_frame_id: "swarmone/base_link"
pose: 
  pose: 
    position: 
      x: 0.0
      y: 0.0
      z: 0.0
    orientation: 
      x: 0.0
      y: 0.0
      z: 0.692537224875
      w: 0.721382140174
  covariance: [18098318.218735278, -653395.0607370936, 0.0, 0.0, 0.0, 0.0, -653395.0607370946, 23595.76689456793, 0.0, 0.0, 0.0, 0.0, 0.0, 0.0, 5.908507905962838e-07, 0.0, 0.0, 0.0, 0.0, 0.0, 0.0, 4.928971484563802e-07, 1.0547644236134749e-32, 0.0, 0.0, 0.0, 0.0, -1.0547644236134749e-32, 4.928971484563802e-07, 0.0, 0.0, 0.0, 0.0, 0.0, 0.0, 9.451375730766647e-07]
twist: 
  twist: 
    linear: 
      x: 0.0
      y: 0.0
      z: 0.0
    angular: 
      x: 0.0
      y: 0.0
      z: 0.000126297437404
  covariance: [9.99999626652567e-10, 0.0, 0.0, 0.0, 0.0, 0.0, 0.0, 7217.287404771859, 0.0, 0.0, 0.0, 0.0, 0.0, 0.0, 5.303759616833839e-07, 0.0, 0.0, 0.0, 0.0, 0.0, 0.0, 3.965389538947036e-07, -4.833130014115631e-35, 0.0, 0.0, 0.0, 0.0, 4.833130014115631e-35, 3.965389538947036e-07, 0.0, 0.0, 0.0, 0.0, 0.0, 0.0, 9.968425624991604e-10]
---
header: 
  seq: 1295
  stamp: 
    secs: 1518209592
    nsecs:  12417078
  frame_id: "swarmone/odom"
child_frame_id: "swarmone/base_link"
pose: 
  pose: 
    position: 
      x: 0.0
      y: 0.0
      z: 0.0
    orientation: 
      x: 0.0
      y: 0.0
      z: 0.692537224875
      w: 0.721382140174
  covariance: [18168326.858500093, -656088.1703609963, 0.0, 0.0, 0.0, 0.0, -656088.1703609973, 23698.984457484654, 0.0, 0.0, 0.0, 0.0, 0.0, 0.0, 5.908507510795886e-07, 0.0, 0.0, 0.0, 0.0, 0.0, 0.0, 4.928970270729866e-07, 2.7650474638375006e-31, 0.0, 0.0, 0.0, 0.0, -2.7650474638375006e-31, 4.928970270729866e-07, 0.0, 0.0, 0.0, 0.0, 0.0, 0.0, 9.451375730757195e-07]
twist: 
  twist: 
    linear: 
      x: 0.0
      y: 0.0
      z: 0.0
    angular: 
      x: 0.0
      y: 0.0
      z: 0.000126297437057
  covariance: [9.999996243958268e-10, 0.0, 0.0, 0.0, 0.0, 0.0, 0.0, 7234.029447812072, 0.0, 0.0, 0.0, 0.0, 0.0, 0.0, 5.303758835975702e-07, 0.0, 0.0, 0.0, 0.0, 0.0, 0.0, 3.9653843871962747e-07, -9.618810840630008e-35, 0.0, 0.0, 0.0, 0.0, 9.618810840630008e-35, 3.9653843871962747e-07, 0.0, 0.0, 0.0, 0.0, 0.0, 0.0, 9.968425624991325e-10]
---
header: 
  seq: 1296
  stamp: 
    secs: 1518209592
    nsecs: 112558365
  frame_id: "swarmone/odom"
child_frame_id: "swarmone/base_link"
pose: 
  pose: 
    position: 
      x: 0.0
      y: 0.0
      z: 0.0
    orientation: 
      x: 0.0
      y: 0.0
      z: 0.692537228315
      w: 0.721382136872
  covariance: [18238671.775301475, -658794.5572655348, 0.0, 0.0, 0.0, 0.0, -658794.5572655357, 23802.725658490686, 0.0, 0.0, 0.0, 0.0, 0.0, 0.0, 5.932315488861145e-07, 0.0, 0.0, 0.0, 0.0, 0.0, 0.0, 4.947297230448826e-07, 2.2214126090882684e-31, 0.0, 0.0, 0.0, 0.0, -2.2214126090882684e-31, 4.947297230448826e-07, 0.0, 0.0, 0.0, 0.0, 0.0, 0.0, 9.594426878221035e-07]
twist: 
  twist: 
    linear: 
      x: 0.0
      y: 0.0
      z: 0.0
    angular: 
      x: 0.0
      y: 0.0
      z: 0.000124424127992
  covariance: [9.999996250733725e-10, 0.0, 0.0, 0.0, 0.0, 0.0, 0.0, 7250.825940402613, 0.0, 0.0, 0.0, 0.0, 0.0, 0.0, 5.324698270718502e-07, 0.0, 0.0, 0.0, 0.0, 0.0, 0.0, 3.9740558430072775e-07, -9.633805410799126e-36, 0.0, 0.0, 0.0, 0.0, 9.633805410799126e-36, 3.9740558430072775e-07, 0.0, 0.0, 0.0, 0.0, 0.0, 0.0, 9.968893952517617e-10]
---
header: 
  seq: 1297
  stamp: 
    secs: 1518209592
    nsecs: 212418556
  frame_id: "swarmone/odom"
child_frame_id: "swarmone/base_link"
pose: 
  pose: 
    position: 
      x: 0.0
      y: 0.0
      z: 0.0
    orientation: 
      x: 0.0
      y: 0.0
      z: 0.692537228315
      w: 0.721382136872
  covariance: [18309036.073286433, -661502.0297606657, 0.0, 0.0, 0.0, 0.0, -661502.0297606665, 23906.52318082224, 0.0, 0.0, 0.0, 0.0, 0.0, 0.0, 5.932315295107245e-07, 0.0, 0.0, 0.0, 0.0, 0.0, 0.0, 4.947296632765155e-07, 1.0536888286036727e-31, 0.0, 0.0, 0.0, 0.0, -1.0536888286036727e-31, 4.947296632765155e-07, 0.0, 0.0, 0.0, 0.0, 0.0, 0.0, 9.594426878216355e-07]
twist: 
  twist: 
    linear: 
      x: 0.0
      y: 0.0
      z: 0.0
    angular: 
      x: 0.0
      y: 0.0
      z: 0.000124424127815
  covariance: [9.999996239533257e-10, 0.0, 0.0, 0.0, 0.0, 0.0, 0.0, 7267.601159407875, 0.0, 0.0, 0.0, 0.0, 0.0, 0.0, 5.3246978868512e-07, 0.0, 0.0, 0.0, 0.0, 0.0, 0.0, 3.974053295797991e-07, 5.787571028575938e-35, 0.0, 0.0, 0.0, 0.0, -5.787571028575938e-35, 3.974053295797991e-07, 0.0, 0.0, 0.0, 0.0, 0.0, 0.0, 9.96889395251748e-10]
---
header: 
  seq: 1298
  stamp: 
    secs: 1518209592
    nsecs: 312293530
  frame_id: "swarmone/odom"
child_frame_id: "swarmone/base_link"
pose: 
  pose: 
    position: 
      x: 0.0
      y: 0.0
      z: 0.0
    orientation: 
      x: 0.0
      y: 0.0
      z: 0.692537235195
      w: 0.721382130267
  covariance: [18379627.870542623, -664218.5959526814, 0.0, 0.0, 0.0, 0.0, -664218.5959526821, 24010.684038193504, 0.0, 0.0, 0.0, 0.0, 0.0, 0.0, 5.979109381625438e-07, 0.0, 0.0, 0.0, 0.0, 0.0, 0.0, 4.983555323386966e-07, -5.840084282602151e-31, 0.0, 0.0, 0.0, 0.0, 5.840084282602151e-31, 4.983555323386966e-07, 0.0, 0.0, 0.0, 0.0, 0.0, 0.0, 9.880529173138625e-07]
twist: 
  twist: 
    linear: 
      x: 0.0
      y: 0.0
      z: 0.0
    angular: 
      x: 0.0
      y: 0.0
      z: 0.000120839421718
  covariance: [9.999996240122311e-10, 0.0, 0.0, 0.0, 0.0, 0.0, 0.0, 7284.404724912352, 0.0, 0.0, 0.0, 0.0, 0.0, 0.0, 5.366021093862881e-07, 0.0, 0.0, 0.0, 0.0, 0.0, 0.0, 3.9913187419317425e-07, 1.057477793969888e-34, 0.0, 0.0, 0.0, 0.0, -1.057477793969888e-34, 3.9913187419317425e-07, 0.0, 0.0, 0.0, 0.0, 0.0, 0.0, 9.969790129491294e-10]
---
header: 
  seq: 1299
  stamp: 
    secs: 1518209592
    nsecs: 412921429
  frame_id: "swarmone/odom"
child_frame_id: "swarmone/base_link"
pose: 
  pose: 
    position: 
      x: 0.0
      y: 0.0
      z: 0.0
    orientation: 
      x: 0.0
      y: 0.0
      z: 0.696135466679
      w: 0.717910448477
  covariance: [18450971.910800252, -666964.3970371233, 0.0, 0.0, 0.0, 0.0, -666964.3970371238, 24115.978768609075, 0.0, 0.0, 0.0, 0.0, 0.0, 0.0, 5.932315821843416e-07, 0.0, 0.0, 0.0, 0.0, 0.0, 0.0, 4.947298258415694e-07, 4.474577943256557e-31, 0.0, 0.0, 0.0, 0.0, -4.474577943256557e-31, 4.947298258415694e-07, 0.0, 0.0, 0.0, 0.0, 0.0, 0.0, 9.594426878229097e-07]
twist: 
  twist: 
    linear: 
      x: 0.0
      y: 0.0
      z: 0.0
    angular: 
      x: 0.0
      y: 0.0
      z: 0.000124424128282
  covariance: [9.999996269974527e-10, 0.0, 0.0, 0.0, 0.0, 0.0, 0.0, 7301.3611458320565, 0.0, 0.0, 0.0, 0.0, 0.0, 0.0, 5.324698930507586e-07, 0.0, 0.0, 0.0, 0.0, 0.0, 0.0, 3.974060222606922e-07, -9.799379515575262e-36, 0.0, 0.0, 0.0, 0.0, 9.799379515575262e-36, 3.974060222606922e-07, 0.0, 0.0, 0.0, 0.0, 0.0, 0.0, 9.96889395251785e-10]
---
header: 
  seq: 1300
  stamp: 
    secs: 1518209592
    nsecs: 512798071
  frame_id: "swarmone/odom"
child_frame_id: "swarmone/base_link"
pose: 
  pose: 
    position: 
      x: 0.0
      y: 0.0
      z: 0.0
    orientation: 
      x: 0.0
      y: 0.0
      z: 0.688921619459
      w: 0.724835845031
  covariance: [18522027.706950977, -669343.5151459824, 0.0, 0.0, 0.0, 0.0, -669343.5151459828, 24195.134364349073, 0.0, 0.0, 0.0, 0.0, 0.0, 0.0, 5.932315306478192e-07, 0.0, 0.0, 0.0, 0.0, 0.0, 0.0, 4.947296259877322e-07, -1.569954473126503e-31, 0.0, 0.0, 0.0, 0.0, 1.569954473126503e-31, 4.947296259877322e-07, 0.0, 0.0, 0.0, 0.0, 0.0, 0.0, 9.59442687821663e-07]
twist: 
  twist: 
    linear: 
      x: 0.0
      y: 0.0
      z: 0.0
    angular: 
      x: 0.0
      y: 0.0
      z: 9.33180959172e-05
  covariance: [9.999996240193147e-10, 0.0, 0.0, 0.0, 0.0, 0.0, 0.0, 7318.216978747327, 0.0, 0.0, 0.0, 0.0, 0.0, 0.0, 5.324697909380449e-07, 0.0, 0.0, 0.0, 0.0, 0.0, 0.0, 3.97405344531247e-07, -1.048177938771449e-34, 0.0, 0.0, 0.0, 0.0, 1.048177938771449e-34, 3.97405344531247e-07, 0.0, 0.0, 0.0, 0.0, 0.0, 0.0, 9.968893952517489e-10]
---
header: 
  seq: 1301
  stamp: 
    secs: 1518209592
    nsecs: 612744093
  frame_id: "swarmone/odom"
child_frame_id: "swarmone/base_link"
pose: 
  pose: 
    position: 
      x: 0.0
      y: 0.0
      z: 0.0
    orientation: 
      x: 0.0
      y: 0.0
      z: 0.706826482832
      w: 0.707386968474
  covariance: [18593293.66932142, -672442.1236033743, 0.0, 0.0, 0.0, 0.0, -672442.1236033749, 24326.05319772889, 0.0, 0.0, 0.0, 0.0, 0.0, 0.0, 8.578745532668012e-07, 0.0, 0.0, 0.0, 0.0, 0.0, 0.0, 7.656960217066683e-07, 8.122724912912995e-33, 0.0, 0.0, 0.0, 0.0, -8.122724912912995e-33, 7.656960217066683e-07, 0.0, 0.0, 0.0, 0.0, 0.0, 0.0, 5.537079406579906e-06]
twist: 
  twist: 
