header: 
  seq: 1886
  stamp: 
    secs: 1518209651
    nsecs: 112530708
  frame_id: "swarmone/odom"
child_frame_id: "swarmone/base_link"
pose: 
  pose: 
    position: 
      x: 0.10745275231
      y: 0.999473251246
      z: 0.0
    orientation: 
      x: 0.0
      y: 0.0
      z: 0.655617661412
      w: 0.755093028736
  covariance: [117698341.2900167, -10932181.98655669, 0.0, 0.0, 0.0, 2.0370370319528638e-30, -10932181.98655672, 1024572.50927065, 0.0, 0.0, 0.0, -2.761864614186164e-31, 0.0, 0.0, 5.955848078513468e-07, 7.554055989002922e-36, 8.29799188111852e-29, 0.0, 0.0, 0.0, 7.554055989002926e-36, 4.965492439854165e-07, 1.0316590335563236e-30, 0.0, 0.0, 0.0, 8.29799188111852e-29, -1.0316590335563236e-30, 4.965492439854165e-07, 0.0, 2.037037031952864e-30, -2.761864614186164e-31, 0.0, 0.0, 0.0, 9.737478025687367e-07]
twist: 
  twist: 
    linear: 
      x: -1.8796501344e-23
      y: 0.0
      z: 0.0
    angular: 
      x: 0.0
      y: 0.0
      z: 0.000122605578429
  covariance: [9.99999626212086e-10, 0.0, 0.0, 0.0, 0.0, 0.0, 0.0, 22348.65815883698, 0.0, 0.0, 0.0, 0.0, 0.0, 0.0, 5.345451969311047e-07, 1.5136499358515522e-39, 2.1451615170886234e-40, 0.0, 0.0, 0.0, 1.5136499358515516e-39, 3.9827035520931666e-07, 1.5300875977389246e-34, 0.0, 0.0, 0.0, 2.1451615170886246e-40, -1.5300875977389246e-34, 3.9827035520931666e-07, 0.0, 0.0, 0.0, 0.0, 0.0, 0.0, 9.969348590145515e-10]
---
header: 
  seq: 1887
  stamp: 
    secs: 1518209651
    nsecs: 212796450
  frame_id: "swarmone/odom"
child_frame_id: "swarmone/base_link"
pose: 
  pose: 
    position: 
      x: 0.10745275231
      y: 0.999473251246
      z: 0.0
    orientation: 
      x: 0.0
      y: 0.0
      z: 0.663135683376
      w: 0.748499208706
  covariance: [118010386.57654704, -10969128.781366084, 0.0, 0.0, 0.0, 1.1366625097714175e-30, -10969128.781366114, 1028777.2741499549, 0.0, 0.0, 0.0, -1.4567583819486036e-31, 0.0, 0.0, 5.955847966103669e-07, 6.081301137385861e-36, 7.774716797586807e-29, 0.0, 0.0, 0.0, 6.081301137385861e-36, 4.965492090395698e-07, -5.450711888353249e-31, 0.0, 0.0, 0.0, 7.774716797586806e-29, 5.450711888353249e-31, 4.965492090395698e-07, 0.0, 1.1366625097714177e-30, -1.456758381948604e-31, 0.0, 0.0, 0.0, 9.737478025684121e-07]
twist: 
  twist: 
    linear: 
      x: -1.76418291511e-23
      y: 0.0
      z: 0.0
    angular: 
      x: 0.0
      y: 0.0
      z: 0.000122605578456
  covariance: [9.999996255671433e-10, 0.0, 0.0, 0.0, 0.0, 0.0, 0.0, 22384.32528207473, 0.0, 0.0, 0.0, 0.0, 0.0, 0.0, 5.34545174405987e-07, 1.4200613103963859e-39, 1.7238046065458467e-40, 0.0, 0.0, 0.0, 1.4200613103963857e-39, 3.9827019986151267e-07, -1.1426113975937795e-34, 0.0, 0.0, 0.0, 1.7238046065458467e-40, 1.1426113975937795e-34, 3.9827019986151267e-07, 0.0, 0.0, 0.0, 0.0, 0.0, 0.0, 9.969348590145439e-10]
---
header: 
  seq: 1888
  stamp: 
    secs: 1518209651
    nsecs: 312246799
  frame_id: "swarmone/odom"
child_frame_id: "swarmone/base_link"
pose: 
  pose: 
    position: 
      x: 0.10745275231
      y: 0.999473251246
      z: 0.0
    orientation: 
      x: 0.0
      y: 0.0
      z: 0.65938567562
      w: 0.751804848872
  covariance: [118321365.90152195, -11002795.573919004, 0.0, 0.0, 0.0, 3.255163394451486e-30, -11002795.573919037, 1032368.4288417533, 0.0, 0.0, 0.0, -4.246210180246175e-31, 0.0, 0.0, 8.183598325971378e-07, 2.6429839905603535e-35, 7.588609708027971e-29, 0.0, 0.0, 0.0, 2.6429839905603524e-35, 7.145006456341361e-07, 6.220260877899469e-31, 0.0, 0.0, 0.0, 7.588609708027969e-29, -6.220260877899469e-31, 7.145006456341361e-07, 0.0, 3.255163394451487e-30, -4.246210180246175e-31, 0.0, 0.0, 0.0, 4.00643212874303e-06]
twist: 
  twist: 
    linear: 
      x: -1.65663547658e-23
      y: 0.0
      z: 0.0
    angular: 
      x: 0.0
      y: 0.0
      z: 2.99144883927e-05
  covariance: [9.999996223087213e-10, 0.0, 0.0, 0.0, 0.0, 0.0, 0.0, 22419.739818785718, 0.0, 0.0, 0.0, 0.0, 0.0, 0.0, 7.602047975512463e-07, 9.26427587380102e-39, 1.2187359217954444e-39, 0.0, 0.0, 0.0, 9.264275873801022e-39, 5.386008166490024e-07, 1.274741859283594e-33, 0.0, 0.0, 0.0, 1.2187359217954448e-39, -1.274741859283594e-33, 5.386008166490024e-07, 0.0, 0.0, 0.0, 0.0, 0.0, 0.0, 9.992521374150867e-10]
---
header: 
  seq: 1889
  stamp: 
    secs: 1518209651
    nsecs: 412006855
  frame_id: "swarmone/odom"
child_frame_id: "swarmone/base_link"
pose: 
  pose: 
    position: 
      x: 0.10745275231
      y: 0.999473251246
      z: 0.0
    orientation: 
      x: 0.0
      y: 0.0
      z: 0.655617661416
      w: 0.755093028732
  covariance: [118633577.2718943, -11038187.892722707, 0.0, 0.0, 0.0, 2.0296695974083377e-30, -11038187.892722743, 1036277.2518370284, 0.0, 0.0, 0.0, -2.7374938152685333e-31, 0.0, 0.0, 5.955847624165e-07, 6.206166967076344e-36, 6.81782056396349e-29, 0.0, 0.0, 0.0, 6.206166967076346e-36, 4.965491034145801e-07, 1.2238937076997015e-30, 0.0, 0.0, 0.0, 6.817820563963492e-29, -1.2238937076997015e-30, 4.965491034145801e-07, 0.0, 2.0296695974083374e-30, -2.7374938152685333e-31, 0.0, 0.0, 0.0, 9.737478025676542e-07]
twist: 
  twist: 
    linear: 
      x: -1.55534837411e-23
      y: 0.0
      z: 0.0
    angular: 
      x: 0.0
      y: 0.0
      z: 0.000122605578005
  covariance: [9.999996235521382e-10, 0.0, 0.0, 0.0, 0.0, 0.0, 0.0, 22455.302153349447, 0.0, 0.0, 0.0, 0.0, 0.0, 0.0, 5.345451067372155e-07, 1.2445969995215985e-39, 1.763766878774599e-40, 0.0, 0.0, 0.0, 1.2445969995215985e-39, 3.98269755647243e-07, -1.355626519910513e-34, 0.0, 0.0, 0.0, 1.7637668787745994e-40, 1.355626519910513e-34, 3.98269755647243e-07, 0.0, 0.0, 0.0, 0.0, 0.0, 0.0, 9.969348590145201e-10]
---
header: 
  seq: 1890
  stamp: 
    secs: 1518209651
    nsecs: 511765718
  frame_id: "swarmone/odom"
child_frame_id: "swarmone/base_link"
pose: 
  pose: 
    position: 
      x: 0.10745275231
      y: 0.999473251246
      z: 0.0
    orientation: 
      x: 0.0
      y: 0.0
      z: 0.659384671344
      w: 0.751805729691
  covariance: [118946016.82055555, -11075206.708001181, 0.0, 0.0, 0.0, 9.53340185457851e-31, -11075206.708001219, 1040494.488783486, 0.0, 0.0, 0.0, -1.2858281620324178e-31, 0.0, 0.0, 6.002104916780625e-07, 4.5960751609787965e-39, 6.467085440156617e-29, 0.0, 0.0, 0.0, 4.596075160978798e-39, 5.001488295348584e-07, 1.7932349960521761e-34, 0.0, 0.0, 0.0, 6.467085440156618e-29, -1.7932349960521761e-34, 5.001488295348584e-07, 0.0, 9.533401854578512e-31, -1.2858281620324178e-31, 0.0, 0.0, 0.0, 1.00235803205977e-06]
twist: 
  twist: 
    linear: 
      x: -1.4602586424e-23
      y: 0.0
      z: 0.0
    angular: 
      x: 0.0
      y: 0.0
      z: 1.83037028874e-13
  covariance: [9.99999623547195e-10, 0.0, 0.0, 0.0, 0.0, 0.0, 0.0, 22490.90165120942, 0.0, 0.0, 0.0, 0.0, 0.0, 0.0, 5.386409807819079e-07, 1.2355113497051257e-39, 1.6252885269312371e-40, 0.0, 0.0, 0.0, 1.2355113497051265e-39, 3.999913303423204e-07, 2.8751892690962046e-34, 0.0, 0.0, 0.0, 1.625288526931238e-40, -2.8751892690962046e-34, 3.999913303423204e-07, 0.0, 0.0, 0.0, 0.0, 0.0, 0.0, 9.970219128566955e-10]
---
header: 
  seq: 1891
  stamp: 
    secs: 1518209651
    nsecs: 612266779
  frame_id: "swarmone/odom"
child_frame_id: "swarmone/base_link"
pose: 
  pose: 
    position: 
      x: 0.10745275231
      y: 0.999473251246
      z: 0.0
    orientation: 
      x: 0.0
      y: 0.0
      z: 0.659384918581
      w: 0.751805512847
  covariance: [119261878.65520428, -11111032.144412471, 0.0, 0.0, 0.0, 9.021163883059555e-31, -11111032.144412508, 1044454.0804768115, 0.0, 0.0, 0.0, -1.1867101257846862e-31, 0.0, 0.0, 5.979109801874041e-07, 5.2231680956722445e-36, 6.085955598841584e-29, 0.0, 0.0, 0.0, 5.223168095672245e-36, 4.983556618595482e-07, -1.8928656357907565e-30, 0.0, 0.0, 0.0, 6.085955598841583e-29, 1.8928656357907565e-30, 4.983556618595482e-07, 0.0, 9.021163883059553e-31, -1.1867101257846862e-31, 0.0, 0.0, 0.0, 9.880529173149032e-07]
twist: 
  twist: 
    linear: 
      x: -1.37035965921e-23
      y: 0.0
      z: 0.0
    angular: 
      x: 0.0
      y: 0.0
      z: 0.000120839421905
  covariance: [9.99999626497021e-10, 0.0, 0.0, 0.0, 0.0, 0.0, 0.0, 22526.804034815144, 0.0, 0.0, 0.0, 0.0, 0.0, 0.0, 5.366021931047692e-07, 1.1363903108518685e-39, 1.4948902016719898e-40, 0.0, 0.0, 0.0, 1.1363903108518686e-39, 3.991324365972954e-07, 2.0989158510603588e-35, 0.0, 0.0, 0.0, 1.49489020167199e-40, -2.0989158510603588e-35, 3.991324365972954e-07, 0.0, 0.0, 0.0, 0.0, 0.0, 0.0, 9.96979012949158e-10]
---
header: 
  seq: 1892
  stamp: 
    secs: 1518209651
    nsecs: 711751699
  frame_id: "swarmone/odom"
child_frame_id: "swarmone/base_link"
pose: 
  pose: 
    position: 
      x: 0.10745275231
      y: 0.999473251246
      z: 0.0
    orientation: 
      x: 0.0
      y: 0.0
      z: 0.659384932921
      w: 0.75180550027
  covariance: [119575208.09598272, -11146578.602307, 0.0, 0.0, 0.0, 8.662094160393019e-31, -11146578.602307037, 1048384.1042655205, 0.0, 0.0, 0.0, -1.1394735920684225e-31, 0.0, 0.0, 6.069540047271732e-07, 5.23722230844106e-36, 5.763980089031757e-29, 0.0, 0.0, 0.0, 5.237222308441061e-36, 5.054532745444125e-07, -4.9204330219505045e-31, 0.0, 0.0, 0.0, 5.76398008903176e-29, 4.9204330219505045e-31, 5.054532745444125e-07, 0.0, 8.662094160393019e-31, -1.1394735920684223e-31, 0.0, 0.0, 0.0, 1.0452733762976147e-06]
twist: 
  twist: 
    linear: 
      x: -1.2867944162e-23
      y: 0.0
      z: 0.0
    angular: 
      x: 0.0
      y: 0.0
      z: 0.000114255909673
  covariance: [9.99999622447564e-10, 0.0, 0.0, 0.0, 0.0, 0.0, 0.0, 22562.38103129494, 0.0, 0.0, 0.0, 0.0, 0.0, 0.0, 5.446513586569891e-07, 1.1768421041023102e-39, 1.5481033573457646e-40, 0.0, 0.0, 0.0, 1.1768421041023105e-39, 4.025550752741176e-07, -3.4722113061933207e-34, 0.0, 0.0, 0.0, 1.5481033573457644e-40, 3.4722113061933207e-34, 4.025550752741176e-07, 0.0, 0.0, 0.0, 0.0, 0.0, 0.0, 9.971436008266674e-10]
---
header: 
  seq: 1893
  stamp: 
    secs: 1518209651
    nsecs: 812266350
  frame_id: "swarmone/odom"
child_frame_id: "swarmone/base_link"
pose: 
  pose: 
    position: 
      x: 0.10745275231
      y: 0.999473251246
      z: 0.0
    orientation: 
      x: 0.0
      y: 0.0
      z: 0.659384918582
      w: 0.751805512847
  covariance: [119892449.8162934, -11182577.334449481, 0.0, 0.0, 0.0, 8.065209492641793e-31, -11182577.334449518, 1052365.418749531, 0.0, 0.0, 0.0, -1.0609548863713235e-31, 0.0, 0.0, 5.979109811011814e-07, 4.6067414639830984e-36, 5.363732061759808e-29, 0.0, 0.0, 0.0, 4.606741463983099e-36, 4.983556647166969e-07, 1.2316029194990047e-30, 0.0, 0.0, 0.0, 5.363732061759807e-29, -1.2316029194990047e-30, 4.983556647166969e-07, 0.0, 8.065209492641793e-31, -1.0609548863713237e-31, 0.0, 0.0, 0.0, 9.880529173149267e-07]
twist: 
  twist: 
    linear: 
      x: -1.20756419866e-23
      y: 0.0
      z: 0.0
    angular: 
      x: 0.0
      y: 0.0
      z: 0.000120839422085
  covariance: [9.999996265507084e-10, 0.0, 0.0, 0.0, 0.0, 0.0, 0.0, 22598.36429607326, 0.0, 0.0, 0.0, 0.0, 0.0, 0.0, 5.366021949300232e-07, 1.0015569653617914e-39, 1.3175206331153724e-40, 0.0, 0.0, 0.0, 1.0015569653617917e-39, 3.991324489508706e-07, 1.7888115945839846e-35, 0.0, 0.0, 0.0, 1.317520633115373e-40, -1.7888115945839846e-35, 3.991324489508706e-07, 0.0, 0.0, 0.0, 0.0, 0.0, 0.0, 9.969790129491583e-10]
---
header: 
  seq: 1894
  stamp: 
    secs: 1518209651
    nsecs: 912771225
  frame_id: "swarmone/odom"
child_frame_id: "swarmone/base_link"
pose: 
  pose: 
    position: 
      x: 0.10745275231
      y: 0.999473251246
      z: 0.0
    orientation: 
      x: 0.0
      y: 0.0
      z: 0.655617668613
      w: 0.755093022483
  covariance: [120210334.15232788, -11218657.747309847, 0.0, 0.0, 0.0, 7.489361637973821e-31, -11218657.747309882, 1056357.0828932596, 0.0, 0.0, 0.0, -1.0362729856023177e-31, 0.0, 0.0, 6.002105412307837e-07, 4.7422383104130925e-36, 5.058566572857279e-29, 0.0, 0.0, 0.0, 4.742238310413092e-36, 5.001491495316515e-07, 1.513455271535221e-30, 0.0, 0.0, 0.0, 5.058566572857279e-29, -1.513455271535221e-30, 5.001491495316515e-07, 0.0, 7.489361637973821e-31, -1.036272985602318e-31, 0.0, 0.0, 0.0, 1.0023580320610105e-06]
twist: 
  twist: 
    linear: 
      x: -1.1332175885e-23
      y: 0.0
      z: 0.0
    angular: 
      x: 0.0
      y: 0.0
      z: 0.000119123426638
  covariance: [9.999996265126624e-10, 0.0, 0.0, 0.0, 0.0, 0.0, 0.0, 22634.382296391144, 0.0, 0.0, 0.0, 0.0, 0.0, 0.0, 5.386410797545806e-07, 9.65108127658805e-40, 1.3678812216438092e-40, 0.0, 0.0, 0.0, 9.651081276588054e-40, 3.9999199911304504e-07, -7.921707785066226e-35, 0.0, 0.0, 0.0, 1.3678812216438094e-40, 7.921707785066226e-35, 3.9999199911304504e-07, 0.0, 0.0, 0.0, 0.0, 0.0, 0.0, 9.970219128567286e-10]
---
header: 
  seq: 1895
  stamp: 
    secs: 1518209652
    nsecs:  12238026
  frame_id: "swarmone/odom"
child_frame_id: "swarmone/base_link"
pose: 
  pose: 
    position: 
      x: 0.10745275231
      y: 0.999473251246
      z: 0.0
    orientation: 
      x: 0.0
      y: 0.0
      z: 0.659384943046
      w: 0.75180549139
  covariance: [120525168.7243036, -11256004.47994518, 0.0, 0.0, 0.0, 7.39168911141781e-31, -11256004.479945214, 1060619.163954817, 0.0, 0.0, 0.0, -9.960877568913824e-32, 0.0, 0.0, 6.134738129113101e-07, 4.566944319927984e-36, 4.827939411612629e-29, 0.0, 0.0, 0.0, 4.566944319927986e-36, 5.106462126184426e-07, 1.6253390702489687e-31, 0.0, 0.0, 0.0, 4.827939411612631e-29, -1.6253390702489687e-31, 5.106462126184426e-07, 0.0, 7.39168911141781e-31, -9.960877568913824e-32, 0.0, 0.0, 0.0, 1.08818872053589e-06]
twist: 
  twist: 
    linear: 
      x: -1.06412372084e-23
      y: 0.0
      z: 0.0
    angular: 
      x: 0.0
      y: 0.0
      z: 0.000109770561789
  covariance: [9.999996223751166e-10, 0.0, 0.0, 0.0, 0.0, 0.0, 0.0, 22670.06594397985, 0.0, 0.0, 0.0, 0.0, 0.0, 0.0, 5.505071819596773e-07, 1.0501079713301632e-39, 1.381378888121697e-40, 0.0, 0.0, 0.0, 1.0501079713301637e-39, 4.050972321291563e-07, 1.935068826904711e-34, 0.0, 0.0, 0.0, 1.3813788881216979e-40, -1.935068826904711e-34, 4.050972321291563e-07, 0.0, 0.0, 0.0, 0.0, 0.0, 0.0, 9.972557345796527e-10]
---
header: 
  seq: 1896
  stamp: 
    secs: 1518209652
    nsecs: 112645864
  frame_id: "swarmone/odom"
child_frame_id: "swarmone/base_link"
pose: 
  pose: 
    position: 
      x: 0.10745275231
      y: 0.999473251246
      z: 0.0
    orientation: 
      x: 0.0
      y: 0.0
      z: 0.659384922167
      w: 0.751805509702
  covariance: [120844087.24387209, -11292221.131227167, 0.0, 0.0, 0.0, 6.820281543032684e-31, -11292221.1312272, 1064628.7956050853, 0.0, 0.0, 0.0, -8.97188139908986e-32, 0.0, 0.0, 6.002105348445732e-07, 3.880142044146523e-36, 4.4533846952085154e-29, 0.0, 0.0, 0.0, 3.880142044146522e-36, 5.00149129828283e-07, 2.3852852354604546e-30, 0.0, 0.0, 0.0, 4.453384695208515e-29, -2.3852852354604546e-30, 5.00149129828283e-07, 0.0, 6.820281543032685e-31, -8.97188139908986e-32, 0.0, 0.0, 0.0, 1.002358032060853e-06]
twist: 
  twist: 
    linear: 
      x: -9.98667855956e-24
      y: 0.0
      z: 0.0
    angular: 
      x: 0.0
      y: 0.0
      z: 0.000119123426564
  covariance: [9.99999626129426e-10, 0.0, 0.0, 0.0, 0.0, 0.0, 0.0, 22706.125209131893, 0.0, 0.0, 0.0, 0.0, 0.0, 0.0, 5.386410670110848e-07, 8.508523517408288e-40, 1.1192728246885696e-40, 0.0, 0.0, 0.0, 8.508523517408288e-40, 3.9999191322739296e-07, 7.273222063286009e-37, 0.0, 0.0, 0.0, 1.1192728246885692e-40, -7.273222063286009e-37, 3.9999191322739296e-07, 0.0, 0.0, 0.0, 0.0, 0.0, 0.0, 9.970219128567243e-10]
---
header: 
  seq: 1897
  stamp: 
    secs: 1518209652
    nsecs: 212134123
  frame_id: "swarmone/odom"
child_frame_id: "swarmone/base_link"
pose: 
  pose: 
    position: 
      x: 0.10745275231
      y: 0.999473251246
      z: 0.0
    orientation: 
      x: 0.0
      y: 0.0
      z: 0.663135673286
      w: 0.748499217645
  covariance: [121160751.18209942, -11328189.861958474, 0.0, 0.0, 0.0, 5.877398821714858e-31, -11328189.86195851, 1068612.2328058076, 0.0, 0.0, 0.0, -7.343334317435451e-32, 0.0, 0.0, 5.884418975396275e-07, 3.013628388000351e-36, 4.0306507413910246e-29, 0.0, 0.0, 0.0, 3.0136283880003515e-36, 4.91050918704225e-07, 2.18003599141522e-31, 0.0, 0.0, 0.0, 4.030650741391025e-29, -2.18003599141522e-31, 4.91050918704225e-07, 0.0, 5.877398821714859e-31, -7.34333431743545e-32, 0.0, 0.0, 0.0, 9.308324583288113e-07]
twist: 
  twist: 
    linear: 
      x: -9.37765696812e-24
      y: 0.0
      z: 0.0
    angular: 
      x: 0.0
      y: 0.0
      z: 0.000128228016634
  covariance: [9.999996224613851e-10, 0.0, 0.0, 0.0, 0.0, 0.0, 0.0, 22741.89192358753, 0.0, 0.0, 0.0, 0.0, 0.0, 0.0, 5.282630554805592e-07, 6.847970516195253e-40, 8.312721139088974e-41, 0.0, 0.0, 0.0, 6.847970516195252e-40, 3.9566850665354153e-07, -9.453617443470179e-35, 0.0, 0.0, 0.0, 8.312721139088972e-41, 9.453617443470179e-35, 3.9566850665354153e-07, 0.0, 0.0, 0.0, 0.0, 0.0, 0.0, 9.96794297977594e-10]
---
header: 
  seq: 1898
  stamp: 
    secs: 1518209652
    nsecs: 312587738
  frame_id: "swarmone/odom"
child_frame_id: "swarmone/base_link"
pose: 
  pose: 
    position: 
      x: 0.10745275231
      y: 0.999473251246
      z: 0.0
    orientation: 
      x: 0.0
      y: 0.0
      z: 0.659384919206
      w: 0.751805512299
  covariance: [121481567.24027641, -11363008.301864577, 0.0, 0.0, 0.0, 5.653765575975739e-31, -11363008.301864613, 1072338.0769817673, 0.0, 0.0, 0.0, -7.25317489389962e-32, 0.0, 0.0, 5.97910977008464e-07, 3.355189525702946e-36, 3.9065008507155205e-29, 0.0, 0.0, 0.0, 3.355189525702944e-36, 4.983556519443826e-07, 1.8727053463114636e-30, 0.0, 0.0, 0.0, 3.906500850715521e-29, -1.8727053463114636e-30, 4.983556519443826e-07, 0.0, 5.653765575975739e-31, -7.25317489389962e-32, 0.0, 0.0, 0.0, 9.88052917314823e-07]
twist: 
  twist: 
    linear: 
      x: -8.80057961803e-24
      y: 0.0
      z: 0.0
    angular: 
      x: 0.0
      y: 0.0
      z: 0.00012083942207
  covariance: [9.999996263101732e-10, 0.0, 0.0, 0.0, 0.0, 0.0, 0.0, 22778.0437815202, 0.0, 0.0, 0.0, 0.0, 0.0, 0.0, 5.366021867639443e-07, 7.294082205189339e-40, 9.595119182822717e-41, 0.0, 0.0, 0.0, 7.294082205189337e-40, 3.99132393854805e-07, 1.952737917864984e-35, 0.0, 0.0, 0.0, 9.595119182822717e-41, -1.952737917864984e-35, 3.99132393854805e-07, 0.0, 0.0, 0.0, 0.0, 0.0, 0.0, 9.969790129491557e-10]
---
header: 
  seq: 1899
  stamp: 
    secs: 1518209652
    nsecs: 412115335
  frame_id: "swarmone/odom"
child_frame_id: "swarmone/base_link"
pose: 
  pose: 
    position: 
      x: 0.10745275231
      y: 0.999473251246
      z: 0.0
    orientation: 
      x: 0.0
      y: 0.0
      z: 0.659384914997
      w: 0.751805515991
  covariance: [121799693.34285633, -11399157.842529485, 0.0, 0.0, 0.0, 5.306521830104066e-31, -11399157.842529517, 1076343.7638914753, 0.0, 0.0, 0.0, -6.980576343167149e-32, 0.0, 0.0, 5.955847462083707e-07, 3.058578605599333e-36, 3.6133445841842334e-29, 0.0, 0.0, 0.0, 3.0585786055993345e-36, 4.965490526644072e-07, 9.991475710952734e-31, 0.0, 0.0, 0.0, 3.613344584184233e-29, -9.991475710952734e-31, 4.965490526644072e-07, 0.0, 5.306521830104065e-31, -6.980576343167148e-32, 0.0, 0.0, 0.0, 9.737478025671797e-07]
twist: 
  twist: 
    linear: 
      x: -8.26369229361e-24
      y: 0.0
      z: 0.0
    angular: 
      x: 0.0
      y: 0.0
      z: 0.000122605578002
  covariance: [9.999996226196593e-10, 0.0, 0.0, 0.0, 0.0, 0.0, 0.0, 22813.90014568736, 0.0, 0.0, 0.0, 0.0, 0.0, 0.0, 5.345450742756736e-07, 6.591524582994741e-40, 8.670969529696382e-41, 0.0, 0.0, 0.0, 6.591524582994745e-40, 3.98269531367458e-07, 1.7632839221226159e-35, 0.0, 0.0, 0.0, 8.670969529696386e-41, -1.7632839221226159e-35, 3.98269531367458e-07, 0.0, 0.0, 0.0, 0.0, 0.0, 0.0, 9.969348590145091e-10]
---
header: 
  seq: 1900
  stamp: 
    secs: 1518209652
    nsecs: 512646198
  frame_id: "swarmone/odom"
child_frame_id: "swarmone/base_link"
pose: 
  pose: 
    position: 
      x: 0.10745275231
      y: 0.999473251246
      z: 0.0
    orientation: 
      x: 0.0
      y: 0.0
      z: 0.659384922167
      w: 0.751805509702
  covariance: [122121703.13287252, -11435757.154411497, 0.0, 0.0, 0.0, 5.106657788316143e-31, -11435757.154411528, 1080400.5771610523, 0.0, 0.0, 0.0, -6.717661513471802e-32, 0.0, 0.0, 6.002105429410493e-07, 3.01708213349282e-36, 3.462610331907391e-29, 0.0, 0.0, 0.0, 3.0170821334928194e-36, 5.001491550984447e-07, -3.2191963338894694e-31, 0.0, 0.0, 0.0, 3.4626103319073915e-29, 3.2191963338894694e-31, 5.001491550984447e-07, 0.0, 5.106657788316144e-31, -6.717661513471803e-32, 0.0, 0.0, 0.0, 1.002358032061053e-06]
twist: 
  twist: 
    linear: 
      x: -7.75479858279e-24
      y: 0.0
      z: 0.0
    angular: 
      x: 0.0
      y: 0.0
      z: 0.000119123426655
  covariance: [9.999996266149719e-10, 0.0, 0.0, 0.0, 0.0, 0.0, 0.0, 22850.156134587658, 0.0, 0.0, 0.0, 0.0, 0.0, 0.0, 5.386410831688137e-07, 6.6151915114838715e-40, 8.70210236158766e-41, 0.0, 0.0, 0.0, 6.615191511483875e-40, 3.9999202215172165e-07, -9.703386401251427e-35, 0.0, 0.0, 0.0, 8.702102361587661e-41, 9.703386401251427e-35, 3.9999202215172165e-07, 0.0, 0.0, 0.0, 0.0, 0.0, 0.0, 9.970219128567294e-10]
---
header: 
  seq: 1901
  stamp: 
    secs: 1518209652
    nsecs: 612135172
  frame_id: "swarmone/odom"
child_frame_id: "swarmone/base_link"
pose: 
  pose: 
    position: 
      x: 0.10745275231
      y: 0.999473251246
      z: 0.0
    orientation: 
      x: 0.0
      y: 0.0
      z: 0.663135676855
      w: 0.748499214483
  covariance: [122441046.52070834, -11472061.512810348, 0.0, 0.0, 0.0, 4.609556835354389e-31, -11472061.512810377, 1084425.9494910522, 0.0, 0.0, 0.0, -5.757645628963852e-32, 0.0, 0.0, 5.908507172839576e-07, 2.389807948847098e-36, 3.1479661721750076e-29, 0.0, 0.0, 0.0, 2.389807948847098e-36, 4.928969222486171e-07, 1.9020707969312018e-32, 0.0, 0.0, 0.0, 3.147966172175008e-29, -1.9020707969312018e-32, 4.928969222486171e-07, 0.0, 4.60955683535439e-31, -5.757645628963852e-32, 0.0, 0.0, 0.0, 9.451375730749133e-07]
twist: 
  twist: 
    linear: 
      x: -7.28188131729e-24
      y: 0.0
      z: 0.0
    angular: 
      x: 0.0
      y: 0.0
      z: 0.000126297436742
  covariance: [9.9999962246427e-10, 0.0, 0.0, 0.0, 0.0, 0.0, 0.0, 22886.074170559572, 0.0, 0.0, 0.0, 0.0, 0.0, 0.0, 5.303758168281755e-07, 5.481310428831486e-40, 6.653717554962206e-41, 0.0, 0.0, 0.0, 5.481310428831485e-40, 3.96537998412898e-07, 3.912016714879445e-35, 0.0, 0.0, 0.0, 6.653717554962205e-41, -3.912016714879445e-35, 3.96537998412898e-07, 0.0, 0.0, 0.0, 0.0, 0.0, 0.0, 9.968425624991081e-10]
---
header: 
  seq: 1902
  stamp: 
    secs: 1518209652
    nsecs: 712610483
  frame_id: "swarmone/odom"
child_frame_id: "swarmone/base_link"
pose: 
  pose: 
    position: 
      x: 0.10745275231
      y: 0.999473251246
      z: 0.0
    orientation: 
      x: 0.0
      y: 0.0
      z: 0.659384971896
      w: 0.751805466086
  covariance: [122764643.36006723, -11507213.383049289, 0.0, 0.0, 0.0, 4.326358112687164e-31, -11507213.38304932, 1088191.7680882153, 0.0, 0.0, 0.0, -5.545942507696379e-32, 0.0, 0.0, 5.932315717721123e-07, 3.129131077166144e-36, 3.0020031453108425e-29, 0.0, 0.0, 0.0, 3.1291310771661444e-36, 4.947298328170007e-07, -7.47266348917038e-31, 0.0, 0.0, 0.0, 3.0020031453108425e-29, 7.47266348917038e-31, 4.947298328170007e-07, 0.0, 4.326358112687164e-31, -5.545942507696378e-32, 0.0, 0.0, 0.0, 9.594426878226568e-07]
twist: 
  twist: 
    linear: 
      x: -6.83368173252e-24
      y: 0.0
      z: 0.0
    angular: 
      x: 0.0
      y: 0.0
      z: 0.000155530160197
  covariance: [9.99999626395836e-10, 0.0, 0.0, 0.0, 0.0, 0.0, 0.0, 22922.386483286136, 0.0, 0.0, 0.0, 0.0, 0.0, 0.0, 5.324698724158926e-07, 5.3478788997743804e-40, 7.034916474594384e-41, 0.0, 0.0, 0.0, 5.347878899774382e-40, 3.9740588522544953e-07, 2.7108259898044343e-34, 0.0, 0.0, 0.0, 7.03491647459439e-41, -2.7108259898044343e-34, 3.9740588522544953e-07, 0.0, 0.0, 0.0, 0.0, 0.0, 0.0, 9.96889395251778e-10]
---
header: 
  seq: 1903
  stamp: 
    secs: 1518209652
    nsecs: 812125921
  frame_id: "swarmone/odom"
child_frame_id: "swarmone/base_link"
pose: 
  pose: 
    position: 
      x: 0.10745275231
      y: 0.999473251246
      z: 0.0
    orientation: 
      x: 0.0
      y: 0.0
      z: 0.655617665019
      w: 0.755093025604
  covariance: [123085416.99148215, -11543695.320200227, 0.0, 0.0, 0.0, 4.116253628191043e-31, -11543695.320200259, 1092239.0744682811, 0.0, 0.0, 0.0, -5.696881089078733e-32, 0.0, 0.0, 5.979109137949758e-07, 2.6066038517024024e-36, 2.8201534170515995e-29, 0.0, 0.0, 0.0, 2.6066038517024034e-36, 4.983554550047969e-07, -1.6787485309100874e-30, 0.0, 0.0, 0.0, 2.8201534170516e-29, 1.6787485309100874e-30, 4.983554550047969e-07, 0.0, 4.116253628191043e-31, -5.696881089078733e-32, 0.0, 0.0, 0.0, 9.880529173132596e-07]
twist: 
  twist: 
    linear: 
      x: -6.41683433358e-24
      y: 0.0
      z: 0.0
    angular: 
      x: 0.0
      y: 0.0
      z: 0.000120839421548
  covariance: [9.9999962257076e-10, 0.0, 0.0, 0.0, 0.0, 0.0, 0.0, 22958.389736659115, 0.0, 0.0, 0.0, 0.0, 0.0, 0.0, 5.366020608461604e-07, 5.258572064291635e-40, 7.453147054900534e-41, 0.0, 0.0, 0.0, 5.258572064291638e-40, 3.9913154816546493e-07, 2.884908590985914e-34, 0.0, 0.0, 0.0, 7.453147054900538e-41, -2.884908590985914e-34, 3.9913154816546493e-07, 0.0, 0.0, 0.0, 0.0, 0.0, 0.0, 9.96979012949113e-10]
---
header: 
  seq: 1904
  stamp: 
    secs: 1518209652
    nsecs: 912602425
  frame_id: "swarmone/odom"
child_frame_id: "swarmone/base_link"
pose: 
  pose: 
    position: 
      x: 0.10745275231
      y: 0.999473251246
      z: 0.0
    orientation: 
      x: 0.0
      y: 0.0
      z: 0.659385444933
      w: 0.7518050512
  covariance: [123409525.88385905, -11582215.894119117, 0.0, 0.0, 0.0, 9.540916633440405e-31, -11582215.89411915, 1096647.6451163692, 0.0, 0.0, 0.0, -1.2684580433086296e-31, 0.0, 0.0, 7.821285877459322e-07, 7.976088689250913e-36, 2.9685466005906055e-29, 0.0, 0.0, 0.0, 7.976088689250912e-36, 6.715789136777065e-07, -1.566515214173829e-30, 0.0, 0.0, 0.0, 2.9685466005906055e-29, 1.566515214173829e-30, 6.715789136777065e-07, 0.0, 9.540916633440405e-31, -1.2684580433086296e-31, 0.0, 0.0, 0.0, 3.090904784992965e-06]
twist: 
  twist: 
    linear: 
      x: -6.02187389895e-24
      y: 0.0
      z: 0.0
    angular: 
      x: 0.0
      y: 0.0
      z: 3.8760862759e-05
  covariance: [9.999996264005348e-10, 0.0, 0.0, 0.0, 0.0, 0.0, 0.0, 22994.778919451877, 0.0, 0.0, 0.0, 0.0, 0.0, 0.0, 7.190912053809279e-07, 2.7178222132991467e-39, 3.5750716196233488e-40, 0.0, 0.0, 0.0, 2.7178222132991464e-39, 5.036569098005181e-07, 1.1433470745728026e-33, 0.0, 0.0, 0.0, 3.5750716196233483e-40, -1.1433470745728026e-33, 5.036569098005181e-07, 0.0, 0.0, 0.0, 0.0, 0.0, 0.0, 9.990309779500225e-10]
---
header: 
  seq: 1905
  stamp: 
    secs: 1518209653
    nsecs:  12025595
  frame_id: "swarmone/odom"
child_frame_id: "swarmone/base_link"
pose: 
  pose: 
    position: 
      x: 0.10745275231
      y: 0.999473251246
      z: 0.0
    orientation: 
      x: 0.0
      y: 0.0
      z: 0.655617654217
      w: 0.755093034982
  covariance: [123731349.18183872, -11618836.029128298, 0.0, 0.0, 0.0, 6.151621394825565e-31, -11618836.029128328, 1100713.161894361, 0.0, 0.0, 0.0, -8.329748854289036e-32, 0.0, 0.0, 5.908507128600034e-07, 2.1585199784892618e-36, 2.4429231645881474e-29, 0.0, 0.0, 0.0, 2.1585199784892618e-36, 4.92896908821151e-07, -1.702204877350586e-30, 0.0, 0.0, 0.0, 2.4429231645881474e-29, 1.702204877350586e-30, 4.92896908821151e-07, 0.0, 6.151621394825565e-31, -8.329748854289034e-32, 0.0, 0.0, 0.0, 9.451375730748611e-07]
twist: 
  twist: 
    linear: 
      x: -5.65485867699e-24
      y: 0.0
      z: 0.0
    angular: 
      x: 0.0
      y: 0.0
      z: 0.000126297436572
  covariance: [9.999996221990597e-10, 0.0, 0.0, 0.0, 0.0, 0.0, 0.0, 23030.824452021658, 0.0, 0.0, 0.0, 0.0, 0.0, 0.0, 5.303758082935361e-07, 4.248956105963307e-40, 6.02155024448608e-41, 0.0, 0.0, 0.0, 4.248956105963305e-40, 3.965379474699515e-07, -9.660732344225791e-35, 0.0, 0.0, 0.0, 6.021550244486081e-41, 9.660732344225791e-35, 3.965379474699515e-07, 0.0, 0.0, 0.0, 0.0, 0.0, 0.0, 9.968425624991048e-10]
---
header: 
  seq: 1906
  stamp: 
    secs: 1518209653
    nsecs: 112791300
  frame_id: "swarmone/odom"
child_frame_id: "swarmone/base_link"
pose: 
  pose: 
    position: 
      x: 0.10745275231
      y: 0.999473251246
      z: 0.0
    orientation: 
      x: 0.0
      y: 0.0
      z: 0.655617712806
      w: 0.755092984111
  covariance: [124057756.89796373, -11657649.960012939, 0.0, 0.0, 0.0, 3.3297873808070515e-31, -11657649.960012967, 1105158.6319237351, 0.0, 0.0, 0.0, -4.7194378955371197e-32, 0.0, 0.0, 5.908508060994431e-07, 2.5688082936561807e-36, 2.3249822907179244e-29, 0.0, 0.0, 0.0, 2.568808293656181e-36, 4.928972346494484e-07, -2.4880853030078686e-30, 0.0, 0.0, 0.0, 2.324982290717925e-29, 2.4880853030078686e-30, 4.928972346494484e-07, 0.0, 3.3297873808070515e-31, -4.71943789553712e-32, 0.0, 0.0, 0.0, 9.451375730770342e-07]
twist: 
  twist: 
    linear: 
      x: -5.30586047728e-24
      y: 0.0
      z: 0.0
    angular: 
      x: 0.0
      y: 0.0
      z: 0.000157871796891
  covariance: [9.999996275386284e-10, 0.0, 0.0, 0.0, 0.0, 0.0, 0.0, 23067.39513407242, 0.0, 0.0, 0.0, 0.0, 0.0, 0.0, 5.303759923107841e-07, 4.0375416678596795e-40, 5.722569878880441e-41, 0.0, 0.0, 0.0, 4.037541667859678e-40, 3.965391558326011e-07, 9.473645972717023e-35, 0.0, 0.0, 0.0, 5.722569878880442e-41, -9.473645972717023e-35, 3.965391558326011e-07, 0.0, 0.0, 0.0, 0.0, 0.0, 0.0, 9.968425624991718e-10]
---
header: 
  seq: 1907
  stamp: 
    secs: 1518209653
    nsecs: 212361574
  frame_id: "swarmone/odom"
child_frame_id: "swarmone/base_link"
pose: 
  pose: 
    position: 
      x: 0.10745275231
      y: 0.999473251246
      z: 0.0
    orientation: 
      x: 0.0
      y: 0.0
      z: 0.659384914368
      w: 0.751805516542
  covariance: [124380969.62143801, -11696094.342362445, 0.0, 0.0, 0.0, 3.152452905134061e-31, -11696094.342362473, 1109563.556123497, 0.0, 0.0, 0.0, -4.251846017623166e-32, 0.0, 0.0, 5.955847491347892e-07, 1.8453760709910957e-36, 2.17941505692281e-29, 0.0, 0.0, 0.0, 1.8453760709910964e-36, 4.965490617184456e-07, -1.5384615254110104e-30, 0.0, 0.0, 0.0, 2.1794150569228106e-29, 1.5384615254110104e-30, 4.965490617184456e-07, 0.0, 3.152452905134061e-31, -4.2518460176231653e-32, 0.0, 0.0, 0.0, 9.737478025672502e-07]
twist: 
  twist: 
    linear: 
      x: -4.98203945283e-24
      y: 0.0
      z: 0.0
    angular: 
      x: 0.0
      y: 0.0
      z: 0.000122605578085
  covariance: [9.999996227914281e-10, 0.0, 0.0, 0.0, 0.0, 0.0, 0.0, 23103.56997092905, 0.0, 0.0, 0.0, 0.0, 0.0, 0.0, 5.345450800843255e-07, 3.9756332589525144e-40, 5.229875549620304e-41, 0.0, 0.0, 0.0, 3.975633258952515e-40, 3.9826957005536123e-07, -1.1804645170088028e-34, 0.0, 0.0, 0.0, 5.229875549620307e-41, 1.1804645170088028e-34, 3.9826957005536123e-07, 0.0, 0.0, 0.0, 0.0, 0.0, 0.0, 9.969348590145112e-10]
---
header: 
  seq: 1908
  stamp: 
    secs: 1518209653
    nsecs: 312002182
  frame_id: "swarmone/odom"
child_frame_id: "swarmone/base_link"
pose: 
  pose: 
    position: 
      x: 0.10745275231
      y: 0.999473251246
      z: 0.0
    orientation: 
      x: 0.0
      y: 0.0
      z: 0.659384914997
      w: 0.751805515991
  covariance: [124705529.03829923, -11733055.582245851, 0.0, 0.0, 0.0, 2.9927917850348285e-31, -11733055.58224588, 1113671.4700905131, 0.0, 0.0, 0.0, -3.936931464253794e-32, 0.0, 0.0, 5.955847539710922e-07, 1.7334533843891158e-36, 2.047849925289394e-29, 0.0, 0.0, 0.0, 1.7334533843891155e-36, 4.96549076713075e-07, -1.4341882334683333e-30, 0.0, 0.0, 0.0, 2.0478499252893938e-29, 1.4341882334683333e-30, 4.96549076713075e-07, 0.0, 2.9927917850348285e-31, -3.936931464253794e-32, 0.0, 0.0, 0.0, 9.737478025673692e-07]
twist: 
  twist: 
    linear: 
      x: -4.6777849198e-24
      y: 0.0
      z: 0.0
    angular: 
      x: 0.0
      y: 0.0
      z: 0.000122605578074
  covariance: [9.999996230735257e-10, 0.0, 0.0, 0.0, 0.0, 0.0, 0.0, 23139.808203729037, 0.0, 0.0, 0.0, 0.0, 0.0, 0.0, 5.345450896958951e-07, 3.735693939707281e-40, 4.914202519659058e-41, 0.0, 0.0, 0.0, 3.735693939707282e-40, 3.9826963428954066e-07, -1.7424997748743435e-34, 0.0, 0.0, 0.0, 4.914202519659059e-41, 1.7424997748743438e-34, 3.9826963428954066e-07, 0.0, 0.0, 0.0, 0.0, 0.0, 0.0, 9.969348590145145e-10]
---
header: 
  seq: 1909
  stamp: 
    secs: 1518209653
    nsecs: 412137032
  frame_id: "swarmone/odom"
child_frame_id: "swarmone/base_link"
pose: 
  pose: 
    position: 
      x: 0.10745275231
      y: 0.999473251246
      z: 0.0
    orientation: 
      x: 0.0
      y: 0.0
      z: 0.663135623508
      w: 0.748499261746
  covariance: [125032381.29587385, -11770286.080221215, 0.0, 0.0, 0.0, 2.826343581405489e-31, -11770286.080221245, 1117810.5665879527, 0.0, 0.0, 0.0, -3.526505012886891e-32, 0.0, 0.0, 5.955847877265296e-07, 1.1338374177650433e-36, 1.932325897749358e-29, 0.0, 0.0, 0.0, 1.1338374177650433e-36, 4.965491407261316e-07, 8.513229832403123e-32, 0.0, 0.0, 0.0, 1.9323258977493582e-29, -8.513229832403123e-32, 4.965491407261316e-07, 0.0, 2.826343581405489e-31, -3.5265050128868904e-32, 0.0, 0.0, 0.0, 9.737478025681949e-07]
twist: 
  twist: 
    linear: 
      x: -4.3907847947e-24
      y: 0.0
      z: 0.0
    angular: 
      x: 0.0
      y: 0.0
      z: 9.1954183829e-05
  covariance: [9.999996250472208e-10, 0.0, 0.0, 0.0, 0.0, 0.0, 0.0, 23176.264345554904, 0.0, 0.0, 0.0, 0.0, 0.0, 0.0, 5.345451567567441e-07, 3.529416635802071e-40, 4.284301074238948e-41, 0.0, 0.0, 0.0, 3.5294166358020718e-40, 3.9827008202494106e-07, 9.477668309986982e-35, 0.0, 0.0, 0.0, 4.284301074238949e-41, -9.477668309986982e-35, 3.9827008202494106e-07, 0.0, 0.0, 0.0, 0.0, 0.0, 0.0, 9.969348590145377e-10]
---
header: 
  seq: 1910
  stamp: 
    secs: 1518209653
    nsecs: 512534142
  frame_id: "swarmone/odom"
child_frame_id: "swarmone/base_link"
pose: 
  pose: 
    position: 
      x: 0.10745275231
      y: 0.999473251246
      z: 0.0
    orientation: 
      x: 0.0
      y: 0.0
      z: 0.663135677482
      w: 0.748499213928
  covariance: [125361193.73098147, -11806077.099294567, 0.0, 0.0, 0.0, 2.608852821955044e-31, -11806077.099294597, 1121654.7152496076, 0.0, 0.0, 0.0, -3.1668121837578213e-32, 0.0, 0.0, 5.908507806924922e-07, 1.3651073750641122e-36, 1.7986571083457975e-29, 0.0, 0.0, 0.0, 1.365107375064112e-36, 4.928971169891559e-07, 6.806843903851639e-31, 0.0, 0.0, 0.0, 1.7986571083457975e-29, -6.806843903851639e-31, 4.928971169891559e-07, 0.0, 2.608852821955044e-31, -3.1668121837578213e-32, 0.0, 0.0, 0.0, 9.451375730764278e-07]
twist: 
  twist: 
    linear: 
      x: -4.12072930939e-24
      y: 0.0
      z: 0.0
    angular: 
      x: 0.0
      y: 0.0
      z: 0.00012629743727
  covariance: [9.999996260869258e-10, 0.0, 0.0, 0.0, 0.0, 0.0, 0.0, 23212.85439212968, 0.0, 0.0, 0.0, 0.0, 0.0, 0.0, 5.303759421128637e-07, 3.1318111804995295e-40, 3.801619032994263e-41, 0.0, 0.0, 0.0, 3.1318111804995295e-40, 3.9653882476927103e-07, -1.9244228839358978e-34, 0.0, 0.0, 0.0, 3.801619032994261e-41, 1.9244228839358978e-34, 3.9653882476927103e-07, 0.0, 0.0, 0.0, 0.0, 0.0, 0.0, 9.968425624991536e-10]
---
header: 
  seq: 1911
  stamp: 
    secs: 1518209653
    nsecs: 612106323
  frame_id: "swarmone/odom"
child_frame_id: "swarmone/base_link"
pose: 
  pose: 
    position: 
      x: 0.10745275231
      y: 0.999473251246
      z: 0.0
    orientation: 
      x: 0.0
      y: 0.0
      z: 0.663135716742
      w: 0.748499179145
  covariance: [125687987.71406938, -11841654.474459374, 0.0, 0.0, 0.0, 2.671000856519865e-31, -11841654.474459404, 1125476.739363809, 0.0, 0.0, 0.0, -3.24225124835341e-32, 0.0, 0.0, 6.155992868979211e-07, 1.5624718087701797e-36, 1.76460112421293e-29, 0.0, 0.0, 0.0, 1.56247180877018e-36, 5.123530643270303e-07, -9.057068583943067e-31, 0.0, 0.0, 0.0, 1.76460112421293e-29, 9.057068583943067e-31, 5.123530643270303e-07, 0.0, 2.6710008565198655e-31, -3.2422512483534106e-32, 0.0, 0.0, 0.0, 1.1024938352821679e-06]
twist: 
  twist: 
    linear: 
      x: -3.86923523122e-24
      y: 0.0
      z: 0.0
    angular: 
      x: 0.0
      y: 0.0
      z: 0.000108352693481
  covariance: [9.999996227989069e-10, 0.0, 0.0, 0.0, 0.0, 0.0, 0.0, 23249.181811703584, 0.0, 0.0, 0.0, 0.0, 0.0, 0.0, 5.524258104662816e-07, 3.922193213455031e-40, 4.761041581278614e-41, 0.0, 0.0, 0.0, 3.92219321345503e-40, 4.0593991578558775e-07, 2.2862136191251617e-34, 0.0, 0.0, 0.0, 4.761041581278615e-41, -2.2862136191251617e-34, 4.0593991578558775e-07, 0.0, 0.0, 0.0, 0.0, 0.0, 0.0, 9.972911813067885e-10]
---
header: 
  seq: 1912
  stamp: 
    secs: 1518209653
    nsecs: 712613106
  frame_id: "swarmone/odom"
child_frame_id: "swarmone/base_link"
pose: 
  pose: 
    position: 
      x: 0.10745275231
      y: 0.999473251246
      z: 0.0
    orientation: 
      x: 0.0
      y: 0.0
      z: 0.659384912036
      w: 0.751805518588
  covariance: [126018540.13485658, -11877647.420485005, 0.0, 0.0, 0.0, 2.4260290697509345e-31, -11877647.420485038, 1129344.2610575862, 0.0, 0.0, 0.0, -3.101311403151336e-32, 0.0, 0.0, 5.932315739489566e-07, 1.3306480160684553e-36, 1.595619593861966e-29, 0.0, 0.0, 0.0, 1.3306480160684553e-36, 4.947297991557551e-07, 2.1439436246857184e-30, 0.0, 0.0, 0.0, 1.595619593861966e-29, -2.1439436246857184e-30, 4.947297991557551e-07, 0.0, 2.4260290697509345e-31, -3.1013114031513355e-32, 0.0, 0.0, 0.0, 9.594426878227132e-07]
twist: 
  twist: 
    linear: 
      x: -3.63101366691e-24
      y: 0.0
      z: 0.0
    angular: 
      x: 0.0
      y: 0.0
      z: 0.000124424128188
  covariance: [9.999996265200072e-10, 0.0, 0.0, 0.0, 0.0, 0.0, 0.0, 23285.88862524855, 0.0, 0.0, 0.0, 0.0, 0.0, 0.0, 5.324698767475736e-07, 2.8427507542371253e-40, 3.7395023988226085e-41, 0.0, 0.0, 0.0, 2.8427507542371266e-40, 3.9740591431873036e-07, -2.7220231361876108e-34, 0.0, 0.0, 0.0, 3.739502398822608e-41, 2.7220231361876108e-34, 3.9740591431873036e-07, 0.0, 0.0, 0.0, 0.0, 0.0, 0.0, 9.968893952517793e-10]
---
header: 
  seq: 1913
  stamp: 
    secs: 1518209653
    nsecs: 812256336
  frame_id: "swarmone/odom"
child_frame_id: "swarmone/base_link"
pose: 
  pose: 
    position: 
      x: 0.10745275231
      y: 0.999473251246
      z: 0.0
    orientation: 
      x: 0.0
      y: 0.0
      z: 0.655617654216
      w: 0.755093034983
  covariance: [126346523.6528152, -11915034.062546995, 0.0, 0.0, 0.0, 2.125902147583959e-31, -11915034.062547026, 1133504.8244748577, 0.0, 0.0, 0.0, -2.9401065964977087e-32, 0.0, 0.0, 5.908507281287515e-07, 1.3049904377171949e-36, 1.476250867228119e-29, 0.0, 0.0, 0.0, 1.3049904377171954e-36, 4.928969551207505e-07, 8.533323487171492e-31, 0.0, 0.0, 0.0, 1.4762508672281185e-29, -8.533323487171492e-31, 4.928969551207505e-07, 0.0, 2.1259021475839595e-31, -2.9401065964977087e-32, 0.0, 0.0, 0.0, 9.451375730751714e-07]
twist: 
  twist: 
    linear: 
      x: -3.4092584662e-24
      y: 0.0
      z: 0.0
    angular: 
      x: 0.0
      y: 0.0
      z: 0.000126297436848
  covariance: [9.999996230843512e-10, 0.0, 0.0, 0.0, 0.0, 0.0, 0.0, 23322.31817679358, 0.0, 0.0, 0.0, 0.0, 0.0, 0.0, 5.303758382510095e-07, 2.563663909864173e-40, 3.6335397912079113e-41, 0.0, 0.0, 0.0, 2.563663909864172e-40, 3.9653813962964454e-07, -1.3594853051746931e-34, 0.0, 0.0, 0.0, 3.633539791207909e-41, 1.3594853051746931e-34, 3.9653813962964454e-07, 0.0, 0.0, 0.0, 0.0, 0.0, 0.0, 9.968425624991162e-10]
---
header: 
  seq: 1914
  stamp: 
    secs: 1518209653
    nsecs: 912456036
  frame_id: "swarmone/odom"
child_frame_id: "swarmone/base_link"
pose: 
  pose: 
    position: 
      x: 0.10745275231
      y: 0.999473251246
      z: 0.0
    orientation: 
      x: 0.0
      y: 0.0
      z: 0.659385391159
      w: 0.751805098364
  covariance: [126676576.46244586, -11954346.19444274, 0.0, 0.0, 0.0, 4.72225960656585e-31, -11954346.19444277, 1138018.3668543336, 0.0, 0.0, 0.0, -6.279801625707086e-32, 0.0, 0.0, 7.714435369928933e-07, 3.979261544193254e-36, 1.5915008650520637e-29, 0.0, 0.0, 0.0, 3.979261544193254e-36, 6.595840580908296e-07, 2.8225971603527523e-31, 0.0, 0.0, 0.0, 1.591500865052064e-29, -2.8225971603527523e-31, 6.595840580908296e-07, 0.0, 4.7222596065658494e-31, -6.279801625707086e-32, 0.0, 0.0, 0.0, 2.8763280638007495e-06]
twist: 
  twist: 
    linear: 
      x: -3.19995795708e-24
      y: 0.0
      z: 0.0
    angular: 
      x: 0.0
      y: 0.0
      z: 4.16474409295e-05
  covariance: [9.999996253050476e-10, 0.0, 0.0, 0.0, 0.0, 0.0, 0.0, 23358.989469653134, 0.0, 0.0, 0.0, 0.0, 0.0, 0.0, 7.073304635213987e-07, 1.3383191915288995e-39, 1.76044893492934e-40, 0.0, 0.0, 0.0, 1.3383191915289002e-39, 4.94687126788071e-07, -1.5323389014874712e-33, 0.0, 0.0, 0.0, 1.7604489349293398e-40, 1.5323389014874712e-33, 4.94687126788071e-07, 0.0, 0.0, 0.0, 0.0, 0.0, 0.0, 9.989588134585998e-10]
---
header: 
  seq: 1915
  stamp: 
    secs: 1518209654
    nsecs:  11982203
  frame_id: "swarmone/odom"
child_frame_id: "swarmone/base_link"
pose: 
  pose: 
    position: 
      x: 0.10745275231
      y: 0.999473251246
      z: 0.0
    orientation: 
      x: 0.0
      y: 0.0
      z: 0.659384854241
      w: 0.751805569278
  covariance: [127005543.45079908, -11991863.562507177, 0.0, 0.0, 0.0, 3.1706229195424405e-31, -11991863.562507205, 1142196.3383525913, 0.0, 0.0, 0.0, -4.1708333298143363e-32, 0.0, 0.0, 5.955847463108641e-07, 8.338308027041512e-37, 1.3138372723485712e-29, 0.0, 0.0, 0.0, 8.338308027041517e-37, 4.965490127769269e-07, -1.954757664439701e-30, 0.0, 0.0, 0.0, 1.3138372723485714e-29, 1.954757664439701e-30, 4.965490127769269e-07, 0.0, 3.1706229195424396e-31, -4.170833329814336e-32, 0.0, 0.0, 0.0, 9.737478025672303e-07]
twist: 
  twist: 
    linear: 
      x: -3.00474182141e-24
      y: 0.0
      z: 0.0
    angular: 
      x: 0.0
      y: 0.0
      z: 9.19541834254e-05
  covariance: [9.999996226137363e-10, 0.0, 0.0, 0.0, 0.0, 0.0, 0.0, 23395.452298140808, 0.0, 0.0, 0.0, 0.0, 0.0, 0.0, 5.345450746676008e-07, 2.3997410773171e-40, 3.1567937609886277e-41, 0.0, 0.0, 0.0, 2.399741077317099e-40, 3.982695387805307e-07, -9.71096070118537e-35, 0.0, 0.0, 0.0, 3.1567937609886267e-41, 9.71096070118537e-35, 3.982695387805307e-07, 0.0, 0.0, 0.0, 0.0, 0.0, 0.0, 9.969348590145091e-10]
---
header: 
  seq: 1916
  stamp: 
    secs: 1518209654
    nsecs: 112375259
  frame_id: "swarmone/odom"
child_frame_id: "swarmone/base_link"
pose: 
  pose: 
    position: 
      x: 0.10745275231
      y: 0.999473251246
      z: 0.0
    orientation: 
      x: 0.0
      y: 0.0
      z: 0.655617665013
      w: 0.755093025609
  covariance: [127338068.36195852, -12029795.67573387, 0.0, 0.0, 0.0, 1.8347728826165153e-31, -12029795.6757339, 1146421.8222904843, 0.0, 0.0, 0.0, -2.538710762116159e-32, 0.0, 0.0, 5.979109729714482e-07, 1.1557914202367084e-36, 1.2509472568226386e-29, 0.0, 0.0, 0.0, 1.155791420236708e-36, 4.983556391700684e-07, 1.6649831050074854e-30, 0.0, 0.0, 0.0, 1.2509472568226385e-29, -1.6649831050074854e-30, 4.983556391700684e-07, 0.0, 1.8347728826165155e-31, -2.538710762116159e-32, 0.0, 0.0, 0.0, 9.880529173147239e-07]
twist: 
  twist: 
    linear: 
      x: -2.81994333662e-24
      y: 0.0
      z: 0.0
    angular: 
      x: 0.0
      y: 0.0
      z: 0.000120839421979
  covariance: [9.999996260707257e-10, 0.0, 0.0, 0.0, 0.0, 0.0, 0.0, 23432.27114910733, 0.0, 0.0, 0.0, 0.0, 0.0, 0.0, 5.366021787272469e-07, 2.332586858273885e-40, 3.3060507755973796e-41, 0.0, 0.0, 0.0, 2.3325868582738842e-40, 3.991323399658758e-07, 7.670036422840935e-37, 0.0, 0.0, 0.0, 3.3060507755973796e-41, -7.670036422840935e-37, 3.991323399658758e-07, 0.0, 0.0, 0.0, 0.0, 0.0, 0.0, 9.96979012949153e-10]
---
header: 
  seq: 1917
  stamp: 
    secs: 1518209654
    nsecs: 212014914
  frame_id: "swarmone/odom"
child_frame_id: "swarmone/base_link"
pose: 
  pose: 
    position: 
      x: 0.10745275231
      y: 0.999473251246
      z: 0.0
    orientation: 
      x: 0.0
      y: 0.0
      z: 0.659384917953
      w: 0.751805513398
  covariance: [127668335.06497766, -12069161.331349488, 0.0, 0.0, 0.0, 1.7180853197672547e-31, -12069161.331349518, 1150946.1927177347, 0.0, 0.0, 0.0, -2.3184075851278287e-32, 0.0, 0.0, 5.97910922238965e-07, 1.000843792865717e-36, 1.165199599663687e-29, 0.0, 0.0, 0.0, 1.000843792865717e-36, 4.98355481516138e-07, 3.196588734852987e-30, 0.0, 0.0, 0.0, 1.1651995996636868e-29, -3.196588734852987e-30, 4.98355481516138e-07, 0.0, 1.7180853197672547e-31, -2.3184075851278287e-32, 0.0, 0.0, 0.0, 9.88052917313469e-07]
twist: 
  twist: 
    linear: 
      x: -2.64772965771e-24
      y: 0.0
      z: 0.0
    angular: 
      x: 0.0
      y: 0.0
      z: 0.00012083942157
  covariance: [9.999996230697626e-10, 0.0, 0.0, 0.0, 0.0, 0.0, 0.0, 23468.85187003092, 0.0, 0.0, 0.0, 0.0, 0.0, 0.0, 5.366020776699694e-07, 2.1756814003893805e-40, 2.8620678230448947e-41, 0.0, 0.0, 0.0, 2.17568140038938e-40, 3.9913166122762326e-07, -5.708050085424102e-35, 0.0, 0.0, 0.0, 2.862067823044893e-41, 5.708050085424102e-35, 3.9913166122762326e-07, 0.0, 0.0, 0.0, 0.0, 0.0, 0.0, 9.969790129491186e-10]
---
header: 
  seq: 1918
  stamp: 
    secs: 1518209654
    nsecs: 312638283
  frame_id: "swarmone/odom"
child_frame_id: "swarmone/base_link"
pose: 
  pose: 
    position: 
      x: 0.10745275231
      y: 0.999473251246
      z: 0.0
    orientation: 
      x: 0.0
      y: 0.0
      z: 0.659384907828
      w: 0.751805522279
  covariance: [128003015.71013989, -12107358.388315124, 0.0, 0.0, 0.0, 1.5826112567872462e-31, -12107358.38831515, 1155204.0990268863, 0.0, 0.0, 0.0, -2.0818794069951376e-32, 0.0, 0.0, 5.90850796316467e-07, 8.931496774014042e-37, 1.0870705113445688e-29, 0.0, 0.0, 0.0, 8.931496774014045e-37, 4.928971647774273e-07, -1.2573696001850413e-30, 0.0, 0.0, 0.0, 1.0870705113445691e-29, 1.2573696001850413e-30, 4.928971647774273e-07, 0.0, 1.582611256787246e-31, -2.0818794069951379e-32, 0.0, 0.0, 0.0, 9.451375730768014e-07]
twist: 
  twist: 
    linear: 
      x: -2.48453717949e-24
      y: 0.0
      z: 0.0
    angular: 
      x: 0.0
      y: 0.0
      z: 0.000126297437456
  covariance: [9.999996269792982e-10, 0.0, 0.0, 0.0, 0.0, 0.0, 0.0, 23505.832362093654, 0.0, 0.0, 0.0, 0.0, 0.0, 0.0, 5.303759729858346e-07, 1.8904244645957644e-40, 2.4868013703788787e-41, 0.0, 0.0, 0.0, 1.890424464595765e-40, 3.965390284498858e-07, -3.6755443680438735e-34, 0.0, 0.0, 0.0, 2.486801370378879e-41, 3.6755443680438735e-34, 3.965390284498858e-07, 0.0, 0.0, 0.0, 0.0, 0.0, 0.0, 9.968425624991648e-10]
---
header: 
  seq: 1919
  stamp: 
    secs: 1518209654
    nsecs: 412022829
  frame_id: "swarmone/odom"
child_frame_id: "swarmone/base_link"
pose: 
  pose: 
    position: 
      x: 0.10745275231
      y: 0.999473251246
      z: 0.0
    orientation: 
      x: 0.0
      y: 0.0
      z: 0.659384914997
      w: 0.751805515991
  covariance: [128334265.21241081, -12145172.2330488, 0.0, 0.0, 0.0, 1.474080534908885e-31, -12145172.233048828, 1159420.5586743648, 0.0, 0.0, 0.0, -1.939110661830298e-32, 0.0, 0.0, 5.955847363452286e-07, 8.622646091270926e-37, 1.0186351504726188e-29, 0.0, 0.0, 0.0, 8.622646091270924e-37, 4.9654902208923e-07, -9.94799987008803e-32, 0.0, 0.0, 0.0, 1.0186351504726186e-29, 9.94799987008803e-32, 4.9654902208923e-07, 0.0, 1.4740805349088851e-31, -1.939110661830298e-32, 0.0, 0.0, 0.0, 9.737478025669374e-07]
twist: 
  twist: 
    linear: 
      x: -2.33316994195e-24
      y: 0.0
      z: 0.0
    angular: 
      x: 0.0
      y: 0.0
      z: 0.000122605577922
  covariance: [9.999996220434006e-10, 0.0, 0.0, 0.0, 0.0, 0.0, 0.0, 23542.395684865303, 0.0, 0.0, 0.0, 0.0, 0.0, 0.0, 5.345450546757143e-07, 1.8581680256049876e-40, 2.4443689360370533e-41, 0.0, 0.0, 0.0, 1.858168025604988e-40, 3.9826940041387006e-07, -5.731222692161501e-35, 0.0, 0.0, 0.0, 2.444368936037053e-41, 5.731222692161503e-35, 3.9826940041387006e-07, 0.0, 0.0, 0.0, 0.0, 0.0, 0.0, 9.969348590145023e-10]
---
header: 
  seq: 1920
  stamp: 
    secs: 1518209654
    nsecs: 512508154
  frame_id: "swarmone/odom"
child_frame_id: "swarmone/base_link"
pose: 
  pose: 
    position: 
      x: 0.10745275231
      y: 0.999473251246
      z: 0.0
    orientation: 
      x: 0.0
      y: 0.0
      z: 0.659384918582
      w: 0.751805512846
  covariance: [128669881.1375736, -12183492.991721893, 0.0, 0.0, 0.0, 1.4273084633142518e-31, -12183492.991721924, 1163694.8254011087, 0.0, 0.0, 0.0, -1.877583221179585e-32, 0.0, 0.0, 5.979109791326055e-07, 8.350671724244827e-37, 9.722483895095569e-30, 0.0, 0.0, 0.0, 8.350671724244826e-37, 4.9835565856815e-07, 9.886953430609704e-31, 0.0, 0.0, 0.0, 9.722483895095571e-30, -9.886953430609704e-31, 4.9835565856815e-07, 0.0, 1.4273084633142518e-31, -1.8775832211795848e-32, 0.0, 0.0, 0.0, 9.880529173148763e-07]
twist: 
  twist: 
    linear: 
      x: -2.18955037775e-24
      y: 0.0
      z: 0.0
    angular: 
      x: 0.0
      y: 0.0
      z: 0.00012083942208
  covariance: [9.999996264352816e-10, 0.0, 0.0, 0.0, 0.0, 0.0, 0.0, 23579.40251247812, 0.0, 0.0, 0.0, 0.0, 0.0, 0.0, 5.366021910002635e-07, 1.8153882294984723e-40, 2.388093270808544e-41, 0.0, 0.0, 0.0, 1.8153882294984715e-40, 3.991324224001784e-07, -3.946135444139465e-35, 0.0, 0.0, 0.0, 2.388093270808544e-41, 3.946135444139465e-35, 3.991324224001784e-07, 0.0, 0.0, 0.0, 0.0, 0.0, 0.0, 9.969790129491571e-10]
---
header: 
  seq: 1921
  stamp: 
    secs: 1518209654
    nsecs: 612103939
  frame_id: "swarmone/odom"
child_frame_id: "swarmone/base_link"
pose: 
  pose: 
    position: 
      x: 0.10745275231
      y: 0.999473251246
      z: 0.0
    orientation: 
      x: 0.0
      y: 0.0
      z: 0.659385040467
      w: 0.751805405945
  covariance: [129003219.19944619, -12221562.064093225, 0.0, 0.0, 0.0, 1.7720608788594652e-31, -12221562.064093255, 1167942.2925508062, 0.0, 0.0, 0.0, -2.3310959858270267e-32, 0.0, 0.0, 6.63682971938382e-07, 1.2896387330022508e-36, 1.0062927793562437e-29, 0.0, 0.0, 0.0, 1.2896387330022504e-36, 5.528989245349489e-07, -3.054953552144505e-30, 0.0, 0.0, 0.0, 1.0062927793562437e-29, 3.054953552144505e-30, 5.528989245349489e-07, 0.0, 1.7720608788594654e-31, -2.3310959858270267e-32, 0.0, 0.0, 0.0, 1.4744268186809013e-06]
twist: 
  twist: 
    linear: 
      x: -2.05588914248e-24
      y: 0.0
      z: 0.0
    angular: 
      x: 0.0
      y: 0.0
      z: 8.11124541729e-05
  covariance: [9.999996228937562e-10, 0.0, 0.0, 0.0, 0.0, 0.0, 0.0, 23616.11998986095, 0.0, 0.0, 0.0, 0.0, 0.0, 0.0, 5.971351139182721e-07, 3.4689129518502053e-40, 4.5632581494763945e-41, 0.0, 0.0, 0.0, 3.4689129518502066e-40, 4.2703926161645397e-07, 8.069573283661028e-35, 0.0, 0.0, 0.0, 4.5632581494763956e-41, -8.069573283661028e-35, 4.2703926161645397e-07, 0.0, 0.0, 0.0, 0.0, 0.0, 0.0, 9.979721876304829e-10]
---
header: 
  seq: 1922
  stamp: 
    secs: 1518209654
    nsecs: 712592363
  frame_id: "swarmone/odom"
child_frame_id: "swarmone/base_link"
pose: 
  pose: 
    position: 
      x: 0.10745275231
      y: 0.999473251246
      z: 0.0
    orientation: 
      x: 0.0
      y: 0.0
      z: 0.659385029526
      w: 0.751805415541
  covariance: [129340245.3305072, -12260060.758422201, 0.0, 0.0, 0.0, 1.605508179742905e-31, -12260060.758422228, 1172238.9739806536, 0.0, 0.0, 0.0, -2.111997037199039e-32, 0.0, 0.0, 6.218377671141348e-07, 1.1182209954760295e-36, 8.98717114706035e-30, 0.0, 0.0, 0.0, 1.1182209954760293e-36, 5.174030773280665e-07, -1.1319380967378433e-31, 0.0, 0.0, 0.0, 8.987171147060348e-30, 1.1319380967378433e-31, 5.174030773280665e-07, 0.0, 1.605508179742905e-31, -2.1119970371990386e-32, 0.0, 0.0, 0.0, 1.1454091795220154e-06]
twist: 
  twist: 
    linear: 
      x: -1.9293330703e-24
      y: 0.0
      z: 0.0
    angular: 
      x: 0.0
      y: 0.0
      z: 0.000130388324706
  covariance: [9.999996264475848e-10, 0.0, 0.0, 0.0, 0.0, 0.0, 0.0, 23653.205165934676, 0.0, 0.0, 0.0, 0.0, 0.0, 0.0, 5.580847372131417e-07, 2.1176204503067137e-40, 2.785670636400068e-41, 0.0, 0.0, 0.0, 2.1176204503067133e-40, 4.0845422802072517e-07, -7.203573121814825e-35, 0.0, 0.0, 0.0, 2.785670636400067e-41, 7.203573121814825e-35, 4.0845422802072517e-07, 0.0, 0.0, 0.0, 0.0, 0.0, 0.0, 9.97392232210188e-10]
---
header: 
  seq: 1923
  stamp: 
    secs: 1518209654
    nsecs: 812000751
  frame_id: "swarmone/odom"
child_frame_id: "swarmone/base_link"
pose: 
  pose: 
    position: 
      x: 0.10745275231
      y: 0.999473251246
      z: 0.0
    orientation: 
      x: 0.0
      y: 0.0
      z: 0.655617654218
      w: 0.755093034982
  covariance: [129674342.45055972, -12298233.525946181, 0.0, 0.0, 0.0, 1.200565459642598e-31, -12298233.52594621, 1176500.572341097, 0.0, 0.0, 0.0, -1.655399377486012e-32, 0.0, 0.0, 5.908507116264835e-07, 6.918245158118398e-37, 7.825559502731787e-30, 0.0, 0.0, 0.0, 6.918245158118398e-37, 4.928969044968989e-07, 1.787595929224487e-30, 0.0, 0.0, 0.0, 7.825559502731787e-30, -1.787595929224487e-30, 4.928969044968989e-07, 0.0, 1.2005654596425977e-31, -1.6553993774860117e-32, 0.0, 0.0, 0.0, 9.451375730747815e-07]
twist: 
  twist: 
    linear: 
      x: -1.81176442725e-24
      y: 0.0
      z: 0.0
    angular: 
      x: 0.0
      y: 0.0
      z: 0.000126297436708
  covariance: [9.999996221395258e-10, 0.0, 0.0, 0.0, 0.0, 0.0, 0.0, 23689.92993837542, 0.0, 0.0, 0.0, 0.0, 0.0, 0.0, 5.303758056671179e-07, 1.3591433304976273e-40, 1.92633225640559e-41, 0.0, 0.0, 0.0, 1.3591433304976269e-40, 3.965379251199697e-07, -1.110433643483274e-37, 0.0, 0.0, 0.0, 1.9263322564055894e-41, 1.110433643483274e-37, 3.965379251199697e-07, 0.0, 0.0, 0.0, 0.0, 0.0, 0.0, 9.968425624991042e-10]
---
header: 
  seq: 1924
  stamp: 
    secs: 1518209654
    nsecs: 912136316
  frame_id: "swarmone/odom"
child_frame_id: "swarmone/base_link"
pose: 
  pose: 
    position: 
      x: 0.10745275231
      y: 0.999473251246
      z: 0.0
    orientation: 
      x: 0.0
      y: 0.0
      z: 0.659384914372
      w: 0.751805516539
  covariance: [130011121.14025827, -12338437.131415177, 0.0, 0.0, 0.0, 1.0825639361148811e-31, -12338437.131415205, 1181131.657992462, 0.0, 0.0, 0.0, -1.4601001640737415e-32, 0.0, 0.0, 5.955847877697288e-07, 6.335689262740223e-37, 7.484191030042485e-30, 0.0, 0.0, 0.0, 6.335689262740225e-37, 4.965491814311292e-07, -4.717495662684368e-31, 0.0, 0.0, 0.0, 7.484191030042486e-30, 4.717495662684368e-31, 4.965491814311292e-07, 0.0, 1.0825639361148811e-31, -1.4601001640737415e-32, 0.0, 0.0, 0.0, 9.737478025681953e-07]
twist: 
  twist: 
    linear: 
      x: -1.70060474518e-24
      y: 0.0
      z: 0.0
    angular: 
      x: 0.0
      y: 0.0
      z: 0.000122605578382
  covariance: [9.999996250501176e-10, 0.0, 0.0, 0.0, 0.0, 0.0, 0.0, 23726.961768480716, 0.0, 0.0, 0.0, 0.0, 0.0, 0.0, 5.345451568391607e-07, 1.365247890283157e-40, 1.7959595496027995e-41, 0.0, 0.0, 0.0, 1.3652478902831568e-40, 3.98270082513593e-07, -2.318364800141247e-34, 0.0, 0.0, 0.0, 1.7959595496027995e-41, 2.318364800141247e-34, 3.98270082513593e-07, 0.0, 0.0, 0.0, 0.0, 0.0, 0.0, 9.969348590145377e-10]
---
header: 
  seq: 1925
  stamp: 
    secs: 1518209655
    nsecs:  12582302
  frame_id: "swarmone/odom"
child_frame_id: "swarmone/base_link"
pose: 
  pose: 
    position: 
      x: 0.10745275231
      y: 0.999473251246
      z: 0.0
    orientation: 
      x: 0.0
      y: 0.0
      z: 0.655617654211
      w: 0.755093034987
  covariance: [130350110.49564154, -12377188.26810257, 0.0, 0.0, 0.0, 1.0087453292450956e-31, -12377188.2681026, 1185460.7600477547, 0.0, 0.0, 0.0, -1.3947464517592985e-32, 0.0, 0.0, 5.908507840729112e-07, 6.161186519673067e-37, 6.969811244597798e-30, 0.0, 0.0, 0.0, 6.161186519673065e-37, 4.928971269495141e-07, -1.3077734063894515e-30, 0.0, 0.0, 0.0, 6.969811244597798e-30, 1.3077734063894515e-30, 4.928971269495141e-07, 0.0, 1.0087453292450956e-31, -1.3947464517592985e-32, 0.0, 0.0, 0.0, 9.451375730765086e-07]
twist: 
  twist: 
    linear: 
      x: -1.59596095404e-24
      y: 0.0
      z: 0.0
    angular: 
      x: 0.0
      y: 0.0
      z: 0.000126297437348
  covariance: [9.999996262801058e-10, 0.0, 0.0, 0.0, 0.0, 0.0, 0.0, 23764.147151429315, 0.0, 0.0, 0.0, 0.0, 0.0, 0.0, 5.303759487921989e-07, 1.21039098253944e-40, 1.7155142117732196e-41, 0.0, 0.0, 0.0, 1.2103909825394396e-40, 3.965388688286319e-07, -1.917814496807572e-34, 0.0, 0.0, 0.0, 1.7155142117732193e-41, 1.917814496807572e-34, 3.965388688286319e-07, 0.0, 0.0, 0.0, 0.0, 0.0, 0.0, 9.96842562499156e-10]
---
header: 
  seq: 1926
  stamp: 
    secs: 1518209655
    nsecs: 111756563
  frame_id: "swarmone/odom"
child_frame_id: "swarmone/base_link"
pose: 
  pose: 
    position: 
      x: 0.10745275231
      y: 0.999473251246
      z: 0.0
    orientation: 
      x: 0.0
      y: 0.0
      z: 0.655617660786
      w: 0.755093029279
  covariance: [130685043.80095722, -12417190.927703576, 0.0, 0.0, 0.0, 9.435926048939449e-32, -12417190.927703604, 1190071.930040751, 0.0, 0.0, 0.0, -1.337390758831236e-32, 0.0, 0.0, 5.955847218067995e-07, 5.946976898694224e-37, 6.529431939054431e-30, 0.0, 0.0, 0.0, 5.946976898694226e-37, 4.965489768186039e-07, -3.5928939268570974e-30, 0.0, 0.0, 0.0, 6.529431939054431e-30, 3.5928939268570974e-30, 4.965489768186039e-07, 0.0, 9.435926048939449e-32, -1.3373907588312356e-32, 0.0, 0.0, 0.0, 9.737478025665819e-07]
twist: 
  twist: 
    linear: 
      x: -1.49892238831e-24
      y: 0.0
      z: 0.0
    angular: 
      x: 0.0
      y: 0.0
      z: 0.000122605577792
  covariance: [9.999996211931452e-10, 0.0, 0.0, 0.0, 0.0, 0.0, 0.0, 23800.899837999445, 0.0, 0.0, 0.0, 0.0, 0.0, 0.0, 5.345450257926897e-07, 1.1894555042960366e-40, 1.685863258667949e-41, 0.0, 0.0, 0.0, 1.1894555042960368e-40, 3.9826920757573376e-07, -1.3559785946233157e-34, 0.0, 0.0, 0.0, 1.685863258667949e-41, 1.3559785946233157e-34, 3.9826920757573376e-07, 0.0, 0.0, 0.0, 0.0, 0.0, 0.0, 9.969348590144922e-10]
---
header: 
  seq: 1927
  stamp: 
    secs: 1518209655
    nsecs: 212210655
  frame_id: "swarmone/odom"
child_frame_id: "swarmone/base_link"
pose: 
  pose: 
    position: 
      x: 0.10745275231
      y: 0.999473251246
      z: 0.0
    orientation: 
      x: 0.0
      y: 0.0
      z: 0.663136204467
      w: 0.748498747044
  covariance: [131025002.33379774, -12457802.828573113, 0.0, 0.0, 0.0, 2.208370305812291e-31, -12457802.828573141, 1194755.0083779378, 0.0, 0.0, 0.0, -2.742174479366264e-32, 0.0, 0.0, 7.807619998811493e-07, 1.7079610069593226e-36, 6.94427819567602e-30, 0.0, 0.0, 0.0, 1.7079610069593226e-36, 6.700286711983833e-07, -6.152031874288928e-30, 0.0, 0.0, 0.0, 6.944278195676019e-30, 6.152031874288928e-30, 6.700286711983833e-07, 0.0, 2.208370305812291e-31, -2.742174479366264e-32, 0.0, 0.0, 0.0, 3.0622945555006923e-06]
twist: 
  twist: 
    linear: 
      x: -1.4066830528e-24
      y: 0.0
      z: 0.0
    angular: 
      x: 0.0
      y: 0.0
      z: 3.91224052026e-05
  covariance: [9.99999626311787e-10, 0.0, 0.0, 0.0, 0.0, 0.0, 0.0, 23838.16542622632, 0.0, 0.0, 0.0, 0.0, 0.0, 0.0, 7.175780126936916e-07, 6.297037354750677e-40, 7.643124843307996e-41, 0.0, 0.0, 0.0, 6.297037354750675e-40, 5.024793902922854e-07, 3.969344187332145e-34, 0.0, 0.0, 0.0, 7.643124843307996e-41, -3.9693441873321435e-34, 5.024793902922854e-07, 0.0, 0.0, 0.0, 0.0, 0.0, 0.0, 9.990219393843604e-10]
---
header: 
  seq: 1928
  stamp: 
    secs: 1518209655
    nsecs: 312716722
  frame_id: "swarmone/odom"
child_frame_id: "swarmone/base_link"
pose: 
  pose: 
    position: 
      x: 0.10745275231
      y: 0.999473251246
      z: 0.0
    orientation: 
      x: 0.0
      y: 0.0
      z: 0.659385729386
      w: 0.751804801716
  covariance: [131366743.28724469, -12495162.26253014, 0.0, 0.0, 0.0, 3.358160565350449e-31, -12495162.26253017, 1198789.382610573, 0.0, 0.0, 0.0, -4.326689266080515e-32, 0.0, 0.0, 8.251738280314663e-07, 2.2076792052027757e-36, 6.016603179264169e-30, 0.0, 0.0, 0.0, 2.2076792052027764e-36, 7.229858790808912e-07, -2.016946706657432e-30, 0.0, 0.0, 0.0, 6.0166031792641705e-30, 2.016946706657432e-30, 7.229858790808912e-07, 0.0, 3.358160565350449e-31, -4.326689266080515e-32, 0.0, 0.0, 0.0, 4.22100884993674e-06]
twist: 
  twist: 
    linear: 
      x: -1.32007458486e-24
      y: 0.0
      z: 0.0
    angular: 
      x: 0.0
      y: 0.0
      z: 2.83955724225e-05
