header: 
  seq: 830
  stamp: 
    secs: 1518209545
    nsecs: 512490749
  frame_id: "swarmone/odom"
child_frame_id: "swarmone/base_link"
pose: 
  pose: 
    position: 
      x: 0.0
      y: 0.0
      z: 0.0
    orientation: 
      x: 0.0
      y: 0.0
      z: 0.696135463256
      w: 0.717910451796
  covariance: [1965649.0929185145, -69818.8237612909, 0.0, 0.0, 0.0, 0.0, -69818.82376129102, 2484.2013335926545, 0.0, 0.0, 0.0, 0.0, 0.0, 0.0, 5.908507967380384e-07, 0.0, 0.0, 0.0, 0.0, 0.0, 0.0, 4.928971673687555e-07, -3.367521871479011e-31, 0.0, 0.0, 0.0, 0.0, 3.367521871479011e-31, 4.928971673687555e-07, 0.0, 0.0, 0.0, 0.0, 0.0, 0.0, 9.451375730768108e-07]
twist: 
  twist: 
    linear: 
      x: 0.0
      y: 0.0
      z: 0.0
    angular: 
      x: 0.0
      y: 0.0
      z: 0.000126297437465
  covariance: [9.999996270034645e-10, 0.0, 0.0, 0.0, 0.0, 0.0, 0.0, 1904.6005406089077, 0.0, 0.0, 0.0, 0.0, 0.0, 0.0, 5.303759738153816e-07, 0.0, 0.0, 0.0, 0.0, 0.0, 0.0, 3.965390338601816e-07, 5.39640136293698e-35, 0.0, 0.0, 0.0, 0.0, -5.39640136293698e-35, 3.965390338601816e-07, 0.0, 0.0, 0.0, 0.0, 0.0, 0.0, 9.96842562499165e-10]
---
header: 
  seq: 831
  stamp: 
    secs: 1518209545
    nsecs: 612466574
  frame_id: "swarmone/odom"
child_frame_id: "swarmone/base_link"
pose: 
  pose: 
    position: 
      x: 0.0
      y: 0.0
      z: 0.0
    orientation: 
      x: 0.0
      y: 0.0
      z: 0.692537228916
      w: 0.721382136295
  covariance: [1977514.291378838, -70211.91730827476, 0.0, 0.0, 0.0, 0.0, -70211.91730827487, 2497.165492697025, 0.0, 0.0, 0.0, 0.0, 0.0, 0.0, 5.932315374926569e-07, 0.0, 0.0, 0.0, 0.0, 0.0, 0.0, 4.94729687896155e-07, -6.650046097304272e-31, 0.0, 0.0, 0.0, 0.0, 6.650046097304272e-31, 4.94729687896155e-07, 0.0, 0.0, 0.0, 0.0, 0.0, 0.0, 9.594426878218282e-07]
twist: 
  twist: 
    linear: 
      x: 0.0
      y: 0.0
      z: 0.0
    angular: 
      x: 0.0
      y: 0.0
      z: 0.000124424127889
  covariance: [9.999996244146512e-10, 0.0, 0.0, 0.0, 0.0, 0.0, 0.0, 1911.4904015005045, 0.0, 0.0, 0.0, 0.0, 0.0, 0.0, 5.324698044979924e-07, 0.0, 0.0, 0.0, 0.0, 0.0, 0.0, 3.974054344902445e-07, 8.643846279528967e-35, 0.0, 0.0, 0.0, 0.0, -8.643846279528967e-35, 3.974054344902445e-07, 0.0, 0.0, 0.0, 0.0, 0.0, 0.0, 9.968893952517538e-10]
---
header: 
  seq: 832
  stamp: 
    secs: 1518209545
    nsecs: 711995602
  frame_id: "swarmone/odom"
child_frame_id: "swarmone/base_link"
pose: 
  pose: 
    position: 
      x: 0.0
      y: 0.0
      z: 0.0
    orientation: 
      x: 0.0
      y: 0.0
      z: 0.696135532391
      w: 0.717910384757
  covariance: [1989379.0630757504, -70664.38350965049, 0.0, 0.0, 0.0, 0.0, -70664.38350965062, 2514.3400941620453, 0.0, 0.0, 0.0, 0.0, 0.0, 0.0, 5.979109147192325e-07, 0.0, 0.0, 0.0, 0.0, 0.0, 0.0, 4.983555008125886e-07, 3.786127126913801e-31, 0.0, 0.0, 0.0, 0.0, -3.786127126913801e-31, 4.983555008125886e-07, 0.0, 0.0, 0.0, 0.0, 0.0, 0.0, 9.880529173132824e-07]
twist: 
  twist: 
    linear: 
      x: 0.0
      y: 0.0
      z: 0.0
    angular: 
      x: 0.0
      y: 0.0
      z: 0.000151049276839
  covariance: [9.999996226252593e-10, 0.0, 0.0, 0.0, 0.0, 0.0, 0.0, 1918.3659621497875, 0.0, 0.0, 0.0, 0.0, 0.0, 0.0, 5.366020626872765e-07, 0.0, 0.0, 0.0, 0.0, 0.0, 0.0, 3.99131560531563e-07, 9.808378445792446e-36, 0.0, 0.0, 0.0, 0.0, -9.808378445792441e-36, 3.99131560531563e-07, 0.0, 0.0, 0.0, 0.0, 0.0, 0.0, 9.969790129491133e-10]
---
header: 
  seq: 833
  stamp: 
    secs: 1518209545
    nsecs: 812610865
  frame_id: "swarmone/odom"
child_frame_id: "swarmone/base_link"
pose: 
  pose: 
    position: 
      x: 0.0
      y: 0.0
      z: 0.0
    orientation: 
      x: 0.0
      y: 0.0
      z: 0.692537228913
      w: 0.721382136298
  covariance: [2001435.4794550189, -71063.8221471547, 0.0, 0.0, 0.0, 0.0, -71063.82214715483, 2527.51374103342, 0.0, 0.0, 0.0, 0.0, 0.0, 0.0, 5.932315813239486e-07, 0.0, 0.0, 0.0, 0.0, 0.0, 0.0, 4.947298231289139e-07, 1.6481313707215666e-31, 0.0, 0.0, 0.0, 0.0, -1.6481313707215666e-31, 4.947298231289139e-07, 0.0, 0.0, 0.0, 0.0, 0.0, 0.0, 9.594426878228887e-07]
twist: 
  twist: 
    linear: 
      x: 0.0
      y: 0.0
      z: 0.0
    angular: 
      x: 0.0
      y: 0.0
      z: 0.000124424128321
  covariance: [9.999996269473337e-10, 0.0, 0.0, 0.0, 0.0, 0.0, 0.0, 1925.333305384423, 0.0, 0.0, 0.0, 0.0, 0.0, 0.0, 5.324698913460619e-07, 0.0, 0.0, 0.0, 0.0, 0.0, 0.0, 3.9740601094746955e-07, 9.947456861820758e-36, 0.0, 0.0, 0.0, 0.0, -9.947456861820758e-36, 3.9740601094746955e-07, 0.0, 0.0, 0.0, 0.0, 0.0, 0.0, 9.968893952517844e-10]
---
header: 
  seq: 834
  stamp: 
    secs: 1518209545
    nsecs: 912574053
  frame_id: "swarmone/odom"
child_frame_id: "swarmone/base_link"
pose: 
  pose: 
    position: 
      x: 0.0
      y: 0.0
      z: 0.0
    orientation: 
      x: 0.0
      y: 0.0
      z: 0.692537744284
      w: 0.721381641534
  covariance: [2013467.2693740563, -71522.67876059463, 0.0, 0.0, 0.0, 0.0, -71522.67876059478, 2544.931675648048, 0.0, 0.0, 0.0, 0.0, 0.0, 0.0, 7.828055024374618e-07, 0.0, 0.0, 0.0, 0.0, 0.0, 0.0, 6.723485404125343e-07, 1.6189343472628163e-31, 0.0, 0.0, 0.0, 0.0, -1.6189343472628163e-31, 6.723485404125343e-07, 0.0, 0.0, 0.0, 0.0, 0.0, 0.0, 3.1052098997382302e-06]
twist: 
  twist: 
    linear: 
      x: 0.0
      y: 0.0
      z: 0.0
    angular: 
      x: 0.0
      y: 0.0
      z: 3.8582585759e-05
  covariance: [9.999996243644018e-10, 0.0, 0.0, 0.0, 0.0, 0.0, 0.0, 1932.272186121179, 0.0, 0.0, 0.0, 0.0, 0.0, 0.0, 7.198417116689167e-07, 0.0, 0.0, 0.0, 0.0, 0.0, 0.0, 5.042432611032905e-07, -3.162290895392973e-36, 0.0, 0.0, 0.0, 0.0, 3.162290895392973e-36, 5.042432611032905e-07, 0.0, 0.0, 0.0, 0.0, 0.0, 0.0, 9.99035434874816e-10]
---
header: 
  seq: 835
  stamp: 
    secs: 1518209546
    nsecs:  12293100
  frame_id: "swarmone/odom"
child_frame_id: "swarmone/base_link"
pose: 
  pose: 
    position: 
      x: 0.0
      y: 0.0
      z: 0.0
    orientation: 
      x: 0.0
      y: 0.0
      z: 0.692537228315
      w: 0.721382136872
  covariance: [2025527.274056936, -71982.70496912129, 0.0, 0.0, 0.0, 0.0, -71982.70496912145, 2562.3981624685816, 0.0, 0.0, 0.0, 0.0, 0.0, 0.0, 5.932315199605578e-07, 0.0, 0.0, 0.0, 0.0, 0.0, 0.0, 4.947296344056941e-07, -8.914171252832326e-32, 0.0, 0.0, 0.0, 0.0, 8.914171252832326e-32, 4.947296344056941e-07, 0.0, 0.0, 0.0, 0.0, 0.0, 0.0, 9.594426878214591e-07]
twist: 
  twist: 
    linear: 
      x: 0.0
      y: 0.0
      z: 0.0
    angular: 
      x: 0.0
      y: 0.0
      z: 0.000124424127593
  covariance: [9.999996233882768e-10, 0.0, 0.0, 0.0, 0.0, 0.0, 0.0, 1939.2107167966517, 0.0, 0.0, 0.0, 0.0, 0.0, 0.0, 5.324697699731566e-07, 0.0, 0.0, 0.0, 0.0, 0.0, 0.0, 3.974052108364179e-07, -9.280301575801726e-36, 0.0, 0.0, 0.0, 0.0, 9.280301575801726e-36, 3.974052108364179e-07, 0.0, 0.0, 0.0, 0.0, 0.0, 0.0, 9.968893952517412e-10]
---
header: 
  seq: 836
  stamp: 
    secs: 1518209546
    nsecs: 112135887
  frame_id: "swarmone/odom"
child_frame_id: "swarmone/base_link"
pose: 
  pose: 
    position: 
      x: 0.0
      y: 0.0
      z: 0.0
    orientation: 
      x: 0.0
      y: 0.0
      z: 0.696135470097
      w: 0.717910445162
  covariance: [2037660.0870685098, -72445.60956483892, 0.0, 0.0, 0.0, 0.0, -72445.60956483909, 2579.9783417229364, 0.0, 0.0, 0.0, 0.0, 0.0, 0.0, 5.955847678170823e-07, 0.0, 0.0, 0.0, 0.0, 0.0, 0.0, 4.965491209369748e-07, -6.504553127020599e-32, 0.0, 0.0, 0.0, 0.0, 6.504553127020599e-32, 4.965491209369748e-07, 0.0, 0.0, 0.0, 0.0, 0.0, 0.0, 9.737478025677076e-07]
twist: 
  twist: 
    linear: 
      x: 0.0
      y: 0.0
      z: 0.0
    angular: 
      x: 0.0
      y: 0.0
      z: 0.000122605578201
  covariance: [9.999996238832968e-10, 0.0, 0.0, 0.0, 0.0, 0.0, 0.0, 1946.1744846303152, 0.0, 0.0, 0.0, 0.0, 0.0, 0.0, 5.345451172015632e-07, 0.0, 0.0, 0.0, 0.0, 0.0, 0.0, 3.982698179012851e-07, -9.651532767660835e-36, 0.0, 0.0, 0.0, 0.0, 9.651532767660835e-36, 3.982698179012851e-07, 0.0, 0.0, 0.0, 0.0, 0.0, 0.0, 9.96934859014524e-10]
---
header: 
  seq: 837
  stamp: 
    secs: 1518209546
    nsecs: 212758303
  frame_id: "swarmone/odom"
child_frame_id: "swarmone/base_link"
pose: 
  pose: 
    position: 
      x: 0.0
      y: 0.0
      z: 0.0
    orientation: 
      x: 0.0
      y: 0.0
      z: 0.692537228912
      w: 0.721382136298
  covariance: [2049950.81592286, -72853.03092266488, 0.0, 0.0, 0.0, 0.0, -72853.03092266506, 2593.4214667930714, 0.0, 0.0, 0.0, 0.0, 0.0, 0.0, 5.932315818083267e-07, 0.0, 0.0, 0.0, 0.0, 0.0, 0.0, 4.947298246187039e-07, 4.450254814773499e-31, 0.0, 0.0, 0.0, 0.0, -4.450254814773499e-31, 4.947298246187039e-07, 0.0, 0.0, 0.0, 0.0, 0.0, 0.0, 9.594426878229002e-07]
twist: 
  twist: 
    linear: 
      x: 0.0
      y: 0.0
      z: 0.0
    angular: 
      x: 0.0
      y: 0.0
      z: 0.000124424128281
  covariance: [9.999996269755736e-10, 0.0, 0.0, 0.0, 0.0, 0.0, 0.0, 1953.2094826221212, 0.0, 0.0, 0.0, 0.0, 0.0, 0.0, 5.324698923040598e-07, 0.0, 0.0, 0.0, 0.0, 0.0, 0.0, 3.9740601727436277e-07, -7.766429782021437e-35, 0.0, 0.0, 0.0, 0.0, 7.766429782021437e-35, 3.9740601727436277e-07, 0.0, 0.0, 0.0, 0.0, 0.0, 0.0, 9.968893952517846e-10]
---
header: 
  seq: 838
  stamp: 
    secs: 1518209546
    nsecs: 312470675
  frame_id: "swarmone/odom"
child_frame_id: "swarmone/base_link"
pose: 
  pose: 
    position: 
      x: 0.0
      y: 0.0
      z: 0.0
    orientation: 
      x: 0.0
      y: 0.0
      z: 0.696135470097
      w: 0.717910445163
  covariance: [2062184.4426927122, -73319.79189321613, 0.0, 0.0, 0.0, 0.0, -73319.79189321627, 2611.1484926989074, 0.0, 0.0, 0.0, 0.0, 0.0, 0.0, 5.955847588904431e-07, 0.0, 0.0, 0.0, 0.0, 0.0, 0.0, 4.965490932772596e-07, -6.465534942150737e-32, 0.0, 0.0, 0.0, 0.0, 6.465534942150737e-32, 4.965490932772596e-07, 0.0, 0.0, 0.0, 0.0, 0.0, 0.0, 9.737478025674893e-07]
twist: 
  twist: 
    linear: 
      x: 0.0
      y: 0.0
      z: 0.0
    angular: 
      x: 0.0
      y: 0.0
      z: 0.000122605578121
  covariance: [9.999996233617251e-10, 0.0, 0.0, 0.0, 0.0, 0.0, 0.0, 1960.1975648567557, 0.0, 0.0, 0.0, 0.0, 0.0, 0.0, 5.34545099467293e-07, 0.0, 0.0, 0.0, 0.0, 0.0, 0.0, 3.9826969949759083e-07, 6.135376440464071e-38, 0.0, 0.0, 0.0, 0.0, -6.135376440464071e-38, 3.9826969949759083e-07, 0.0, 0.0, 0.0, 0.0, 0.0, 0.0, 9.96934859014518e-10]
---
header: 
  seq: 839
  stamp: 
    secs: 1518209546
    nsecs: 412350655
  frame_id: "swarmone/odom"
child_frame_id: "swarmone/base_link"
pose: 
  pose: 
    position: 
      x: 0.0
      y: 0.0
      z: 0.0
    orientation: 
      x: 0.0
      y: 0.0
      z: 0.688921673715
      w: 0.724835793463
  covariance: [2074501.5482329852, -73728.10761361023, 0.0, 0.0, 0.0, 0.0, -73728.1076136104, 2624.6217427366455, 0.0, 0.0, 0.0, 0.0, 0.0, 0.0, 5.908507447233279e-07, 0.0, 0.0, 0.0, 0.0, 0.0, 0.0, 4.928970074857507e-07, 9.982437206282327e-31, 0.0, 0.0, 0.0, 0.0, -9.982437206282327e-31, 4.928970074857507e-07, 0.0, 0.0, 0.0, 0.0, 0.0, 0.0, 9.451375730755682e-07]
twist: 
  twist: 
    linear: 
      x: 0.0
      y: 0.0
      z: 0.0
    angular: 
      x: 0.0
      y: 0.0
      z: 0.000126297436994
  covariance: [9.99999624032097e-10, 0.0, 0.0, 0.0, 0.0, 0.0, 0.0, 1967.2140893454152, 0.0, 0.0, 0.0, 0.0, 0.0, 0.0, 5.303758710417857e-07, 0.0, 0.0, 0.0, 0.0, 0.0, 0.0, 3.9653835595954824e-07, 1.8433476082637153e-34, 0.0, 0.0, 0.0, 0.0, -1.8433476082637153e-34, 3.9653835595954824e-07, 0.0, 0.0, 0.0, 0.0, 0.0, 0.0, 9.96842562499128e-10]
---
header: 
  seq: 840
  stamp: 
    secs: 1518209546
    nsecs: 511967182
  frame_id: "swarmone/odom"
child_frame_id: "swarmone/base_link"
pose: 
  pose: 
    position: 
      x: 0.0
      y: 0.0
      z: 0.0
    orientation: 
      x: 0.0
      y: 0.0
      z: 0.699717162959
      w: 0.714419968829
  covariance: [2086834.6494520816, -74260.43555125798, 0.0, 0.0, 0.0, 0.0, -74260.43555125814, 2646.880877854697, 0.0, 0.0, 0.0, 0.0, 0.0, 0.0, 8.354612274417113e-07, 0.0, 0.0, 0.0, 0.0, 0.0, 0.0, 7.360598506957995e-07, -1.9909599813900813e-31, 0.0, 0.0, 0.0, 0.0, 1.9909599813900813e-31, 7.360598506957995e-07, 0.0, 0.0, 0.0, 0.0, 0.0, 0.0, 4.578636718588408e-06]
twist: 
  twist: 
    linear: 
      x: 0.0
      y: 0.0
      z: 0.0
    angular: 
      x: 0.0
      y: 0.0
      z: 2.61800721383e-05
  covariance: [9.999996229768144e-10, 0.0, 0.0, 0.0, 0.0, 0.0, 0.0, 1974.228770051578, 0.0, 0.0, 0.0, 0.0, 0.0, 0.0, 7.803016259398295e-07, 0.0, 0.0, 0.0, 0.0, 0.0, 0.0, 5.580478756208638e-07, 5.176778933769077e-35, 0.0, 0.0, 0.0, 0.0, -5.176778933769077e-35, 5.580478756208638e-07, 0.0, 0.0, 0.0, 0.0, 0.0, 0.0, 9.99345497868818e-10]
---
header: 
  seq: 841
  stamp: 
    secs: 1518209546
    nsecs: 612577438
  frame_id: "swarmone/odom"
child_frame_id: "swarmone/base_link"
pose: 
  pose: 
    position: 
      x: 0.0
      y: 0.0
      z: 0.0
    orientation: 
      x: 0.0
      y: 0.0
      z: 0.688921701955
      w: 0.724835766622
  covariance: [2099363.7372557954, -74613.19685830925, 0.0, 0.0, 0.0, 0.0, -74613.1968583094, 2656.1404877034342, 0.0, 0.0, 0.0, 0.0, 0.0, 0.0, 6.0915164838875e-07, 0.0, 0.0, 0.0, 0.0, 0.0, 0.0, 5.071966881732553e-07, -2.369506753744246e-31, 0.0, 0.0, 0.0, 0.0, 2.369506753744246e-31, 5.071966881732553e-07, 0.0, 0.0, 0.0, 0.0, 0.0, 0.0, 1.0595784910456887e-06]
twist: 
  twist: 
    linear: 
      x: 0.0
      y: 0.0
      z: 0.0
    angular: 
      x: 0.0
      y: 0.0
      z: 0.000112720613418
  covariance: [9.999996269274751e-10, 0.0, 0.0, 0.0, 0.0, 0.0, 0.0, 1981.3303376313534, 0.0, 0.0, 0.0, 0.0, 0.0, 0.0, 5.466203252045695e-07, 0.0, 0.0, 0.0, 0.0, 0.0, 0.0, 4.034058898267929e-07, -2.9521580185505617e-35, 0.0, 0.0, 0.0, 0.0, 2.9521580185505617e-35, 4.034058898267929e-07, 0.0, 0.0, 0.0, 0.0, 0.0, 0.0, 9.971819832647665e-10]
---
header: 
  seq: 842
  stamp: 
    secs: 1518209546
    nsecs: 712127924
  frame_id: "swarmone/odom"
child_frame_id: "swarmone/base_link"
pose: 
  pose: 
    position: 
      x: 0.0
      y: 0.0
      z: 0.0
    orientation: 
      x: 0.0
      y: 0.0
      z: 0.696135469495
      w: 0.717910445746
  covariance: [2111806.6209234977, -75150.39294545524, 0.0, 0.0, 0.0, 0.0, -75150.39294545542, 2678.607138495424, 0.0, 0.0, 0.0, 0.0, 0.0, 0.0, 5.955847477955308e-07, 0.0, 0.0, 0.0, 0.0, 0.0, 0.0, 4.965490589309574e-07, -3.1632262919411024e-31, 0.0, 0.0, 0.0, 0.0, 3.1632262919411024e-31, 4.965490589309574e-07, 0.0, 0.0, 0.0, 0.0, 0.0, 0.0, 9.737478025672203e-07]
twist: 
  twist: 
    linear: 
      x: 0.0
      y: 0.0
      z: 0.0
    angular: 
      x: 0.0
      y: 0.0
      z: 0.000122605578004
  covariance: [9.9999962271159e-10, 0.0, 0.0, 0.0, 0.0, 0.0, 0.0, 1988.3738492067057, 0.0, 0.0, 0.0, 0.0, 0.0, 0.0, 5.345450774374222e-07, 0.0, 0.0, 0.0, 0.0, 0.0, 0.0, 3.9826955263697735e-07, -1.0564118067213953e-34, 0.0, 0.0, 0.0, 0.0, 1.0564118067213953e-34, 3.9826955263697735e-07, 0.0, 0.0, 0.0, 0.0, 0.0, 0.0, 9.969348590145102e-10]
---
header: 
  seq: 843
  stamp: 
    secs: 1518209546
    nsecs: 812751532
  frame_id: "swarmone/odom"
child_frame_id: "swarmone/base_link"
pose: 
  pose: 
    position: 
      x: 0.0
      y: 0.0
      z: 0.0
    orientation: 
      x: 0.0
      y: 0.0
      z: 0.696135528714
      w: 0.717910388323
  covariance: [2124453.88269702, -75569.85035184449, 0.0, 0.0, 0.0, 0.0, -75569.8503518447, 2692.453382786072, 0.0, 0.0, 0.0, 0.0, 0.0, 0.0, 5.955848207813497e-07, 0.0, 0.0, 0.0, 0.0, 0.0, 0.0, 4.9654932612077e-07, -2.3001616888486914e-31, 0.0, 0.0, 0.0, 0.0, 2.3001616888486914e-31, 4.9654932612077e-07, 0.0, 0.0, 0.0, 0.0, 0.0, 0.0, 9.737478025690033e-07]
twist: 
  twist: 
    linear: 
      x: 0.0
      y: 0.0
      z: 0.0
    angular: 
      x: 0.0
      y: 0.0
      z: 0.000153256973293
  covariance: [9.999996269802199e-10, 0.0, 0.0, 0.0, 0.0, 0.0, 0.0, 1995.510237313467, 0.0, 0.0, 0.0, 0.0, 0.0, 0.0, 5.345452224257403e-07, 0.0, 0.0, 0.0, 0.0, 0.0, 0.0, 3.9827052046977386e-07, -2.3769257451700383e-35, 0.0, 0.0, 0.0, 0.0, 2.3769257451700383e-35, 3.9827052046977386e-07, 0.0, 0.0, 0.0, 0.0, 0.0, 0.0, 9.969348590145604e-10]
---
header: 
  seq: 844
  stamp: 
    secs: 1518209546
    nsecs: 912487030
  frame_id: "swarmone/odom"
child_frame_id: "swarmone/base_link"
pose: 
  pose: 
    position: 
      x: 0.0
      y: 0.0
      z: 0.0
    orientation: 
      x: 0.0
      y: 0.0
      z: 0.69613547412
      w: 0.717910441261
  covariance: [2137049.250672853, -75987.49071774368, 0.0, 0.0, 0.0, 0.0, -75987.4907177439, 2706.236869143671, 0.0, 0.0, 0.0, 0.0, 0.0, 0.0, 5.979109287331447e-07, 0.0, 0.0, 0.0, 0.0, 0.0, 0.0, 4.983555030576079e-07, 1.8283589501845425e-31, 0.0, 0.0, 0.0, 0.0, -1.8283589501845425e-31, 4.983555030576079e-07, 0.0, 0.0, 0.0, 0.0, 0.0, 0.0, 9.880529173136295e-07]
twist: 
  twist: 
    linear: 
      x: 0.0
      y: 0.0
      z: 0.0
    angular: 
      x: 0.0
      y: 0.0
      z: 0.000120839421677
  covariance: [9.999996234543571e-10, 0.0, 0.0, 0.0, 0.0, 0.0, 0.0, 2002.6004748730754, 0.0, 0.0, 0.0, 0.0, 0.0, 0.0, 5.3660209060465e-07, 0.0, 0.0, 0.0, 0.0, 0.0, 0.0, 3.991317480741792e-07, 4.285145231398975e-36, 0.0, 0.0, 0.0, 0.0, -4.285145231398975e-36, 3.991317480741792e-07, 0.0, 0.0, 0.0, 0.0, 0.0, 0.0, 9.96979012949123e-10]
---
header: 
  seq: 845
  stamp: 
    secs: 1518209547
    nsecs:  12088299
  frame_id: "swarmone/odom"
child_frame_id: "swarmone/base_link"
pose: 
  pose: 
    position: 
      x: 0.0
      y: 0.0
      z: 0.0
    orientation: 
      x: 0.0
      y: 0.0
      z: 0.692537228919
      w: 0.721382136292
  covariance: [2149687.2245357013, -76406.46061270322, 0.0, 0.0, 0.0, 0.0, -76406.46061270343, 2720.0619345486334, 0.0, 0.0, 0.0, 0.0, 0.0, 0.0, 5.932315115698293e-07, 0.0, 0.0, 0.0, 0.0, 0.0, 0.0, 4.947296079382256e-07, 7.777992109904766e-31, 0.0, 0.0, 0.0, 0.0, -7.777992109904766e-31, 4.947296079382256e-07, 0.0, 0.0, 0.0, 0.0, 0.0, 0.0, 9.594426878212025e-07]
twist: 
  twist: 
    linear: 
      x: 0.0
      y: 0.0
      z: 0.0
    angular: 
      x: 0.0
      y: 0.0
      z: 0.000124424127648
  covariance: [9.999996229156175e-10, 0.0, 0.0, 0.0, 0.0, 0.0, 0.0, 2009.6979170580405, 0.0, 0.0, 0.0, 0.0, 0.0, 0.0, 5.324697531423194e-07, 0.0, 0.0, 0.0, 0.0, 0.0, 0.0, 3.974050937651359e-07, -1.7740578175122943e-37, 0.0, 0.0, 0.0, 0.0, 1.7740578175122943e-37, 3.974050937651359e-07, 0.0, 0.0, 0.0, 0.0, 0.0, 0.0, 9.968893952517354e-10]
---
header: 
  seq: 846
  stamp: 
    secs: 1518209547
    nsecs: 112563372
  frame_id: "swarmone/odom"
child_frame_id: "swarmone/base_link"
pose: 
  pose: 
    position: 
      x: 0.0
      y: 0.0
      z: 0.0
    orientation: 
      x: 0.0
      y: 0.0
      z: 0.692537730525
      w: 0.721381654743
  covariance: [2162491.9968555886, -76895.06254310132, 0.0, 0.0, 0.0, 0.0, -76895.06254310157, 2738.620309350706, 0.0, 0.0, 0.0, 0.0, 0.0, 0.0, 7.800722574735034e-07, 0.0, 0.0, 0.0, 0.0, 0.0, 0.0, 6.692480529789035e-07, 1.9561723834707696e-31, 0.0, 0.0, 0.0, 0.0, -1.9561723834707696e-31, 6.692480529789035e-07, 0.0, 0.0, 0.0, 0.0, 0.0, 0.0, 3.047989440754609e-06]
twist: 
  twist: 
    linear: 
      x: 0.0
      y: 0.0
      z: 0.0
    angular: 
      x: 0.0
      y: 0.0
      z: 3.9305717501e-05
  covariance: [9.999996263947623e-10, 0.0, 0.0, 0.0, 0.0, 0.0, 0.0, 2016.874602012794, 0.0, 0.0, 0.0, 0.0, 0.0, 0.0, 7.168152880153409e-07, 0.0, 0.0, 0.0, 0.0, 0.0, 0.0, 5.018885526368273e-07, -9.763285131256678e-35, 0.0, 0.0, 0.0, 0.0, 9.763285131256678e-35, 5.018885526368273e-07, 0.0, 0.0, 0.0, 0.0, 0.0, 0.0, 9.990173565747528e-10]
---
header: 
  seq: 847
  stamp: 
    secs: 1518209547
    nsecs: 212012529
  frame_id: "swarmone/odom"
child_frame_id: "swarmone/base_link"
pose: 
  pose: 
    position: 
      x: 0.0
      y: 0.0
      z: 0.0
    orientation: 
      x: 0.0
      y: 0.0
      z: 0.692537221435
      w: 0.721382143477
  covariance: [2175226.056208362, -77381.06313712444, 0.0, 0.0, 0.0, 0.0, -77381.0631371247, 2757.0841796957598, 0.0, 0.0, 0.0, 0.0, 0.0, 0.0, 5.884418949666919e-07, 0.0, 0.0, 0.0, 0.0, 0.0, 0.0, 4.910509124499806e-07, -1.1434147205485835e-31, 0.0, 0.0, 0.0, 0.0, 1.1434147205485835e-31, 4.910509124499806e-07, 0.0, 0.0, 0.0, 0.0, 0.0, 0.0, 9.308324583288028e-07]
twist: 
  twist: 
    linear: 
      x: 0.0
      y: 0.0
      z: 0.0
    angular: 
      x: 0.0
      y: 0.0
      z: 0.000128228016481
  covariance: [9.999996223036904e-10, 0.0, 0.0, 0.0, 0.0, 0.0, 0.0, 2023.9948188354233, 0.0, 0.0, 0.0, 0.0, 0.0, 0.0, 5.282630506159008e-07, 0.0, 0.0, 0.0, 0.0, 0.0, 0.0, 3.9566848001649257e-07, 6.86396726407756e-35, 0.0, 0.0, 0.0, 0.0, -6.86396726407756e-35, 3.9566848001649257e-07, 0.0, 0.0, 0.0, 0.0, 0.0, 0.0, 9.967942979775924e-10]
---
header: 
  seq: 848
  stamp: 
    secs: 1518209547
    nsecs: 312468052
  frame_id: "swarmone/odom"
child_frame_id: "swarmone/base_link"
pose: 
  pose: 
    position: 
      x: 0.0
      y: 0.0
      z: 0.0
    orientation: 
      x: 0.0
      y: 0.0
      z: 0.692537217996
      w: 0.721382146778
  covariance: [2188149.824113401, -77874.42008234127, 0.0, 0.0, 0.0, 0.0, -77874.42008234153, 2775.8324728104208, 0.0, 0.0, 0.0, 0.0, 0.0, 0.0, 5.860046156670093e-07, 0.0, 0.0, 0.0, 0.0, 0.0, 0.0, 4.891916375561677e-07, -1.7623713885762148e-31, 0.0, 0.0, 0.0, 0.0, 1.7623713885762148e-31, 4.891916375561677e-07, 0.0, 0.0, 0.0, 0.0, 0.0, 0.0, 9.165273435843216e-07]
twist: 
  twist: 
    linear: 
      x: 0.0
      y: 0.0
      z: 0.0
    angular: 
      x: 0.0
      y: 0.0
      z: 0.000130218534982
  covariance: [9.999996263174912e-10, 0.0, 0.0, 0.0, 0.0, 0.0, 0.0, 2031.2040869685952, 0.0, 0.0, 0.0, 0.0, 0.0, 0.0, 5.261313341638261e-07, 0.0, 0.0, 0.0, 0.0, 0.0, 0.0, 3.947973908486691e-07, -2.815199115072184e-35, 0.0, 0.0, 0.0, 0.0, 2.815199115072184e-35, 3.947973908486691e-07, 0.0, 0.0, 0.0, 0.0, 0.0, 0.0, 9.96744535010048e-10]
---
header: 
  seq: 849
  stamp: 
    secs: 1518209547
    nsecs: 412071705
  frame_id: "swarmone/odom"
child_frame_id: "swarmone/base_link"
pose: 
  pose: 
    position: 
      x: 0.0
      y: 0.0
      z: 0.0
    orientation: 
      x: 0.0
      y: 0.0
      z: 0.692537255833
      w: 0.721382110454
  covariance: [2201024.590374893, -78366.01264889794, 0.0, 0.0, 0.0, 0.0, -78366.01264889822, 2794.5183278877475, 0.0, 0.0, 0.0, 0.0, 0.0, 0.0, 6.113247187579562e-07, 0.0, 0.0, 0.0, 0.0, 0.0, 0.0, 5.089274209217102e-07, 5.309023956547456e-31, 0.0, 0.0, 0.0, 0.0, -5.309023956547456e-31, 5.089274209217102e-07, 0.0, 0.0, 0.0, 0.0, 0.0, 0.0, 1.073883605790016e-06]
twist: 
  twist: 
    linear: 
      x: 0.0
      y: 0.0
      z: 0.0
    angular: 
      x: 0.0
      y: 0.0
      z: 0.000111226029807
  covariance: [9.999996229252134e-10, 0.0, 0.0, 0.0, 0.0, 0.0, 0.0, 2038.3691077799963, 0.0, 0.0, 0.0, 0.0, 0.0, 0.0, 5.485720644351083e-07, 0.0, 0.0, 0.0, 0.0, 0.0, 0.0, 4.042523702432631e-07, 2.9587706507747674e-35, 0.0, 0.0, 0.0, 0.0, -2.9587706507747674e-35, 4.042523702432631e-07, 0.0, 0.0, 0.0, 0.0, 0.0, 0.0, 9.97219347863269e-10]
---
header: 
  seq: 850
  stamp: 
    secs: 1518209547
    nsecs: 512492418
  frame_id: "swarmone/odom"
child_frame_id: "swarmone/base_link"
pose: 
  pose: 
    position: 
      x: 0.0
      y: 0.0
      z: 0.0
    orientation: 
      x: 0.0
      y: 0.0
      z: 0.692537217996
      w: 0.721382146779
  covariance: [2214066.2658163197, -78864.08464975753, 0.0, 0.0, 0.0, 0.0, -78864.08464975779, 2813.4550971889507, 0.0, 0.0, 0.0, 0.0, 0.0, 0.0, 5.86004613230201e-07, 0.0, 0.0, 0.0, 0.0, 0.0, 0.0, 4.891916301849394e-07, -2.330757123212515e-31, 0.0, 0.0, 0.0, 0.0, 2.330757123212515e-31, 4.891916301849394e-07, 0.0, 0.0, 0.0, 0.0, 0.0, 0.0, 9.16527343584268e-07]
twist: 
  twist: 
    linear: 
      x: 0.0
      y: 0.0
      z: 0.0
    angular: 
      x: 0.0
      y: 0.0
      z: 0.000130218534932
  covariance: [9.999996261800905e-10, 0.0, 0.0, 0.0, 0.0, 0.0, 0.0, 2045.6099476023385, 0.0, 0.0, 0.0, 0.0, 0.0, 0.0, 5.261313293931409e-07, 0.0, 0.0, 0.0, 0.0, 0.0, 0.0, 3.947973600772537e-07, -2.0540970590447003e-35, 0.0, 0.0, 0.0, 0.0, 2.0540970590447003e-35, 3.947973600772537e-07, 0.0, 0.0, 0.0, 0.0, 0.0, 0.0, 9.96744535010046e-10]
---
header: 
  seq: 851
  stamp: 
    secs: 1518209547
    nsecs: 611974239
  frame_id: "swarmone/odom"
child_frame_id: "swarmone/base_link"
pose: 
  pose: 
    position: 
      x: 0.0
      y: 0.0
      z: 0.0
    orientation: 
      x: 0.0
      y: 0.0
      z: 0.696135463249
      w: 0.717910451803
  covariance: [2227046.9078183034, -79359.92219506652, 0.0, 0.0, 0.0, 0.0, -79359.92219506679, 2832.3111964590958, 0.0, 0.0, 0.0, 0.0, 0.0, 0.0, 5.908507167630772e-07, 0.0, 0.0, 0.0, 0.0, 0.0, 0.0, 4.928969217236187e-07, -5.636289145766309e-31, 0.0, 0.0, 0.0, 0.0, 5.636289145766309e-31, 4.928969217236187e-07, 0.0, 0.0, 0.0, 0.0, 0.0, 0.0, 9.451375730748988e-07]
twist: 
  twist: 
    linear: 
      x: 0.0
      y: 0.0
      z: 0.0
    angular: 
      x: 0.0
      y: 0.0
      z: 0.000126297436755
  covariance: [9.999996224352884e-10, 0.0, 0.0, 0.0, 0.0, 0.0, 0.0, 2052.7999822215193, 0.0, 0.0, 0.0, 0.0, 0.0, 0.0, 5.303758157884381e-07, 0.0, 0.0, 0.0, 0.0, 0.0, 0.0, 3.9653799136620807e-07, -3.841651472729853e-35, 0.0, 0.0, 0.0, 0.0, 3.841651472729853e-35, 3.9653799136620807e-07, 0.0, 0.0, 0.0, 0.0, 0.0, 0.0, 9.96842562499108e-10]
---
header: 
  seq: 852
  stamp: 
    secs: 1518209547
    nsecs: 712458372
  frame_id: "swarmone/odom"
child_frame_id: "swarmone/base_link"
pose: 
  pose: 
    position: 
      x: 0.0
      y: 0.0
      z: 0.0
    orientation: 
      x: 0.0
      y: 0.0
      z: 0.696135520156
      w: 0.717910396622
  covariance: [2240224.810048018, -79797.33397121866, 0.0, 0.0, 0.0, 0.0, -79797.33397121892, 2846.7600547061784, 0.0, 0.0, 0.0, 0.0, 0.0, 0.0, 5.908507867035033e-07, 0.0, 0.0, 0.0, 0.0, 0.0, 0.0, 4.928971769833897e-07, 1.6620829984239025e-31, 0.0, 0.0, 0.0, 0.0, -1.6620829984239025e-31, 4.928971769833897e-07, 0.0, 0.0, 0.0, 0.0, 0.0, 0.0, 9.451375730765707e-07]
twist: 
  twist: 
    linear: 
      x: 0.0
      y: 0.0
      z: 0.0
    angular: 
      x: 0.0
      y: 0.0
      z: 0.000157871796673
  covariance: [9.99999626430487e-10, 0.0, 0.0, 0.0, 0.0, 0.0, 0.0, 2060.079548252991, 0.0, 0.0, 0.0, 0.0, 0.0, 0.0, 5.30375953986516e-07, 0.0, 0.0, 0.0, 0.0, 0.0, 0.0, 3.965389030307164e-07, -1.4260617815316797e-35, 0.0, 0.0, 0.0, 0.0, 1.4260617815316791e-35, 3.965389030307164e-07, 0.0, 0.0, 0.0, 0.0, 0.0, 0.0, 9.96842562499158e-10]
---
header: 
  seq: 853
  stamp: 
    secs: 1518209547
    nsecs: 811981201
  frame_id: "swarmone/odom"
child_frame_id: "swarmone/base_link"
pose: 
  pose: 
    position: 
      x: 0.0
      y: 0.0
      z: 0.0
    orientation: 
      x: 0.0
      y: 0.0
      z: 0.69253722548
      w: 0.721382139594
  covariance: [2253338.0673141805, -80232.51077365028, 0.0, 0.0, 0.0, 0.0, -80232.51077365055, 2861.132601378369, 0.0, 0.0, 0.0, 0.0, 0.0, 0.0, 5.908507196577229e-07, 0.0, 0.0, 0.0, 0.0, 0.0, 0.0, 4.928969305654166e-07, -4.378095485440709e-31, 0.0, 0.0, 0.0, 0.0, 4.378095485440709e-31, 4.928969305654166e-07, 0.0, 0.0, 0.0, 0.0, 0.0, 0.0, 9.451375730749687e-07]
twist: 
  twist: 
    linear: 
      x: 0.0
      y: 0.0
      z: 0.0
    angular: 
      x: 0.0
      y: 0.0
      z: 0.000126297436825
  covariance: [9.999996226003602e-10, 0.0, 0.0, 0.0, 0.0, 0.0, 0.0, 2067.306421963562, 0.0, 0.0, 0.0, 0.0, 0.0, 0.0, 5.303758215114493e-07, 0.0, 0.0, 0.0, 0.0, 0.0, 0.0, 3.9653802917894924e-07, 3.803113189100142e-37, 0.0, 0.0, 0.0, 0.0, -3.803113189100035e-37, 3.9653802917894924e-07, 0.0, 0.0, 0.0, 0.0, 0.0, 0.0, 9.968425624991098e-10]
---
header: 
  seq: 854
  stamp: 
    secs: 1518209547
    nsecs: 912454367
  frame_id: "swarmone/odom"
child_frame_id: "swarmone/base_link"
pose: 
  pose: 
    position: 
      x: 0.0
      y: 0.0
      z: 0.0
    orientation: 
      x: 0.0
      y: 0.0
      z: 0.696135459831
      w: 0.717910455116
  covariance: [2266634.000963194, -80740.3005259459, 0.0, 0.0, 0.0, 0.0, -80740.30052594616, 2880.4391715006077, 0.0, 0.0, 0.0, 0.0, 0.0, 0.0, 5.884419670630239e-07, 0.0, 0.0, 0.0, 0.0, 0.0, 0.0, 4.910511323572715e-07, 3.570406730930028e-31, 0.0, 0.0, 0.0, 0.0, -3.570406730930028e-31, 4.910511323572715e-07, 0.0, 0.0, 0.0, 0.0, 0.0, 0.0, 9.308324583304519e-07]
twist: 
  twist: 
    linear: 
      x: 0.0
      y: 0.0
      z: 0.0
    angular: 
      x: 0.0
      y: 0.0
      z: 0.000128228017274
  covariance: [9.999996263872445e-10, 0.0, 0.0, 0.0, 0.0, 0.0, 0.0, 2074.6194349398365, 0.0, 0.0, 0.0, 0.0, 0.0, 0.0, 5.28263192465035e-07, 0.0, 0.0, 0.0, 0.0, 0.0, 0.0, 3.9566940463081567e-07, -3.805476970553228e-35, 0.0, 0.0, 0.0, 0.0, 3.80547697055323e-35, 3.9566940463081567e-07, 0.0, 0.0, 0.0, 0.0, 0.0, 0.0, 9.967942979776447e-10]
---
header: 
  seq: 855
  stamp: 
    secs: 1518209548
    nsecs:  11988163
  frame_id: "swarmone/odom"
child_frame_id: "swarmone/base_link"
pose: 
  pose: 
    position: 
      x: 0.0
      y: 0.0
      z: 0.0
    orientation: 
      x: 0.0
      y: 0.0
      z: 0.696135524435
      w: 0.717910392473
  covariance: [2279872.2000370426, -81179.62395495767, 0.0, 0.0, 0.0, 0.0, -81179.62395495792, 2894.9485410173424, 0.0, 0.0, 0.0, 0.0, 0.0, 0.0, 5.932315068667928e-07, 0.0, 0.0, 0.0, 0.0, 0.0, 0.0, 4.947296342247568e-07, -1.191601865525807e-31, 0.0, 0.0, 0.0, 0.0, 1.191601865525807e-31, 4.947296342247568e-07, 0.0, 0.0, 0.0, 0.0, 0.0, 0.0, 9.594426878210875e-07]
twist: 
  twist: 
    linear: 
      x: 0.0
      y: 0.0
      z: 0.0
    angular: 
      x: 0.0
      y: 0.0
      z: 0.000155530159472
  covariance: [9.999996226445117e-10, 0.0, 0.0, 0.0, 0.0, 0.0, 0.0, 2081.8810661842417, 0.0, 0.0, 0.0, 0.0, 0.0, 0.0, 5.324697438172508e-07, 0.0, 0.0, 0.0, 0.0, 0.0, 0.0, 3.974050317551458e-07, 4.1858236897785365e-36, 0.0, 0.0, 0.0, 0.0, -4.1858236897785365e-36, 3.974050317551458e-07, 0.0, 0.0, 0.0, 0.0, 0.0, 0.0, 9.968893952517323e-10]
---
header: 
  seq: 856
  stamp: 
    secs: 1518209548
    nsecs: 112473011
  frame_id: "swarmone/odom"
child_frame_id: "swarmone/base_link"
pose: 
  pose: 
    position: 
      x: 0.0
      y: 0.0
      z: 0.0
    orientation: 
      x: 0.0
      y: 0.0
      z: 0.688921670252
      w: 0.724835796755
  covariance: [2293299.5696838954, -81625.14445029422, 0.0, 0.0, 0.0, 0.0, -81625.14445029445, 2909.6604322773005, 0.0, 0.0, 0.0, 0.0, 0.0, 0.0, 5.884419678824292e-07, 0.0, 0.0, 0.0, 0.0, 0.0, 0.0, 4.910511347363571e-07, -2.263896892986993e-31, 0.0, 0.0, 0.0, 0.0, 2.263896892986993e-31, 4.910511347363571e-07, 0.0, 0.0, 0.0, 0.0, 0.0, 0.0, 9.308324583304715e-07]
twist: 
  twist: 
    linear: 
      x: 0.0
      y: 0.0
      z: 0.0
    angular: 
      x: 0.0
      y: 0.0
      z: 0.000128228017328
  covariance: [9.999996264333906e-10, 0.0, 0.0, 0.0, 0.0, 0.0, 0.0, 2089.2292572638466, 0.0, 0.0, 0.0, 0.0, 0.0, 0.0, 5.282631940813607e-07, 0.0, 0.0, 0.0, 0.0, 0.0, 0.0, 3.9566941525864664e-07, -1.165990629980728e-34, 0.0, 0.0, 0.0, 0.0, 1.165990629980728e-34, 3.9566941525864664e-07, 0.0, 0.0, 0.0, 0.0, 0.0, 0.0, 9.967942979776453e-10]
---
header: 
  seq: 857
  stamp: 
    secs: 1518209548
    nsecs: 211971998
  frame_id: "swarmone/odom"
child_frame_id: "swarmone/base_link"
pose: 
  pose: 
    position: 
      x: 0.0
      y: 0.0
      z: 0.0
    orientation: 
      x: 0.0
      y: 0.0
      z: 0.69253724147
      w: 0.721382124243
  covariance: [2306646.5600613514, -82201.77160429231, 0.0, 0.0, 0.0, 0.0, -82201.77160429253, 2933.799296887405, 0.0, 0.0, 0.0, 0.0, 0.0, 0.0, 6.024838828223029e-07, 0.0, 0.0, 0.0, 0.0, 0.0, 0.0, 5.019296517211121e-07, -4.090691150115865e-31, 0.0, 0.0, 0.0, 0.0, 4.090691150115865e-31, 5.019296517211121e-07, 0.0, 0.0, 0.0, 0.0, 0.0, 0.0, 1.0166631468054338e-06]
twist: 
  twist: 
    linear: 
      x: 0.0
      y: 0.0
      z: 0.0
    angular: 
      x: 0.0
      y: 0.0
      z: 0.000117455484632
  covariance: [9.99999622504484e-10, 0.0, 0.0, 0.0, 0.0, 0.0, 0.0, 2096.5223777840324, 0.0, 0.0, 0.0, 0.0, 0.0, 0.0, 5.406619702177844e-07, 0.0, 0.0, 0.0, 0.0, 0.0, 0.0, 4.0084820083867726e-07, -2.5057079333753944e-37, 0.0, 0.0, 0.0, 0.0, 2.5057079333753944e-37, 4.0084820083867726e-07, 0.0, 0.0, 0.0, 0.0, 0.0, 0.0, 9.970636114130995e-10]
---
header: 
  seq: 858
  stamp: 
    secs: 1518209548
    nsecs: 312472582
  frame_id: "swarmone/odom"
child_frame_id: "swarmone/base_link"
pose: 
  pose: 
    position: 
      x: 0.0
      y: 0.0
      z: 0.0
    orientation: 
      x: 0.0
      y: 0.0
      z: 0.692537228315
      w: 0.721382136872
  covariance: [2320197.163109791, -82719.52536239901, 0.0, 0.0, 0.0, 0.0, -82719.52536239922, 2953.4948778193516, 0.0, 0.0, 0.0, 0.0, 0.0, 0.0, 5.932315735108338e-07, 0.0, 0.0, 0.0, 0.0, 0.0, 0.0, 4.947297990345084e-07, -1.5040726535324794e-31, 0.0, 0.0, 0.0, 0.0, 1.5040726535324794e-31, 4.947297990345084e-07, 0.0, 0.0, 0.0, 0.0, 0.0, 0.0, 9.594426878227007e-07]
twist: 
  twist: 
    linear: 
      x: 0.0
      y: 0.0
      z: 0.0
    angular: 
      x: 0.0
      y: 0.0
      z: 0.000124424128199
  covariance: [9.999996264954864e-10, 0.0, 0.0, 0.0, 0.0, 0.0, 0.0, 2103.9061295058123, 0.0, 0.0, 0.0, 0.0, 0.0, 0.0, 5.32469875869345e-07, 0.0, 0.0, 0.0, 0.0, 0.0, 0.0, 3.9740590829896154e-07, 1.0631810775412325e-34, 0.0, 0.0, 0.0, 0.0, -1.0631810775412334e-34, 3.9740590829896154e-07, 0.0, 0.0, 0.0, 0.0, 0.0, 0.0, 9.96889395251779e-10]
---
header: 
  seq: 859
  stamp: 
    secs: 1518209548
    nsecs: 411958456
  frame_id: "swarmone/odom"
child_frame_id: "swarmone/base_link"
pose: 
  pose: 
    position: 
      x: 0.0
      y: 0.0
      z: 0.0
    orientation: 
      x: 0.0
      y: 0.0
      z: 0.696135476942
      w: 0.717910438525
  covariance: [2333673.617483109, -83234.54335689465, 0.0, 0.0, 0.0, 0.0, -83234.54335689485, 2973.090726245005, 0.0, 0.0, 0.0, 0.0, 0.0, 0.0, 6.002104733577174e-07, 0.0, 0.0, 0.0, 0.0, 0.0, 0.0, 5.001489389569002e-07, 1.3908958343871022e-31, 0.0, 0.0, 0.0, 0.0, -1.3908958343871022e-31, 5.001489389569002e-07, 0.0, 0.0, 0.0, 0.0, 0.0, 0.0, 1.002358032059311e-06]
twist: 
  twist: 
    linear: 
      x: 0.0
      y: 0.0
      z: 0.0
    angular: 
      x: 0.0
      y: 0.0
      z: 0.000119123426039
  covariance: [9.9999962245171e-10, 0.0, 0.0, 0.0, 0.0, 0.0, 0.0, 2111.2323913895193, 0.0, 0.0, 0.0, 0.0, 0.0, 0.0, 5.386409441892474e-07, 0.0, 0.0, 0.0, 0.0, 0.0, 0.0, 3.9999108306274284e-07, -8.179181570739818e-35, 0.0, 0.0, 0.0, 0.0, 8.179181570739818e-35, 3.9999108306274284e-07, 0.0, 0.0, 0.0, 0.0, 0.0, 0.0, 9.97021912856683e-10]
---
header: 
  seq: 860
  stamp: 
    secs: 1518209548
    nsecs: 512481213
  frame_id: "swarmone/odom"
child_frame_id: "swarmone/base_link"
pose: 
  pose: 
    position: 
      x: 0.0
      y: 0.0
      z: 0.0
    orientation: 
      x: 0.0
      y: 0.0
      z: 0.706825499086
      w: 0.70738795144
  covariance: [2347358.984418537, -83688.99780981927, 0.0, 0.0, 0.0, 0.0, -83688.99780981948, 2988.1075811322944, 0.0, 0.0, 0.0, 0.0, 0.0, 0.0, 6.502205559730514e-07, 0.0, 0.0, 0.0, 0.0, 0.0, 0.0, 5.411604255152822e-07, -5.9062090290394606e-33, 0.0, 0.0, 0.0, 0.0, 5.9062090290394606e-33, 5.411604255152822e-07, 0.0, 0.0, 0.0, 0.0, 0.0, 0.0, 1.3599859007136085e-06]
twist: 
  twist: 
    linear: 
      x: 0.0
      y: 0.0
      z: 0.0
    angular: 
      x: 0.0
      y: 0.0
      z: 8.79129524564e-05
  covariance: [9.999996265829492e-10, 0.0, 0.0, 0.0, 0.0, 0.0, 0.0, 2118.6522710997474, 0.0, 0.0, 0.0, 0.0, 0.0, 0.0, 5.843600381390205e-07, 0.0, 0.0, 0.0, 0.0, 0.0, 0.0, 4.2070933428603374e-07, 2.3977138914160858e-36, 0.0, 0.0, 0.0, 0.0, -2.3977138914160858e-36, 4.2070933428603374e-07, 0.0, 0.0, 0.0, 0.0, 0.0, 0.0, 9.978021750984033e-10]
---
header: 
  seq: 861
  stamp: 
    secs: 1518209548
    nsecs: 611962318
  frame_id: "swarmone/odom"
child_frame_id: "swarmone/base_link"
pose: 
  pose: 
    position: 
      x: 0.0
      y: 0.0
      z: 0.0
    orientation: 
      x: 0.0
      y: 0.0
      z: 0.688921682454
      w: 0.724835785158
  covariance: [2360972.1393154874, -83936.47348510516, 0.0, 0.0, 0.0, 0.0, -83936.4734851054, 2988.5015035240162, 0.0, 0.0, 0.0, 0.0, 0.0, 0.0, 5.955847430691929e-07, 0.0, 0.0, 0.0, 0.0, 0.0, 0.0, 4.965490442475022e-07, 1.3282588348849352e-30, 0.0, 0.0, 0.0, 0.0, -1.3282588348849352e-30, 4.965490442475022e-07, 0.0, 0.0, 0.0, 0.0, 0.0, 0.0, 9.73747802567112e-07]
twist: 
  twist: 
    linear: 
      x: 0.0
      y: 0.0
      z: 0.0
    angular: 
      x: 0.0
      y: 0.0
      z: 0.000122605577923
  covariance: [9.999996224325217e-10, 0.0, 0.0, 0.0, 0.0, 0.0, 0.0, 2126.0123645715526, 0.0, 0.0, 0.0, 0.0, 0.0, 0.0, 5.345450680831373e-07, 0.0, 0.0, 0.0, 0.0, 0.0, 0.0, 3.982694908964816e-07, -9.629607321430752e-35, 0.0, 0.0, 0.0, 0.0, 9.629607321430752e-35, 3.982694908964816e-07, 0.0, 0.0, 0.0, 0.0, 0.0, 0.0, 9.96934859014507e-10]
---
header: 
  seq: 862
  stamp: 
    secs: 1518209548
    nsecs: 712455034
  frame_id: "swarmone/odom"
child_frame_id: "swarmone/base_link"
pose: 
  pose: 
    position: 
      x: 0.0
      y: 0.0
      z: 0.0
    orientation: 
      x: 0.0
      y: 0.0
      z: 0.696135472929
      w: 0.717910442416
  covariance: [2374769.936906593, -84532.26947680164, 0.0, 0.0, 0.0, 0.0, -84532.26947680188, 3013.4246591409214, 0.0, 0.0, 0.0, 0.0, 0.0, 0.0, 5.979109796256455e-07, 0.0, 0.0, 0.0, 0.0, 0.0, 0.0, 4.983556614382166e-07, -2.2194740425645082e-31, 0.0, 0.0, 0.0, 0.0, 2.2194740425645082e-31, 4.983556614382166e-07, 0.0, 0.0, 0.0, 0.0, 0.0, 0.0, 9.880529173148886e-07]
twist: 
  twist: 
    linear: 
      x: 0.0
      y: 0.0
      z: 0.0
    angular: 
      x: 0.0
      y: 0.0
      z: 0.000120839422085
  covariance: [9.999996264644558e-10, 0.0, 0.0, 0.0, 0.0, 0.0, 0.0, 2133.4645944116555, 0.0, 0.0, 0.0, 0.0, 0.0, 0.0, 5.366021919823985e-07, 0.0, 0.0, 0.0, 0.0, 0.0, 0.0, 3.991324289969073e-07, -4.3725815743032316e-35, 0.0, 0.0, 0.0, 0.0, 4.3725815743032316e-35, 3.991324289969073e-07, 0.0, 0.0, 0.0, 0.0, 0.0, 0.0, 9.969790129491573e-10]
---
header: 
  seq: 863
  stamp: 
    secs: 1518209548
    nsecs: 811909914
  frame_id: "swarmone/odom"
child_frame_id: "swarmone/base_link"
pose: 
  pose: 
    position: 
      x: 0.0
      y: 0.0
      z: 0.0
    orientation: 
      x: 0.0
      y: 0.0
      z: 0.696136029362
      w: 0.71790990286
  covariance: [2388499.9228437715, -84987.73907649628, 0.0, 0.0, 0.0, 0.0, -84987.73907649652, 3028.4621086232833, 0.0, 0.0, 0.0, 0.0, 0.0, 0.0, 7.588271856508048e-07, 0.0, 0.0, 0.0, 0.0, 0.0, 0.0, 6.457846717705345e-07, -3.177534280216859e-31, 0.0, 0.0, 0.0, 0.0, 3.177534280216859e-31, 6.457846717705345e-07, 0.0, 0.0, 0.0, 0.0, 0.0, 0.0, 2.6474462278616603e-06]
twist: 
  twist: 
    linear: 
      x: 0.0
      y: 0.0
      z: 0.0
    angular: 
      x: 0.0
      y: 0.0
      z: 5.65515422097e-05
  covariance: [9.99999622326878e-10, 0.0, 0.0, 0.0, 0.0, 0.0, 0.0, 2140.856993042254, 0.0, 0.0, 0.0, 0.0, 0.0, 0.0, 6.936494729264419e-07, 0.0, 0.0, 0.0, 0.0, 0.0, 0.0, 4.847546943155145e-07, -1.1708085620892451e-35, 0.0, 0.0, 0.0, 0.0, 1.1708085620892515e-35, 4.847546943155145e-07, 0.0, 0.0, 0.0, 0.0, 0.0, 0.0, 9.988689685883142e-10]
---
header: 
  seq: 864
  stamp: 
    secs: 1518209548
    nsecs: 912346125
  frame_id: "swarmone/odom"
child_frame_id: "swarmone/base_link"
pose: 
  pose: 
    position: 
      x: 0.0
      y: 0.0
      z: 0.0
    orientation: 
      x: 0.0
      y: 0.0
      z: 0.692536999162
      w: 0.721382356862
  covariance: [2402429.7678703093, -85449.73628981342, 0.0, 0.0, 0.0, 0.0, -85449.73628981368, 3043.7121192756977, 0.0, 0.0, 0.0, 0.0, 0.0, 0.0, 5.908507835870559e-07, 0.0, 0.0, 0.0, 0.0, 0.0, 0.0, 4.928969657058045e-07, -4.451044552229057e-35, 0.0, 0.0, 0.0, 0.0, 4.451044552229057e-35, 4.928969657058045e-07, 0.0, 0.0, 0.0, 0.0, 0.0, 0.0, 9.451375730765385e-07]
twist: 
  twist: 
    linear: 
      x: 0.0
      y: 0.0
      z: 0.0
    angular: 
      x: 0.0
      y: 0.0
      z: 8.8904805798e-14
  covariance: [9.999996262412901e-10, 0.0, 0.0, 0.0, 0.0, 0.0, 0.0, 2148.3396490213763, 0.0, 0.0, 0.0, 0.0, 0.0, 0.0, 5.303759480040719e-07, 0.0, 0.0, 0.0, 0.0, 0.0, 0.0, 3.965388678134191e-07, 9.594964197369578e-36, 0.0, 0.0, 0.0, 0.0, -9.594964197369578e-36, 3.965388678134191e-07, 0.0, 0.0, 0.0, 0.0, 0.0, 0.0, 9.968425624991557e-10]
---
header: 
  seq: 865
  stamp: 
    secs: 1518209549
    nsecs:  11731625
  frame_id: "swarmone/odom"
child_frame_id: "swarmone/base_link"
pose: 
  pose: 
    position: 
      x: 0.0
      y: 0.0
      z: 0.0
    orientation: 
      x: 0.0
      y: 0.0
      z: 0.696135466671
      w: 0.717910448485
  covariance: [2416272.8304939964, -85978.15798286675, 0.0, 0.0, 0.0, 0.0, -85978.15798286702, 3063.791330089796, 0.0, 0.0, 0.0, 0.0, 0.0, 0.0, 5.932314965348365e-07, 0.0, 0.0, 0.0, 0.0, 0.0, 0.0, 4.947295615999955e-07, 2.7746020790026506e-31, 0.0, 0.0, 0.0, 0.0, -2.7746020790026506e-31, 4.947295615999955e-07, 0.0, 0.0, 0.0, 0.0, 0.0, 0.0, 9.59442687820838e-07]
twist: 
  twist: 
    linear: 
      x: 0.0
      y: 0.0
      z: 0.0
    angular: 
      x: 0.0
      y: 0.0
      z: 0.000124424127324
  covariance: [9.999996220470384e-10, 0.0, 0.0, 0.0, 0.0, 0.0, 0.0, 2155.761173884391, 0.0, 0.0, 0.0, 0.0, 0.0, 0.0, 5.324697233483004e-07, 0.0, 0.0, 0.0, 0.0, 0.0, 0.0, 3.974048959455497e-07, -1.968866280387916e-35, 0.0, 0.0, 0.0, 0.0, 1.968866280387916e-35, 3.974048959455497e-07, 0.0, 0.0, 0.0, 0.0, 0.0, 0.0, 9.96889395251725e-10]
---
header: 
  seq: 866
  stamp: 
    secs: 1518209549
    nsecs: 112208128
  frame_id: "swarmone/odom"
child_frame_id: "swarmone/base_link"
pose: 
  pose: 
    position: 
      x: 0.0
      y: 0.0
      z: 0.0
    orientation: 
      x: 0.0
      y: 0.0
      z: 0.696135460427
      w: 0.717910454539
  covariance: [2430337.7088740175, -86444.64331191353, 0.0, 0.0, 0.0, 0.0, -86444.64331191381, 3079.1897161881275, 0.0, 0.0, 0.0, 0.0, 0.0, 0.0, 5.884419672991581e-07, 0.0, 0.0, 0.0, 0.0, 0.0, 0.0, 4.91051133083849e-07, 2.299281859492911e-31, 0.0, 0.0, 0.0, 0.0, -2.299281859492911e-31, 4.91051133083849e-07, 0.0, 0.0, 0.0, 0.0, 0.0, 0.0, 9.308324583304578e-07]
twist: 
  twist: 
    linear: 
      x: 0.0
      y: 0.0
      z: 0.0
    angular: 
      x: 0.0
      y: 0.0
      z: 0.000128228017273
  covariance: [9.999996264002809e-10, 0.0, 0.0, 0.0, 0.0, 0.0, 0.0, 2163.2815288683564, 0.0, 0.0, 0.0, 0.0, 0.0, 0.0, 5.282631929320606e-07, 0.0, 0.0, 0.0, 0.0, 0.0, 0.0, 3.9566940772350597e-07, 4.853302792026929e-35, 0.0, 0.0, 0.0, 0.0, -4.853302792026929e-35, 3.9566940772350597e-07, 0.0, 0.0, 0.0, 0.0, 0.0, 0.0, 9.96794297977645e-10]
---
header: 
  seq: 867
  stamp: 
    secs: 1518209549
    nsecs: 212087631
  frame_id: "swarmone/odom"
child_frame_id: "swarmone/base_link"
pose: 
  pose: 
    position: 
      x: 0.0
      y: 0.0
      z: 0.0
    orientation: 
      x: 0.0
      y: 0.0
      z: 0.692537286355
      w: 0.721382081153
  covariance: [2444383.8646705337, -86910.41610632082, 0.0, 0.0, 0.0, 0.0, -86910.4161063211, 3094.562046767969, 0.0, 0.0, 0.0, 0.0, 0.0, 0.0, 5.932315308399718e-07, 0.0, 0.0, 0.0, 0.0, 0.0, 0.0, 4.947297081088439e-07, 3.163012155092795e-31, 0.0, 0.0, 0.0, 0.0, -3.163012155092795e-31, 4.947297081088439e-07, 0.0, 0.0, 0.0, 0.0, 0.0, 0.0, 9.59442687821667e-07]
twist: 
  twist: 
    linear: 
      x: 0.0
      y: 0.0
      z: 0.0
    angular: 
      x: 0.0
      y: 0.0
      z: 0.000155530159741
  covariance: [9.999996240301768e-10, 0.0, 0.0, 0.0, 0.0, 0.0, 0.0, 2170.7745200607187, 0.0, 0.0, 0.0, 0.0, 0.0, 0.0, 5.324697913153019e-07, 0.0, 0.0, 0.0, 0.0, 0.0, 0.0, 3.974053469731921e-07, 1.98413539788392e-35, 0.0, 0.0, 0.0, 0.0, -1.98413539788392e-35, 3.974053469731921e-07, 0.0, 0.0, 0.0, 0.0, 0.0, 0.0, 9.968893952517493e-10]
---
header: 
  seq: 868
  stamp: 
    secs: 1518209549
    nsecs: 312549114
  frame_id: "swarmone/odom"
child_frame_id: "swarmone/base_link"
pose: 
  pose: 
    position: 
      x: 0.0
      y: 0.0
      z: 0.0
    orientation: 
      x: 0.0
      y: 0.0
      z: 0.696135925392
      w: 0.717910003677
  covariance: [2458572.225604509, -87451.89733582453, 0.0, 0.0, 0.0, 0.0, -87451.89733582483, 3115.1324351888675, 0.0, 0.0, 0.0, 0.0, 0.0, 0.0, 7.714435426575807e-07, 0.0, 0.0, 0.0, 0.0, 0.0, 0.0, 6.59584085009946e-07, -1.5798426724258832e-31, 0.0, 0.0, 0.0, 0.0, 1.5798426724258832e-31, 6.59584085009946e-07, 0.0, 0.0, 0.0, 0.0, 0.0, 0.0, 2.8763280638011836e-06]
twist: 
  twist: 
    linear: 
      x: 0.0
      y: 0.0
      z: 0.0
    angular: 
      x: 0.0
      y: 0.0
      z: 4.16474409987e-05
  covariance: [9.999996263413515e-10, 0.0, 0.0, 0.0, 0.0, 0.0, 0.0, 2178.3286112069945, 0.0, 0.0, 0.0, 0.0, 0.0, 0.0, 7.073304774526608e-07, 0.0, 0.0, 0.0, 0.0, 0.0, 0.0, 4.946872927159203e-07, 2.8889916584573623e-34, 0.0, 0.0, 0.0, 0.0, -2.8889916584573623e-34, 4.946872927159203e-07, 0.0, 0.0, 0.0, 0.0, 0.0, 0.0, 9.98958813458601e-10]
---
header: 
  seq: 869
  stamp: 
    secs: 1518209549
    nsecs: 411991119
  frame_id: "swarmone/odom"
child_frame_id: "swarmone/base_link"
pose: 
  pose: 
    position: 
      x: 0.0
      y: 0.0
      z: 0.0
    orientation: 
      x: 0.0
      y: 0.0
      z: 0.69613546385
      w: 0.71791045122
  covariance: [2472686.4898132216, -87919.92028966981, 0.0, 0.0, 0.0, 0.0, -87919.9202896701, 3130.578552798226, 0.0, 0.0, 0.0, 0.0, 0.0, 0.0, 5.908507141759634e-07, 0.0, 0.0, 0.0, 0.0, 0.0, 0.0, 4.928969143391106e-07, 2.2826381892716968e-31, 0.0, 0.0, 0.0, 0.0, -2.2826381892716968e-31, 4.928969143391106e-07, 0.0, 0.0, 0.0, 0.0, 0.0, 0.0, 9.451375730748868e-07]
twist: 
  twist: 
    linear: 
      x: 0.0
      y: 0.0
      z: 0.0
    angular: 
      x: 0.0
      y: 0.0
      z: 0.000126297436589
  covariance: [9.999996222750716e-10, 0.0, 0.0, 0.0, 0.0, 0.0, 0.0, 2185.823288651863, 0.0, 0.0, 0.0, 0.0, 0.0, 0.0, 5.303758108773949e-07, 0.0, 0.0, 0.0, 0.0, 0.0, 0.0, 3.965379639600808e-07, -7.222104800995653e-35, 0.0, 0.0, 0.0, 0.0, 7.222104800995651e-35, 3.965379639600808e-07, 0.0, 0.0, 0.0, 0.0, 0.0, 0.0, 9.968425624991059e-10]
---
header: 
  seq: 870
  stamp: 
    secs: 1518209549
    nsecs: 512476921
  frame_id: "swarmone/odom"
child_frame_id: "swarmone/base_link"
pose: 
  pose: 
    position: 
      x: 0.0
      y: 0.0
      z: 0.0
    orientation: 
      x: 0.0
      y: 0.0
      z: 0.69613546385
      w: 0.71791045122
  covariance: [2487014.6856910414, -88394.94216708482, 0.0, 0.0, 0.0, 0.0, -88394.94216708513, 3146.2530023842623, 0.0, 0.0, 0.0, 0.0, 0.0, 0.0, 5.908507868187866e-07, 0.0, 0.0, 0.0, 0.0, 0.0, 0.0, 4.92897136898671e-07, -7.424005786107213e-32, 0.0, 0.0, 0.0, 0.0, 7.424005786107213e-32, 4.92897136898671e-07, 0.0, 0.0, 0.0, 0.0, 0.0, 0.0, 9.451375730765735e-07]
twist: 
  twist: 
    linear: 
      x: 0.0
      y: 0.0
      z: 0.0
    angular: 
      x: 0.0
      y: 0.0
      z: 0.000126297437379
  covariance: [9.999996264371944e-10, 0.0, 0.0, 0.0, 0.0, 0.0, 0.0, 2193.4140823709054, 0.0, 0.0, 0.0, 0.0, 0.0, 0.0, 5.303759542143037e-07, 0.0, 0.0, 0.0, 0.0, 0.0, 0.0, 3.9653890453328773e-07, -1.4040084450947008e-35, 0.0, 0.0, 0.0, 0.0, 1.4040084450947008e-35, 3.9653890453328773e-07, 0.0, 0.0, 0.0, 0.0, 0.0, 0.0, 9.96842562499158e-10]
---
header: 
  seq: 871
  stamp: 
    secs: 1518209549
    nsecs: 611961126
  frame_id: "swarmone/odom"
child_frame_id: "swarmone/base_link"
pose: 
  pose: 
    position: 
      x: 0.0
      y: 0.0
      z: 0.0
    orientation: 
      x: 0.0
      y: 0.0
      z: 0.696135470696
      w: 0.717910444581
  covariance: [2501265.428840086, -88867.29305734512, 0.0, 0.0, 0.0, 0.0, -88867.29305734542, 3161.8363405006335, 0.0, 0.0, 0.0, 0.0, 0.0, 0.0, 5.955847432138569e-07, 0.0, 0.0, 0.0, 0.0, 0.0, 0.0, 4.965490446979023e-07, -1.7497765068627392e-31, 0.0, 0.0, 0.0, 0.0, 1.7497765068627392e-31, 4.965490446979023e-07, 0.0, 0.0, 0.0, 0.0, 0.0, 0.0, 9.737478025671056e-07]
twist: 
  twist: 
    linear: 
      x: 0.0
      y: 0.0
      z: 0.0
    angular: 
      x: 0.0
      y: 0.0
      z: 0.000122605577984
  covariance: [9.999996224450082e-10, 0.0, 0.0, 0.0, 0.0, 0.0, 0.0, 2200.946512177007, 0.0, 0.0, 0.0, 0.0, 0.0, 0.0, 5.345450683213979e-07, 0.0, 0.0, 0.0, 0.0, 0.0, 0.0, 3.982694915197003e-07, -1.105607367577602e-34, 0.0, 0.0, 0.0, 0.0, 1.1056073675776017e-34, 3.982694915197003e-07, 0.0, 0.0, 0.0, 0.0, 0.0, 0.0, 9.96934859014507e-10]
---
header: 
  seq: 872
  stamp: 
    secs: 1518209549
    nsecs: 712452173
  frame_id: "swarmone/odom"
child_frame_id: "swarmone/base_link"
pose: 
  pose: 
    position: 
      x: 0.0
      y: 0.0
      z: 0.0
    orientation: 
      x: 0.0
      y: 0.0
      z: 0.696135467273
      w: 0.7179104479
  covariance: [2515726.654092402, -89346.51608188762, 0.0, 0.0, 0.0, 0.0, -89346.51608188791, 3177.6433838648786, 0.0, 0.0, 0.0, 0.0, 0.0, 0.0, 5.932315728519352e-07, 0.0, 0.0, 0.0, 0.0, 0.0, 0.0, 4.947297970466655e-07, -2.4252412696052783e-31, 0.0, 0.0, 0.0, 0.0, 2.4252412696052783e-31, 4.947297970466655e-07, 0.0, 0.0, 0.0, 0.0, 0.0, 0.0, 9.594426878226837e-07]
twist: 
  twist: 
    linear: 
      x: 0.0
      y: 0.0
      z: 0.0
    angular: 
      x: 0.0
      y: 0.0
      z: 0.000124424128201
  covariance: [9.999996264578783e-10, 0.0, 0.0, 0.0, 0.0, 0.0, 0.0, 2208.5726681866277, 0.0, 0.0, 0.0, 0.0, 0.0, 0.0, 5.324698745587589e-07, 0.0, 0.0, 0.0, 0.0, 0.0, 0.0, 3.974058995078881e-07, 8.6712041032938e-35, 0.0, 0.0, 0.0, 0.0, -8.6712041032938e-35, 3.974058995078881e-07, 0.0, 0.0, 0.0, 0.0, 0.0, 0.0, 9.968893952517784e-10]
---
header: 
  seq: 873
  stamp: 
    secs: 1518209549
    nsecs: 811835289
  frame_id: "swarmone/odom"
child_frame_id: "swarmone/base_link"
pose: 
  pose: 
    position: 
      x: 0.0
      y: 0.0
      z: 0.0
    orientation: 
      x: 0.0
      y: 0.0
      z: 0.696135460427
      w: 0.717910454539
  covariance: [2530094.1593926838, -89822.53028193991, 0.0, 0.0, 0.0, 0.0, -89822.5302819402, 3193.3416116268977, 0.0, 0.0, 0.0, 0.0, 0.0, 0.0, 5.884418900267655e-07, 0.0, 0.0, 0.0, 0.0, 0.0, 0.0, 4.91050896812357e-07, 5.776938602794368e-31, 0.0, 0.0, 0.0, 0.0, -5.776938602794368e-31, 4.91050896812357e-07, 0.0, 0.0, 0.0, 0.0, 0.0, 0.0, 9.308324583286328e-07]
twist: 
  twist: 
    linear: 
      x: 0.0
      y: 0.0
      z: 0.0
    angular: 
      x: 0.0
      y: 0.0
      z: 0.000128228016575
  covariance: [9.999996220375423e-10, 0.0, 0.0, 0.0, 0.0, 0.0, 0.0, 2216.1320560109057, 0.0, 0.0, 0.0, 0.0, 0.0, 0.0, 5.282630406716294e-07, 0.0, 0.0, 0.0, 0.0, 0.0, 0.0, 3.956684094678765e-07, 1.4050446072275632e-35, 0.0, 0.0, 0.0, 0.0, -1.4050446072275632e-35, 3.956684094678765e-07, 0.0, 0.0, 0.0, 0.0, 0.0, 0.0, 9.967942979775886e-10]
---
header: 
  seq: 874
  stamp: 
    secs: 1518209549
    nsecs: 912274361
  frame_id: "swarmone/odom"
child_frame_id: "swarmone/base_link"
pose: 
  pose: 
    position: 
      x: 0.0
      y: 0.0
      z: 0.0
    orientation: 
      x: 0.0
      y: 0.0
      z: 0.692537232353
      w: 0.721382132995
  covariance: [2544680.947595582, -90305.71727998994, 0.0, 0.0, 0.0, 0.0, -90305.7172799902, 3209.2738314669105, 0.0, 0.0, 0.0, 0.0, 0.0, 0.0, 5.955848083308281e-07, 0.0, 0.0, 0.0, 0.0, 0.0, 0.0, 4.965492464035684e-07, -3.651375265115753e-31, 0.0, 0.0, 0.0, 0.0, 3.651375265115753e-31, 4.965492464035684e-07, 0.0, 0.0, 0.0, 0.0, 0.0, 0.0, 9.737478025686978e-07]
twist: 
  twist: 
    linear: 
      x: 0.0
      y: 0.0
      z: 0.0
    angular: 
      x: 0.0
      y: 0.0
      z: 0.000122605578569
  covariance: [9.999996262525853e-10, 0.0, 0.0, 0.0, 0.0, 0.0, 0.0, 2223.7892741666105, 0.0, 0.0, 0.0, 0.0, 0.0, 0.0, 5.345451976855881e-07, 0.0, 0.0, 0.0, 0.0, 0.0, 0.0, 3.982703551981681e-07, -9.846097781418348e-36, 0.0, 0.0, 0.0, 0.0, 9.846097781418348e-36, 3.982703551981681e-07, 0.0, 0.0, 0.0, 0.0, 0.0, 0.0, 9.96934859014552e-10]
---
header: 
  seq: 875
  stamp: 
    secs: 1518209550
    nsecs:  11868000
  frame_id: "swarmone/odom"
child_frame_id: "swarmone/base_link"
pose: 
  pose: 
    position: 
      x: 0.0
      y: 0.0
      z: 0.0
    orientation: 
      x: 0.0
      y: 0.0
      z: 0.692537231755
      w: 0.72138213357
  covariance: [2559206.1072941874, -90859.57733366288, 0.0, 0.0, 0.0, 0.0, -90859.57733366314, 3230.2932184406386, 0.0, 0.0, 0.0, 0.0, 0.0, 0.0, 5.955847507458355e-07, 0.0, 0.0, 0.0, 0.0, 0.0, 0.0, 4.965490679864532e-07, 7.869038234786146e-32, 0.0, 0.0, 0.0, 0.0, -7.869038234786146e-32, 4.965490679864532e-07, 0.0, 0.0, 0.0, 0.0, 0.0, 0.0, 9.737478025672904e-07]
twist: 
  twist: 
    linear: 
      x: 0.0
      y: 0.0
      z: 0.0
    angular: 
      x: 0.0
      y: 0.0
      z: 0.000122605578045
  covariance: [9.999996228850282e-10, 0.0, 0.0, 0.0, 0.0, 0.0, 0.0, 2231.399440485852, 0.0, 0.0, 0.0, 0.0, 0.0, 0.0, 5.345450832883829e-07, 0.0, 0.0, 0.0, 0.0, 0.0, 0.0, 3.9826959150962815e-07, 2.8648203424683887e-35, 0.0, 0.0, 0.0, 0.0, -2.8648203424683887e-35, 3.9826959150962815e-07, 0.0, 0.0, 0.0, 0.0, 0.0, 0.0, 9.969348590145122e-10]
---
header: 
  seq: 876
  stamp: 
    secs: 1518209550
    nsecs: 112320185
  frame_id: "swarmone/odom"
child_frame_id: "swarmone/base_link"
pose: 
  pose: 
    position: 
      x: 0.0
      y: 0.0
      z: 0.0
    orientation: 
      x: 0.0
      y: 0.0
      z: 0.696135409516
      w: 0.717910503905
  covariance: [2573923.6119829277, -91420.87951828289, 0.0, 0.0, 0.0, 0.0, -91420.87951828312, 3251.5998519438067, 0.0, 0.0, 0.0, 0.0, 0.0, 0.0, 5.93231570197914e-07, 0.0, 0.0, 0.0, 0.0, 0.0, 0.0, 4.947297481037073e-07, 2.4286937458867307e-31, 0.0, 0.0, 0.0, 0.0, -2.4286937458867307e-31, 4.947297481037073e-07, 0.0, 0.0, 0.0, 0.0, 0.0, 0.0, 9.594426878226196e-07]
twist: 
  twist: 
    linear: 
      x: 0.0
      y: 0.0
      z: 0.0
    angular: 
      x: 0.0
      y: 0.0
      z: 9.33180961802e-05
  covariance: [9.999996263044425e-10, 0.0, 0.0, 0.0, 0.0, 0.0, 0.0, 2239.0927832229227, 0.0, 0.0, 0.0, 0.0, 0.0, 0.0, 5.324698693003462e-07, 0.0, 0.0, 0.0, 0.0, 0.0, 0.0, 3.974058646105434e-07, -8.193019550585906e-35, 0.0, 0.0, 0.0, 0.0, 8.193019550585906e-35, 3.974058646105434e-07, 0.0, 0.0, 0.0, 0.0, 0.0, 0.0, 9.968893952517768e-10]
---
header: 
  seq: 877
  stamp: 
    secs: 1518209550
    nsecs: 211729765
  frame_id: "swarmone/odom"
child_frame_id: "swarmone/base_link"
pose: 
  pose: 
    position: 
      x: 0.0
      y: 0.0
      z: 0.0
    orientation: 
      x: 0.0
      y: 0.0
      z: 0.69253722204
      w: 0.721382142896
  covariance: [2588560.2086657328, -91905.85038652067, 0.0, 0.0, 0.0, 0.0, -91905.8503865209, 3267.5946655804455, 0.0, 0.0, 0.0, 0.0, 0.0, 0.0, 5.884418919171473e-07, 0.0, 0.0, 0.0, 0.0, 0.0, 0.0, 4.91050902534986e-07, 4.471897777504889e-31, 0.0, 0.0, 0.0, 0.0, -4.471897777504889e-31, 4.91050902534986e-07, 0.0, 0.0, 0.0, 0.0, 0.0, 0.0, 9.308324583286774e-07]
twist: 
  twist: 
    linear: 
      x: 0.0
      y: 0.0
      z: 0.0
    angular: 
      x: 0.0
      y: 0.0
      z: 0.000128228016542
  covariance: [9.999996221442348e-10, 0.0, 0.0, 0.0, 0.0, 0.0, 0.0, 2246.7236703866083, 0.0, 0.0, 0.0, 0.0, 0.0, 0.0, 5.282630443965063e-07, 0.0, 0.0, 0.0, 0.0, 0.0, 0.0, 3.956684338889195e-07, -2.1794425455510458e-37, 0.0, 0.0, 0.0, 0.0, 2.1794425455510458e-37, 3.956684338889195e-07, 0.0, 0.0, 0.0, 0.0, 0.0, 0.0, 9.967942979775899e-10]
---
header: 
  seq: 878
  stamp: 
    secs: 1518209550
    nsecs: 312284708
  frame_id: "swarmone/odom"
child_frame_id: "swarmone/base_link"
pose: 
  pose: 
    position: 
      x: 0.0
      y: 0.0
      z: 0.0
    orientation: 
      x: 0.0
      y: 0.0
      z: 0.688921673107
      w: 0.724835794042
  covariance: [2603427.783248602, -92472.91514472668, 0.0, 0.0, 0.0, 0.0, -92472.91514472691, 3289.121451875788, 0.0, 0.0, 0.0, 0.0, 0.0, 0.0, 5.908507915886587e-07, 0.0, 0.0, 0.0, 0.0, 0.0, 0.0, 4.928971514121315e-07, -7.226327652262418e-31, 0.0, 0.0, 0.0, 0.0, 7.226327652262418e-31, 4.928971514121315e-07, 0.0, 0.0, 0.0, 0.0, 0.0, 0.0, 9.451375730766872e-07]
twist: 
  twist: 
    linear: 
      x: 0.0
      y: 0.0
      z: 0.0
    angular: 
      x: 0.0
      y: 0.0
      z: 0.000126297437425
  covariance: [9.999996267097306e-10, 0.0, 0.0, 0.0, 0.0, 0.0, 0.0, 2254.46010215032, 0.0, 0.0, 0.0, 0.0, 0.0, 0.0, 5.303759636373312e-07, 0.0, 0.0, 0.0, 0.0, 0.0, 0.0, 3.965389666607849e-07, -1.4496214478726588e-34, 0.0, 0.0, 0.0, 0.0, 1.4496214478726588e-34, 3.965389666607849e-07, 0.0, 0.0, 0.0, 0.0, 0.0, 0.0, 9.968425624991613e-10]
---
header: 
  seq: 879
  stamp: 
    secs: 1518209550
    nsecs: 412402153
  frame_id: "swarmone/odom"
child_frame_id: "swarmone/base_link"
pose: 
  pose: 
    position: 
      x: 0.0
      y: 0.0
      z: 0.0
    orientation: 
      x: 0.0
      y: 0.0
      z: 0.696135904252
      w: 0.717910024175
  covariance: [2618291.6632911484, -93114.46743020951, 0.0, 0.0, 0.0, 0.0, -93114.46743020971, 3315.9430146711497, 0.0, 0.0, 0.0, 0.0, 0.0, 0.0, 7.668701907634063e-07, 0.0, 0.0, 0.0, 0.0, 0.0, 0.0, 6.545371553217561e-07, -6.5387527334957755e-31, 0.0, 0.0, 0.0, 0.0, 6.5387527334957755e-31, 6.545371553217561e-07, 0.0, 0.0, 0.0, 0.0, 0.0, 0.0, 2.7904973753239182e-06]
twist: 
  twist: 
    linear: 
      x: 0.0
      y: 0.0
      z: 0.0
    angular: 
      x: 0.0
      y: 0.0
      z: 4.29261502259e-05
  covariance: [9.999996249785375e-10, 0.0, 0.0, 0.0, 0.0, 0.0, 0.0, 2262.180503565003, 0.0, 0.0, 0.0, 0.0, 0.0, 0.0, 7.023457368833109e-07, 0.0, 0.0, 0.0, 0.0, 0.0, 0.0, 4.91007795030994e-07, -1.89282282252324e-34, 0.0, 0.0, 0.0, 0.0, 1.8928228225232404e-34, 4.91007795030994e-07, 0.0, 0.0, 0.0, 0.0, 0.0, 0.0, 9.989268457098499e-10]
---
header: 
  seq: 880
  stamp: 
    secs: 1518209550
    nsecs: 511770725
  frame_id: "swarmone/odom"
child_frame_id: "swarmone/base_link"
pose: 
  pose: 
    position: 
      x: 0.0
      y: 0.0
      z: 0.0
    orientation: 
      x: 0.0
      y: 0.0
      z: 0.696135857522
      w: 0.717910069488
  covariance: [2633123.5606849263, -93606.24736498241, 0.0, 0.0, 0.0, 0.0, -93606.2473649826, 3332.171800934757, 0.0, 0.0, 0.0, 0.0, 0.0, 0.0, 7.554524223457167e-07, 0.0, 0.0, 0.0, 0.0, 0.0, 0.0, 6.421581683092859e-07, -2.099749986530114e-31, 0.0, 0.0, 0.0, 0.0, 2.099749986530114e-31, 6.421581683092859e-07, 0.0, 0.0, 0.0, 0.0, 0.0, 0.0, 2.5902257688771086e-06]
twist: 
  twist: 
    linear: 
      x: 0.0
      y: 0.0
      z: 0.0
    angular: 
      x: 0.0
      y: 0.0
      z: 4.62387284986e-05
  covariance: [9.999996219788365e-10, 0.0, 0.0, 0.0, 0.0, 0.0, 0.0, 2269.8605709831936, 0.0, 0.0, 0.0, 0.0, 0.0, 0.0, 6.900270167683761e-07, 0.0, 0.0, 0.0, 0.0, 0.0, 0.0, 4.822103477726642e-07, 8.970578586928986e-35, 0.0, 0.0, 0.0, 0.0, -8.970578586928986e-35, 4.822103477726642e-07, 0.0, 0.0, 0.0, 0.0, 0.0, 0.0, 9.988440312062514e-10]
---
header: 
  seq: 881
  stamp: 
    secs: 1518209550
    nsecs: 612211943
  frame_id: "swarmone/odom"
child_frame_id: "swarmone/base_link"
pose: 
  pose: 
    position: 
      x: 0.0
      y: 0.0
      z: 0.0
    orientation: 
      x: 0.0
      y: 0.0
      z: 0.688921677164
      w: 0.724835790185
  covariance: [2648183.8010566016, -94105.51553276391, 0.0, 0.0, 0.0, 0.0, -94105.5155327641, 3348.6455390442666, 0.0, 0.0, 0.0, 0.0, 0.0, 0.0, 5.93231569632413e-07, 0.0, 0.0, 0.0, 0.0, 0.0, 0.0, 4.947297874432777e-07, -7.383147415139599e-31, 0.0, 0.0, 0.0, 0.0, 7.383147415139599e-31, 4.947297874432777e-07, 0.0, 0.0, 0.0, 0.0, 0.0, 0.0, 9.594426878226458e-07]
twist: 
  twist: 
    linear: 
      x: 0.0
      y: 0.0
      z: 0.0
    angular: 
      x: 0.0
      y: 0.0
      z: 0.000124424128052
  covariance: [9.999996262609857e-10, 0.0, 0.0, 0.0, 0.0, 0.0, 0.0, 2277.6411925698612, 0.0, 0.0, 0.0, 0.0, 0.0, 0.0, 5.324698683455756e-07, 0.0, 0.0, 0.0, 0.0, 0.0, 0.0, 3.9740586229891325e-07, -1.983125044743499e-35, 0.0, 0.0, 0.0, 0.0, 1.983125044743501e-35, 3.9740586229891325e-07, 0.0, 0.0, 0.0, 0.0, 0.0, 0.0, 9.968893952517764e-10]
---
header: 
  seq: 882
  stamp: 
    secs: 1518209550
    nsecs: 712778330
  frame_id: "swarmone/odom"
child_frame_id: "swarmone/base_link"
pose: 
  pose: 
    position: 
      x: 0.0
      y: 0.0
      z: 0.0
    orientation: 
      x: 0.0
      y: 0.0
      z: 0.696135873448
      w: 0.717910054045
  covariance: [2663319.405923631, -94758.93439807204, 0.0, 0.0, 0.0, 0.0, -94758.93439807225, 3375.9713217776184, 0.0, 0.0, 0.0, 0.0, 0.0, 0.0, 7.596563990704132e-07, 0.0, 0.0, 0.0, 0.0, 0.0, 0.0, 6.466798862574188e-07, -4.553224923274636e-31, 0.0, 0.0, 0.0, 0.0, 4.553224923274636e-31, 6.466798862574188e-07, 0.0, 0.0, 0.0, 0.0, 0.0, 0.0, 2.6617513426096274e-06]
twist: 
  twist: 
    linear: 
