header: 
  seq: 2479
  stamp: 
    secs: 1518209710
    nsecs: 412255287
  frame_id: "swarmone/odom"
child_frame_id: "swarmone/base_link"
pose: 
  pose: 
    position: 
      x: 0.271411445695
      y: 2.02829111622
      z: 0.0
    orientation: 
      x: 0.0
      y: 0.0
      z: 0.677972050971
      w: 0.735087680554
  covariance: [460751024.73278356, -44291341.666144945, 0.0, 0.0, 0.0, 6.235125870294916e-28, -44291341.666145265, 4267416.21919432, 0.0, 0.0, 0.0, -5.260104149426421e-29, 0.0, 0.0, 5.979109548736839e-07, 2.224698078075376e-33, 4.1853400854558044e-26, 0.0, 0.0, 0.0, 2.2246980780753754e-33, 4.983555839558722e-07, 7.5421873049762696e-31, 0.0, 0.0, 0.0, 4.185340085455803e-26, -7.5421873049762696e-31, 4.983555839558722e-07, 0.0, 6.235125870294916e-28, -5.26010414942642e-29, 0.0, 0.0, 0.0, 9.880529173142769e-07]
twist: 
  twist: 
    linear: 
      x: -9.46180376031e-21
      y: 0.0
      z: 0.0
    angular: 
      x: 0.0
      y: 0.0
      z: 0.000120839421859
  covariance: [9.999996250000355e-10, 0.0, 0.0, 0.0, 0.0, 0.0, 0.0, 50757.26589185295, 0.0, 0.0, 0.0, 0.0, 0.0, 0.0, 5.366021426799074e-07, 7.856619141439157e-37, 6.361775801882884e-38, 0.0, 0.0, 0.0, 7.856619141439155e-37, 3.991320979089524e-07, -2.6104871463456913e-37, 0.0, 0.0, 0.0, 6.361775801882877e-38, 2.6104871463456913e-37, 3.991320979089524e-07, 0.0, 0.0, 0.0, 0.0, 0.0, 0.0, 9.969790129491408e-10]
---
header: 
  seq: 2480
  stamp: 
    secs: 1518209710
    nsecs: 512099504
  frame_id: "swarmone/odom"
child_frame_id: "swarmone/base_link"
pose: 
  pose: 
    position: 
      x: 0.271411445695
      y: 2.02829111622
      z: 0.0
    orientation: 
      x: 0.0
      y: 0.0
      z: 0.677972151297
      w: 0.735087588024
  covariance: [461683647.6525878, -44374311.8565337, 0.0, 0.0, 0.0, 6.314959589694022e-28, -44374311.85653402, 4274738.038551762, 0.0, 0.0, 0.0, -5.11337431451426e-29, 0.0, 0.0, 6.177015233284557e-07, 3.0624860223237782e-33, 4.078881643795319e-26, 0.0, 0.0, 0.0, 3.062486022323779e-33, 5.140481277662447e-07, -1.4918627914842674e-30, 0.0, 0.0, 0.0, 4.078881643795319e-26, 1.4918627914842674e-30, 5.140481277662447e-07, 0.0, 6.314959589694023e-28, -5.113374314514259e-29, 0.0, 0.0, 0.0, 1.1167989500287272e-06]
twist: 
  twist: 
    linear: 
      x: -8.88285970754e-21
      y: 0.0
      z: 0.0
    angular: 
      x: 0.0
      y: 0.0
      z: 0.000133713732951
  covariance: [9.999996238891342e-10, 0.0, 0.0, 0.0, 0.0, 0.0, 0.0, 50818.62699577016, 0.0, 0.0, 0.0, 0.0, 0.0, 0.0, 5.543281503292365e-07, 9.287991789892167e-37, 7.520721119876723e-38, 0.0, 0.0, 0.0, 9.287991789892172e-37, 4.0678036293616933e-07, -1.9240416340039108e-34, 0.0, 0.0, 0.0, 7.520721119876725e-38, 1.9240416340039108e-34, 4.0678036293616933e-07, 0.0, 0.0, 0.0, 0.0, 0.0, 0.0, 9.973257240047371e-10]
---
header: 
  seq: 2481
  stamp: 
    secs: 1518209710
    nsecs: 612650394
  frame_id: "swarmone/odom"
child_frame_id: "swarmone/base_link"
pose: 
  pose: 
    position: 
      x: 0.271411445695
      y: 2.02829111622
      z: 0.0
    orientation: 
      x: 0.0
      y: 0.0
      z: 0.677972055088
      w: 0.735087676757
  covariance: [462624395.1535057, -44457996.79977562, 0.0, 0.0, 0.0, 5.784793336033884e-28, -44457996.79977594, 4282122.335217665, 0.0, 0.0, 0.0, -4.6840783079122274e-29, 0.0, 0.0, 6.002105442849344e-07, 2.0075105285320528e-33, 3.7227973401860424e-26, 0.0, 0.0, 0.0, 2.007510528532052e-33, 5.001491602232932e-07, -4.511687014989435e-31, 0.0, 0.0, 0.0, 3.722797340186043e-26, 4.511687014989435e-31, 5.001491602232932e-07, 0.0, 5.784793336033883e-28, -4.684078307912227e-29, 0.0, 0.0, 0.0, 1.0023580320610899e-06]
twist: 
  twist: 
    linear: 
      x: -8.33573220105e-21
      y: 0.0
      z: 0.0
    angular: 
      x: 0.0
      y: 0.0
      z: 0.000119123426684
  covariance: [9.999996266939748e-10, 0.0, 0.0, 0.0, 0.0, 0.0, 0.0, 50880.472360100975, 0.0, 0.0, 0.0, 0.0, 0.0, 0.0, 5.38641085869455e-07, 7.150663885677708e-37, 5.790074423869152e-38, 0.0, 0.0, 0.0, 7.150663885677708e-37, 3.999920407138314e-07, 1.9451102987383028e-35, 0.0, 0.0, 0.0, 5.790074423869152e-38, -1.9451102987383028e-35, 3.999920407138314e-07, 0.0, 0.0, 0.0, 0.0, 0.0, 0.0, 9.970219128567302e-10]
---
header: 
  seq: 2482
  stamp: 
    secs: 1518209710
    nsecs: 712603569
  frame_id: "swarmone/odom"
child_frame_id: "swarmone/base_link"
pose: 
  pose: 
    position: 
      x: 0.271411445695
      y: 2.02829111622
      z: 0.0
    orientation: 
      x: 0.0
      y: 0.0
      z: 0.674288165043
      w: 0.738468327339
  covariance: [463561067.6016946, -44541312.301931955, 0.0, 0.0, 0.0, 5.2942274140833e-28, -44541312.301932275, 4289473.550823768, 0.0, 0.0, 0.0, -4.645558762000734e-29, 0.0, 0.0, 6.047316118109643e-07, 2.1844600321013594e-33, 3.506464512882047e-26, 0.0, 0.0, 0.0, 2.1844600321013594e-33, 5.036978125773633e-07, 3.3434944744281413e-31, 0.0, 0.0, 0.0, 3.5064645128820477e-26, -3.3434944744281413e-31, 5.036978125773633e-07, 0.0, 5.2942274140833e-28, -4.6455587620007347e-29, 0.0, 0.0, 0.0, 1.0309682615522984e-06]
twist: 
  twist: 
    linear: 
      x: -7.82515946446e-21
      y: 0.0
      z: 0.0
    angular: 
      x: 0.0
      y: 0.0
      z: 0.000115833606828
  covariance: [9.99999624324574e-10, 0.0, 0.0, 0.0, 0.0, 0.0, 0.0, 50941.999802164, 0.0, 0.0, 0.0, 0.0, 0.0, 0.0, 5.426654248959729e-07, 7.0362706210540676e-37, 6.406280165109152e-38, 0.0, 0.0, 0.0, 7.036270621054069e-37, 4.017032701104029e-07, -1.3471033380097325e-34, 0.0, 0.0, 0.0, 6.406280165109155e-38, 1.3471033380097325e-34, 4.017032701104029e-07, 0.0, 0.0, 0.0, 0.0, 0.0, 0.0, 9.971041583847662e-10]
---
header: 
  seq: 2483
  stamp: 
    secs: 1518209710
    nsecs: 812098503
  frame_id: "swarmone/odom"
child_frame_id: "swarmone/base_link"
pose: 
  pose: 
    position: 
      x: 0.271411445695
      y: 2.02829111622
      z: 0.0
    orientation: 
      x: 0.0
      y: 0.0
      z: 0.677972068492
      w: 0.735087664394
  covariance: [464494147.01510113, -44629001.23772124, 0.0, 0.0, 0.0, 5.0873077051178e-28, -44629001.23772155, 4297706.35523965, 0.0, 0.0, 0.0, -4.2870236926436977e-29, 0.0, 0.0, 6.091515772265367e-07, 1.8846563266215655e-33, 3.3064699751109866e-26, 0.0, 0.0, 0.0, 1.8846563266215655e-33, 5.071964608598649e-07, 1.481273926313561e-30, 0.0, 0.0, 0.0, 3.3064699751109866e-26, -1.481273926313561e-30, 5.071964608598649e-07, 0.0, 5.087307705117799e-28, -4.2870236926436977e-29, 0.0, 0.0, 0.0, 1.0595784910437344e-06]
twist: 
  twist: 
    linear: 
      x: -7.34792468076e-21
      y: 0.0
      z: 0.0
    angular: 
      x: 0.0
      y: 0.0
      z: 0.000112720612919
  covariance: [9.999996224882511e-10, 0.0, 0.0, 0.0, 0.0, 0.0, 0.0, 51003.294411595, 0.0, 0.0, 0.0, 0.0, 0.0, 0.0, 5.466201813286086e-07, 6.933947562584208e-37, 5.614571067484657e-38, 0.0, 0.0, 0.0, 6.93394756258421e-37, 4.034048861254882e-07, -5.9630208088341635e-37, 0.0, 0.0, 0.0, 5.614571067484658e-38, 5.9630208088341635e-37, 4.034048861254882e-07, 0.0, 0.0, 0.0, 0.0, 0.0, 0.0, 9.971819832647224e-10]
---
header: 
  seq: 2484
  stamp: 
    secs: 1518209710
    nsecs: 912604094
  frame_id: "swarmone/odom"
child_frame_id: "swarmone/base_link"
pose: 
  pose: 
    position: 
      x: 0.271411445695
      y: 2.02829111622
      z: 0.0
    orientation: 
      x: 0.0
      y: 0.0
      z: 0.674288157997
      w: 0.738468333772
  covariance: [465439040.3651412, -44713037.24432502, 0.0, 0.0, 0.0, 4.692696357761812e-28, -44713037.24432533, 4305120.350960244, 0.0, 0.0, 0.0, -4.108893791541395e-29, 0.0, 0.0, 6.002105412904001e-07, 1.8643594954493366e-33, 3.0781184720755663e-26, 0.0, 0.0, 0.0, 1.8643594954493363e-33, 5.001491507033328e-07, 2.0737591576790984e-30, 0.0, 0.0, 0.0, 3.0781184720755663e-26, -2.0737591576790984e-30, 5.001491507033328e-07, 0.0, 4.692696357761812e-28, -4.108893791541395e-29, 0.0, 0.0, 0.0, 1.0023580320610136e-06]
twist: 
  twist: 
    linear: 
      x: -6.8955319253e-21
      y: 0.0
      z: 0.0
    angular: 
      x: 0.0
      y: 0.0
      z: 0.000119123426626
  covariance: [9.99999626515307e-10, 0.0, 0.0, 0.0, 0.0, 0.0, 0.0, 51065.26154476113, 0.0, 0.0, 0.0, 0.0, 0.0, 0.0, 5.386410798819316e-07, 5.907121342093825e-37, 5.37818285610206e-38, 0.0, 0.0, 0.0, 5.907121342093828e-37, 3.999920001295228e-07, -3.8352622947312e-37, 0.0, 0.0, 0.0, 5.378182856102058e-38, 3.8352622947312e-37, 3.999920001295228e-07, 0.0, 0.0, 0.0, 0.0, 0.0, 0.0, 9.970219128567286e-10]
---
header: 
  seq: 2485
  stamp: 
    secs: 1518209711
    nsecs:  12123823
  frame_id: "swarmone/odom"
child_frame_id: "swarmone/base_link"
pose: 
  pose: 
    position: 
      x: 0.271411445695
      y: 2.02829111622
      z: 0.0
    orientation: 
      x: 0.0
      y: 0.0
      z: 0.659384991715
      w: 0.751805448704
  covariance: [466375371.1544789, -44801025.20003948, 0.0, 0.0, 0.0, 4.305731837938301e-28, -44801025.20003978, 4313380.700070681, 0.0, 0.0, 0.0, -5.086260043965137e-29, 0.0, 0.0, 6.0248388421463e-07, 3.174228175254196e-33, 2.8743487981929564e-26, 0.0, 0.0, 0.0, 3.174228175254198e-33, 5.019296964465633e-07, -3.0745675675000928e-30, 0.0, 0.0, 0.0, 2.8743487981929564e-26, 3.0745675675000928e-30, 5.019296964465633e-07, 0.0, 4.305731837938301e-28, -5.086260043965138e-29, 0.0, 0.0, 0.0, 1.0166631468054706e-06]
twist: 
  twist: 
    linear: 
      x: -6.47489425755e-21
      y: 0.0
      z: 0.0
    angular: 
      x: 0.0
      y: 0.0
      z: 0.000146819355744
  covariance: [9.99999622588043e-10, 0.0, 0.0, 0.0, 0.0, 0.0, 0.0, 51126.67027906621, 0.0, 0.0, 0.0, 0.0, 0.0, 0.0, 5.406619730143642e-07, 5.616461063665769e-37, 7.388223424585611e-38, 0.0, 0.0, 0.0, 5.616461063665769e-37, 4.008482200018275e-07, 1.1422095303928178e-34, 0.0, 0.0, 0.0, 7.38822342458561e-38, -1.1422095303928178e-34, 4.008482200018275e-07, 0.0, 0.0, 0.0, 0.0, 0.0, 0.0, 9.970636114131004e-10]
---
header: 
  seq: 2486
  stamp: 
    secs: 1518209711
    nsecs: 112604380
  frame_id: "swarmone/odom"
child_frame_id: "swarmone/base_link"
pose: 
  pose: 
    position: 
      x: 0.271411445695
      y: 2.02829111622
      z: 0.0
    orientation: 
      x: 0.0
      y: 0.0
      z: 0.681638992906
      w: 0.731688651921
  covariance: [467318062.9825898, -44908700.30986009, 0.0, 0.0, 0.0, 3.995927567249531e-28, -44908700.30986037, 4325396.801719527, 0.0, 0.0, 0.0, -3.661803315433826e-29, 0.0, 0.0, 5.955848111478842e-07, 1.233402834801279e-33, 2.683922849680959e-26, 0.0, 0.0, 0.0, 1.2334028348012794e-33, 4.965492548843009e-07, -1.485150889229625e-30, 0.0, 0.0, 0.0, 2.683922849680959e-26, 1.485150889229625e-30, 4.965492548843009e-07, 0.0, 3.9959275672495314e-28, -3.661803315433827e-29, 0.0, 0.0, 0.0, 9.737478025687687e-07]
twist: 
  twist: 
    linear: 
      x: -6.07634473933e-21
      y: 0.0
      z: 0.0
    angular: 
      x: 0.0
      y: 0.0
      z: 0.000122605578622
  covariance: [9.999996264165482e-10, 0.0, 0.0, 0.0, 0.0, 0.0, 0.0, 51188.7218213336, 0.0, 0.0, 0.0, 0.0, 0.0, 0.0, 5.345452032922934e-07, 4.9259453298429114e-37, 3.493602635059762e-38, 0.0, 0.0, 0.0, 4.925945329842913e-37, 3.9827039281655847e-07, -3.957525158968018e-37, 0.0, 0.0, 0.0, 3.4936026350597627e-38, 3.957525158968018e-37, 3.9827039281655847e-07, 0.0, 0.0, 0.0, 0.0, 0.0, 0.0, 9.969348590145538e-10]
---
header: 
  seq: 2487
  stamp: 
    secs: 1518209711
    nsecs: 212104797
  frame_id: "swarmone/odom"
child_frame_id: "swarmone/base_link"
pose: 
  pose: 
    position: 
      x: 0.271411445695
      y: 2.02829111622
      z: 0.0
    orientation: 
      x: 0.0
      y: 0.0
      z: 0.659384933115
      w: 0.751805500101
  covariance: [468258755.5247927, -44987640.84179659, 0.0, 0.0, 0.0, 3.795304436512453e-28, -44987640.84179688, 4331862.493497916, 0.0, 0.0, 0.0, -4.2510590753219934e-29, 0.0, 0.0, 6.047315821707554e-07, 2.2795727465654267e-33, 2.544462110419552e-26, 0.0, 0.0, 0.0, 2.279572746565427e-33, 5.036977183899673e-07, 1.177046863650131e-30, 0.0, 0.0, 0.0, 2.544462110419551e-26, -1.177046863650131e-30, 5.036977183899673e-07, 0.0, 3.7953044365124535e-28, -4.2510590753219934e-29, 0.0, 0.0, 0.0, 1.0309682615515389e-06]
twist: 
  twist: 
    linear: 
      x: -5.70574639313e-21
      y: 0.0
      z: 0.0
    angular: 
      x: 0.0
      y: 0.0
      z: 0.000115833606571
  covariance: [9.999996225103207e-10, 0.0, 0.0, 0.0, 0.0, 0.0, 0.0, 51250.21753800981, 0.0, 0.0, 0.0, 0.0, 0.0, 0.0, 5.426653653826384e-07, 5.08311463233776e-37, 6.686708876151688e-38, 0.0, 0.0, 0.0, 5.08311463233776e-37, 4.0170286315308237e-07, 2.681297284625453e-34, 0.0, 0.0, 0.0, 6.686708876151688e-38, -2.681297284625453e-34, 4.0170286315308237e-07, 0.0, 0.0, 0.0, 0.0, 0.0, 0.0, 9.971041583847472e-10]
---
header: 
  seq: 2488
  stamp: 
    secs: 1518209711
    nsecs: 311984301
  frame_id: "swarmone/odom"
child_frame_id: "swarmone/base_link"
pose: 
  pose: 
    position: 
      x: 0.271411445695
      y: 2.02829111622
      z: 0.0
    orientation: 
      x: 0.0
      y: 0.0
      z: 0.674288144357
      w: 0.738468346227
  covariance: [469198827.4323099, -45095023.13967236, 0.0, 0.0, 0.0, 3.47947007135139e-28, -45095023.13967265, 4343846.77991461, 0.0, 0.0, 0.0, -3.6592770384321465e-29, 0.0, 0.0, 5.93231530858899e-07, 1.3562454479982647e-33, 2.338282625653656e-26, 0.0, 0.0, 0.0, 1.3562454479982648e-33, 4.94729666922304e-07, -1.9688101668496795e-30, 0.0, 0.0, 0.0, 2.338282625653656e-26, 1.9688101668496795e-30, 4.94729666922304e-07, 0.0, 3.4794700713513898e-28, -3.659277038432147e-29, 0.0, 0.0, 0.0, 9.594426878216698e-07]
twist: 
  twist: 
    linear: 
      x: -5.35651272265e-21
      y: 0.0
      z: 0.0
    angular: 
      x: 0.0
      y: 0.0
      z: 0.000124424127813
  covariance: [9.999996240299563e-10, 0.0, 0.0, 0.0, 0.0, 0.0, 0.0, 51311.99706264355, 0.0, 0.0, 0.0, 0.0, 0.0, 0.0, 5.324697913648803e-07, 4.18428083421486e-37, 3.8099299005299245e-38, 0.0, 0.0, 0.0, 4.18428083421486e-37, 3.974053475214189e-07, -5.598153748476829e-35, 0.0, 0.0, 0.0, 3.8099299005299245e-38, 5.59815374847683e-35, 3.974053475214189e-07, 0.0, 0.0, 0.0, 0.0, 0.0, 0.0, 9.968893952517493e-10]
---
header: 
  seq: 2489
  stamp: 
    secs: 1518209711
    nsecs: 411883831
  frame_id: "swarmone/odom"
child_frame_id: "swarmone/base_link"
pose: 
  pose: 
    position: 
      x: 0.271411445695
      y: 2.02829111622
      z: 0.0
    orientation: 
      x: 0.0
      y: 0.0
      z: 0.674288153864
      w: 0.738468337547
  covariance: [470144800.6403926, -45183933.835755065, 0.0, 0.0, 0.0, 3.2563790610591182e-28, -45183933.835755356, 4352195.18573863, 0.0, 0.0, 0.0, -2.9648176803597654e-29, 0.0, 0.0, 5.979109398205078e-07, 1.3250618691694742e-33, 2.2190820835002222e-26, 0.0, 0.0, 0.0, 1.3250618691694744e-33, 4.983555369541538e-07, -2.1742584317455535e-30, 0.0, 0.0, 0.0, 2.219082083500223e-26, 2.1742584317455535e-30, 4.983555369541538e-07, 0.0, 3.2563790610591182e-28, -2.9648176803597654e-29, 0.0, 0.0, 0.0, 9.880529173139035e-07]
twist: 
  twist: 
    linear: 
      x: -5.02859427105e-21
      y: 0.0
      z: 0.0
    angular: 
      x: 0.0
      y: 0.0
      z: 0.000120839421733
  covariance: [9.999996241098636e-10, 0.0, 0.0, 0.0, 0.0, 0.0, 0.0, 51373.83861994163, 0.0, 0.0, 0.0, 0.0, 0.0, 0.0, 5.366021126889484e-07, 4.161931945456656e-37, 3.789296858808153e-38, 0.0, 0.0, 0.0, 4.161931945456658e-37, 3.991318963760824e-07, 7.9054669950726e-38, 0.0, 0.0, 0.0, 3.789296858808155e-38, -7.905466995075304e-38, 3.991318963760824e-07, 0.0, 0.0, 0.0, 0.0, 0.0, 0.0, 9.969790129491304e-10]
---
header: 
  seq: 2490
  stamp: 
    secs: 1518209711
    nsecs: 512230158
  frame_id: "swarmone/odom"
child_frame_id: "swarmone/base_link"
pose: 
  pose: 
    position: 
      x: 0.271411445695
      y: 2.02829111622
      z: 0.0
    orientation: 
      x: 0.0
      y: 0.0
      z: 0.677972120016
      w: 0.735087616873
  covariance: [471096538.6823533, -45273382.73916538, 0.0, 0.0, 0.0, 3.16236078074565e-28, -45273382.73916567, 4360593.798304391, 0.0, 0.0, 0.0, -2.664811880281231e-29, 0.0, 0.0, 6.02483938708676e-07, 1.444716267591356e-33, 2.113542927880656e-26, 0.0, 0.0, 0.0, 1.4447162675913566e-33, 5.019298685997129e-07, 1.5353712579744228e-30, 0.0, 0.0, 0.0, 2.1135429278806562e-26, -1.5353712579744228e-30, 5.019298685997129e-07, 0.0, 3.1623607807456497e-28, -2.664811880281231e-29, 0.0, 0.0, 0.0, 1.0166631468068498e-06]
twist: 
  twist: 
    linear: 
      x: -4.71945895101e-21
      y: 0.0
      z: 0.0
    angular: 
      x: 0.0
      y: 0.0
      z: 0.000146819356351
  covariance: [9.999996258859081e-10, 0.0, 0.0, 0.0, 0.0, 0.0, 0.0, 51436.006764690654, 0.0, 0.0, 0.0, 0.0, 0.0, 0.0, 5.406620821389765e-07, 4.151818883998997e-37, 3.3618442004738805e-38, 0.0, 0.0, 0.0, 4.151818883998995e-37, 4.008489616821106e-07, 1.1514119987033955e-34, 0.0, 0.0, 0.0, 3.3618442004738805e-38, -1.1514119987033955e-34, 4.008489616821106e-07, 0.0, 0.0, 0.0, 0.0, 0.0, 0.0, 9.970636114131361e-10]
---
header: 
  seq: 2491
  stamp: 
    secs: 1518209711
    nsecs: 612010479
  frame_id: "swarmone/odom"
child_frame_id: "swarmone/base_link"
pose: 
  pose: 
    position: 
      x: 0.271411445695
      y: 2.02829111622
      z: 0.0
    orientation: 
      x: 0.0
      y: 0.0
      z: 0.677972065603
      w: 0.735087667059
  covariance: [472045250.5006237, -45357763.90224525, 0.0, 0.0, 0.0, 3.0359417695220007e-28, -45357763.90224554, 4368038.627051988, 0.0, 0.0, 0.0, -2.458272612573019e-29, 0.0, 0.0, 6.069540238869143e-07, 1.1196339301837334e-33, 1.9909854139536033e-26, 0.0, 0.0, 0.0, 1.1196339301837336e-33, 5.054533361001117e-07, -2.049953101393328e-31, 0.0, 0.0, 0.0, 1.9909854139536036e-26, 2.049953101393328e-31, 5.054533361001117e-07, 0.0, 3.0359417695220007e-28, -2.458272612573019e-29, 0.0, 0.0, 0.0, 1.0452733762981115e-06]
twist: 
  twist: 
    linear: 
      x: -4.43086015893e-21
      y: 0.0
      z: 0.0
    angular: 
      x: 0.0
      y: 0.0
      z: 0.000114255909879
  covariance: [9.999996236335757e-10, 0.0, 0.0, 0.0, 0.0, 0.0, 0.0, 51497.873960626835, 0.0, 0.0, 0.0, 0.0, 0.0, 0.0, 5.446513972272637e-07, 4.086732298890492e-37, 3.30913089710248e-38, 0.0, 0.0, 0.0, 4.086732298890492e-37, 4.0255534059074016e-07, -5.860295254497525e-35, 0.0, 0.0, 0.0, 3.30913089710248e-38, 5.860295254497525e-35, 4.0255534059074016e-07, 0.0, 0.0, 0.0, 0.0, 0.0, 0.0, 9.971436008266794e-10]
---
header: 
  seq: 2492
  stamp: 
    secs: 1518209711
    nsecs: 712601423
  frame_id: "swarmone/odom"
child_frame_id: "swarmone/base_link"
pose: 
  pose: 
    position: 
      x: 0.271411445695
      y: 2.02829111622
      z: 0.0
    orientation: 
      x: 0.0
      y: 0.0
      z: 0.677972055088
      w: 0.735087676757
  covariance: [473003214.2227269, -45442960.02001074, 0.0, 0.0, 0.0, 2.820499297268652e-28, -45442960.02001103, 4375554.775320954, 0.0, 0.0, 0.0, -2.2838248890330016e-29, 0.0, 0.0, 6.002105469102147e-07, 1.0016278272220926e-33, 1.857707520935693e-26, 0.0, 0.0, 0.0, 1.0016278272220926e-33, 5.001491684065156e-07, 1.48092641636766e-30, 0.0, 0.0, 0.0, 1.8577075209356927e-26, -1.48092641636766e-30, 5.001491684065156e-07, 0.0, 2.820499297268652e-28, -2.2838248890330016e-29, 0.0, 0.0, 0.0, 1.0023580320611538e-06]
twist: 
  twist: 
    linear: 
      x: -4.15784592935e-21
      y: 0.0
      z: 0.0
    angular: 
      x: 0.0
      y: 0.0
      z: 0.000119123426678
  covariance: [9.999996268517488e-10, 0.0, 0.0, 0.0, 0.0, 0.0, 0.0, 51560.29396788486, 0.0, 0.0, 0.0, 0.0, 0.0, 0.0, 5.386410911046544e-07, 3.5681102641331236e-37, 2.8891896611446507e-38, 0.0, 0.0, 0.0, 3.568110264133123e-37, 3.9999207592790525e-07, -5.367029656384442e-38, 0.0, 0.0, 0.0, 2.8891896611446507e-38, 5.367029656384442e-38, 3.9999207592790525e-07, 0.0, 0.0, 0.0, 0.0, 0.0, 0.0, 9.97021912856732e-10]
---
header: 
  seq: 2493
  stamp: 
    secs: 1518209711
    nsecs: 812104464
  frame_id: "swarmone/odom"
child_frame_id: "swarmone/base_link"
pose: 
  pose: 
    position: 
      x: 0.271411445695
      y: 2.02829111622
      z: 0.0
    orientation: 
      x: 0.0
      y: 0.0
      z: 0.670587396682
      w: 0.741830535508
  covariance: [473952344.68844044, -45527364.21513172, 0.0, 0.0, 0.0, 2.5290442956068696e-28, -45527364.21513201, 4383000.641335908, 0.0, 0.0, 0.0, -2.3842445616387397e-29, 0.0, 0.0, 5.955847445212795e-07, 1.1144251046761622e-33, 1.7067085866231174e-26, 0.0, 0.0, 0.0, 1.1144251046761619e-33, 4.965490480110397e-07, 1.0399584112778277e-30, 0.0, 0.0, 0.0, 1.7067085866231168e-26, -1.0399584112778277e-30, 4.965490480110397e-07, 0.0, 2.52904429560687e-28, -2.38424456163874e-29, 0.0, 0.0, 0.0, 9.737478025671388e-07]
twist: 
  twist: 
    linear: 
      x: -3.90425013731e-21
      y: 0.0
      z: 0.0
    angular: 
      x: 0.0
      y: 0.0
      z: 0.000122605577984
  covariance: [9.999996225209727e-10, 0.0, 0.0, 0.0, 0.0, 0.0, 0.0, 51622.088500359445, 0.0, 0.0, 0.0, 0.0, 0.0, 0.0, 5.345450709257084e-07, 3.124315914509848e-37, 3.159825083985828e-38, 0.0, 0.0, 0.0, 3.1243159145098456e-37, 3.9826950903301893e-07, 9.615780641252508e-35, 0.0, 0.0, 0.0, 3.159825083985826e-38, -9.615780641252508e-35, 3.9826950903301893e-07, 0.0, 0.0, 0.0, 0.0, 0.0, 0.0, 9.969348590145081e-10]
---
header: 
  seq: 2494
  stamp: 
    secs: 1518209711
    nsecs: 911885023
  frame_id: "swarmone/odom"
child_frame_id: "swarmone/base_link"
pose: 
  pose: 
    position: 
      x: 0.271411445695
      y: 2.02829111622
      z: 0.0
    orientation: 
      x: 0.0
      y: 0.0
      z: 0.670587398977
      w: 0.741830533433
  covariance: [474903914.7345858, -45621575.96285073, 0.0, 0.0, 0.0, 2.3799480937327987e-28, -45621575.96285102, 4392323.910016484, 0.0, 0.0, 0.0, -2.407052416649007e-29, 0.0, 0.0, 5.979109317833125e-07, 1.0705526360921733e-33, 1.6155162691457455e-26, 0.0, 0.0, 0.0, 1.0705526360921733e-33, 4.983555117880439e-07, 2.061721799957377e-31, 0.0, 0.0, 0.0, 1.6155162691457452e-26, -2.061721799957377e-31, 4.983555117880439e-07, 0.0, 2.3799480937327987e-28, -2.4070524166490072e-29, 0.0, 0.0, 0.0, 9.88052917313705e-07]
twist: 
  twist: 
    linear: 
      x: -3.66550282323e-21
      y: 0.0
      z: 0.0
    angular: 
      x: 0.0
      y: 0.0
      z: 0.000120839421658
  covariance: [9.99999623634408e-10, 0.0, 0.0, 0.0, 0.0, 0.0, 0.0, 51684.10494350259, 0.0, 0.0, 0.0, 0.0, 0.0, 0.0, 5.366020966805744e-07, 3.027044288349557e-37, 3.0615228100644145e-38, 0.0, 0.0, 0.0, 3.0270442883495577e-37, 3.991317888840364e-07, 5.507284720677838e-37, 0.0, 0.0, 0.0, 3.061522810064415e-38, -5.507284720677838e-37, 3.991317888840364e-07, 0.0, 0.0, 0.0, 0.0, 0.0, 0.0, 9.96979012949125e-10]
---
header: 
  seq: 2495
  stamp: 
    secs: 1518209712
    nsecs:  12192488
  frame_id: "swarmone/odom"
child_frame_id: "swarmone/base_link"
pose: 
  pose: 
    position: 
      x: 0.271411445695
      y: 2.02829111622
      z: 0.0
    orientation: 
      x: 0.0
      y: 0.0
      z: 0.674288607494
      w: 0.738467923342
  covariance: [475862048.97607684, -45716437.728476614, 0.0, 0.0, 0.0, 5.072857695177634e-28, -45716437.7284769, 4401711.536696536, 0.0, 0.0, 0.0, -4.694610481715921e-29, 0.0, 0.0, 7.691795183724877e-07, 2.9394357960743397e-33, 1.7166554551351106e-26, 0.0, 0.0, 0.0, 2.93943579607434e-33, 6.570791896683463e-07, -4.359041901007707e-31, 0.0, 0.0, 0.0, 1.7166554551351103e-26, 4.359041901007707e-31, 6.570791896683463e-07, 0.0, 5.072857695177634e-28, -4.6946104817159216e-29, 0.0, 0.0, 0.0, 2.8334127195625814e-06]
twist: 
  twist: 
    linear: 
      x: -3.4402457264e-21
      y: 0.0
      z: 0.0
    angular: 
      x: 0.0
      y: 0.0
      z: 4.22771288917e-05
  covariance: [9.999996257320984e-10, 0.0, 0.0, 0.0, 0.0, 0.0, 0.0, 51746.49891837113, 0.0, 0.0, 0.0, 0.0, 0.0, 0.0, 7.04859153936567e-07, 1.4240722013674391e-36, 1.2964927163272354e-37, 0.0, 0.0, 0.0, 1.424072201367439e-36, 4.928542295762966e-07, -3.7369340820641077e-34, 0.0, 0.0, 0.0, 1.296492716327235e-37, 3.7369340820641073e-34, 4.928542295762966e-07, 0.0, 0.0, 0.0, 0.0, 0.0, 0.0, 9.989430712522066e-10]
---
header: 
  seq: 2496
  stamp: 
    secs: 1518209712
    nsecs: 111998796
  frame_id: "swarmone/odom"
child_frame_id: "swarmone/base_link"
pose: 
  pose: 
    position: 
      x: 0.271411445695
      y: 2.02829111622
      z: 0.0
    orientation: 
      x: 0.0
      y: 0.0
      z: 0.685288905724
      w: 0.728271320108
  covariance: [476817847.9237612, -45806244.229248166, 0.0, 0.0, 0.0, 3.426596967977989e-28, -45806244.22924846, 4410141.577298195, 0.0, 0.0, 0.0, -2.694470046903916e-29, 0.0, 0.0, 5.979109337225911e-07, 5.695998462310488e-34, 1.4239036226791808e-26, 0.0, 0.0, 0.0, 5.695998462310488e-34, 4.983555188754523e-07, 3.5985622549651337e-31, 0.0, 0.0, 0.0, 1.4239036226791805e-26, -3.5985622549651337e-31, 4.983555188754523e-07, 0.0, 3.426596967977988e-28, -2.6944700469039154e-29, 0.0, 0.0, 0.0, 9.880529173137998e-07]
twist: 
  twist: 
    linear: 
      x: -3.22981692374e-21
      y: 0.0
      z: 0.0
    angular: 
      x: 0.0
      y: 0.0
      z: 0.000120839421552
  covariance: [9.999996237375193e-10, 0.0, 0.0, 0.0, 0.0, 0.0, 0.0, 51808.63098226888, 0.0, 0.0, 0.0, 0.0, 0.0, 0.0, 5.366021007276554e-07, 2.6798394038149843e-37, 1.632152751749669e-38, 0.0, 0.0, 0.0, 2.6798394038149843e-37, 3.991318207444919e-07, 9.919669142418712e-37, 0.0, 0.0, 0.0, 1.6321527517496689e-38, -9.919669142418712e-37, 3.991318207444919e-07, 0.0, 0.0, 0.0, 0.0, 0.0, 0.0, 9.969790129491263e-10]
---
header: 
  seq: 2497
  stamp: 
    secs: 1518209712
    nsecs: 212754250
  frame_id: "swarmone/odom"
child_frame_id: "swarmone/base_link"
pose: 
  pose: 
    position: 
      x: 0.271411445695
      y: 2.02829111622
      z: 0.0
    orientation: 
      x: 0.0
      y: 0.0
      z: 0.666869824077
      w: 0.74517423314
  covariance: [477786496.50989604, -45882639.74610374, 0.0, 0.0, 0.0, 2.0177332653447787e-28, -45882639.74610405, 4415853.291354998, 0.0, 0.0, 0.0, -1.908016349013392e-29, 0.0, 0.0, 6.002105577095483e-07, 7.512955508978439e-34, 1.3563654157971135e-26, 0.0, 0.0, 0.0, 7.512955508978443e-34, 5.001491602278687e-07, -2.2096491937101045e-31, 0.0, 0.0, 0.0, 1.356365415797113e-26, 2.2096491937101045e-31, 5.001491602278687e-07, 0.0, 2.017733265344779e-28, -1.908016349013392e-29, 0.0, 0.0, 0.0, 1.002358032061423e-06]
twist: 
  twist: 
    linear: 
      x: -3.03050169764e-21
      y: 0.0
      z: 0.0
    angular: 
      x: 0.0
      y: 0.0
      z: 8.93425701328e-05
  covariance: [9.999996274985259e-10, 0.0, 0.0, 0.0, 0.0, 0.0, 0.0, 51871.40434190415, 0.0, 0.0, 0.0, 0.0, 0.0, 0.0, 5.386411126674178e-07, 2.597605714491982e-37, 2.8898130112984117e-38, 0.0, 0.0, 0.0, 2.597605714491981e-37, 3.9999222149991454e-07, 1.3467004784287434e-34, 0.0, 0.0, 0.0, 2.8898130112984096e-38, -1.3467004784287434e-34, 3.9999222149991454e-07, 0.0, 0.0, 0.0, 0.0, 0.0, 0.0, 9.970219128567393e-10]
---
header: 
  seq: 2498
  stamp: 
    secs: 1518209712
    nsecs: 312555075
  frame_id: "swarmone/odom"
child_frame_id: "swarmone/base_link"
pose: 
  pose: 
    position: 
      x: 0.271411445695
      y: 2.02829111622
      z: 0.0
    orientation: 
      x: 0.0
      y: 0.0
      z: 0.681639388351
      w: 0.731688283525
  covariance: [478743391.2870878, -45982195.01025761, 0.0, 0.0, 0.0, 3.8813836833259417e-28, -45982195.01025791, 4426161.49640094, 0.0, 0.0, 0.0, -3.005522545153261e-29, 0.0, 0.0, 7.554524331413305e-07, 1.742830768953729e-33, 1.4271614541757496e-26, 0.0, 0.0, 0.0, 1.7428307689537293e-33, 6.421582138213368e-07, -1.4045931259468659e-30, 0.0, 0.0, 0.0, 1.42716145417575e-26, 1.4045931259468659e-30, 6.421582138213368e-07, 0.0, 3.8813836833259417e-28, -3.005522545153261e-29, 0.0, 0.0, 0.0, 2.5902257688777854e-06]
twist: 
  twist: 
    linear: 
      x: -2.84514470734e-21
      y: 0.0
      z: 0.0
    angular: 
      x: 0.0
      y: 0.0
      z: 4.62387286261e-05
  covariance: [9.999996237161023e-10, 0.0, 0.0, 0.0, 0.0, 0.0, 0.0, 51933.632911716995, 0.0, 0.0, 0.0, 0.0, 0.0, 0.0, 6.900270427014301e-07, 1.0625967786537237e-36, 7.533135604340562e-38, 0.0, 0.0, 0.0, 1.0625967786537242e-36, 4.822106334730358e-07, -1.521783166864487e-34, 0.0, 0.0, 0.0, 7.533135604340562e-38, 1.5217831668644872e-34, 4.822106334730358e-07, 0.0, 0.0, 0.0, 0.0, 0.0, 0.0, 9.988440312062545e-10]
---
header: 
  seq: 2499
  stamp: 
    secs: 1518209712
    nsecs: 412179470
  frame_id: "swarmone/odom"
child_frame_id: "swarmone/base_link"
pose: 
  pose: 
    position: 
      x: 0.271411445695
      y: 2.02829111622
      z: 0.0
    orientation: 
      x: 0.0
      y: 0.0
      z: 0.674288148056
      w: 0.73846834285
  covariance: [479703613.6968073, -46062736.80194588, 0.0, 0.0, 0.0, 2.6520122546990114e-28, -46062736.80194618, 4432755.878918657, 0.0, 0.0, 0.0, -2.107567817746315e-29, 0.0, 0.0, 5.93231513360704e-07, 6.740086160030129e-34, 1.163008420079691e-26, 0.0, 0.0, 0.0, 6.740086160030127e-34, 4.947296133917935e-07, -2.114060862409037e-30, 0.0, 0.0, 0.0, 1.1630084200796908e-26, 2.114060862409037e-30, 4.947296133917935e-07, 0.0, 2.652012254699011e-28, -2.107567817746315e-29, 0.0, 0.0, 0.0, 9.594426878212861e-07]
twist: 
  twist: 
    linear: 
      x: -2.6714128494e-21
      y: 0.0
      z: 0.0
    angular: 
      x: 0.0
      y: 0.0
      z: 0.000124424127546
  covariance: [9.99999623008687e-10, 0.0, 0.0, 0.0, 0.0, 0.0, 0.0, 51995.80109214805, 0.0, 0.0, 0.0, 0.0, 0.0, 0.0, 5.324697568572218e-07, 2.0833917117627547e-37, 1.8963945391673325e-38, 0.0, 0.0, 0.0, 2.0833917117627555e-37, 3.974051224786086e-07, -3.972806720124491e-35, 0.0, 0.0, 0.0, 1.896394539167332e-38, 3.97280672012449e-35, 3.974051224786086e-07, 0.0, 0.0, 0.0, 0.0, 0.0, 0.0, 9.968893952517367e-10]
---
header: 
  seq: 2500
  stamp: 
    secs: 1518209712
    nsecs: 512222290
  frame_id: "swarmone/odom"
child_frame_id: "swarmone/base_link"
pose: 
  pose: 
    position: 
      x: 0.271411445695
      y: 2.02829111622
      z: 0.0
    orientation: 
      x: 0.0
      y: 0.0
      z: 0.674288090664
      w: 0.738468395254
  covariance: [480667853.02245545, -46153312.47655672, 0.0, 0.0, 0.0, 1.6104988927764214e-28, -46153312.476557, 4441256.049281741, 0.0, 0.0, 0.0, -1.4663019633476444e-29, 0.0, 0.0, 5.955847814637224e-07, 4.867358707046188e-34, 1.102507847603115e-26, 0.0, 0.0, 0.0, 4.867358707046189e-34, 4.965491217064047e-07, 8.29370852914349e-31, 0.0, 0.0, 0.0, 1.1025078476031148e-26, -8.29370852914349e-31, 4.965491217064047e-07, 0.0, 1.6104988927764217e-28, -1.4663019633476444e-29, 0.0, 0.0, 0.0, 9.737478025680413e-07]
twist: 
  twist: 
    linear: 
      x: -2.50765143836e-21
      y: 0.0
      z: 0.0
    angular: 
      x: 0.0
      y: 0.0
      z: 9.19541837898e-05
  covariance: [9.999996246813423e-10, 0.0, 0.0, 0.0, 0.0, 0.0, 0.0, 52058.28028852229, 0.0, 0.0, 0.0, 0.0, 0.0, 0.0, 5.345451443129161e-07, 2.0201543621662026e-37, 1.839282266671564e-38, 0.0, 0.0, 0.0, 2.020154362166202e-37, 3.982699989119233e-07, 3.3458803885930725e-37, 0.0, 0.0, 0.0, 1.839282266671564e-38, -3.3458803885912905e-37, 3.982699989119233e-07, 0.0, 0.0, 0.0, 0.0, 0.0, 0.0, 9.969348590145335e-10]
---
header: 
  seq: 2501
  stamp: 
    secs: 1518209712
    nsecs: 612756491
  frame_id: "swarmone/odom"
child_frame_id: "swarmone/base_link"
pose: 
  pose: 
    position: 
      x: 0.271411445695
      y: 2.02829111622
      z: 0.0
    orientation: 
      x: 0.0
      y: 0.0
      z: 0.674288157385
      w: 0.738468334332
  covariance: [481638388.2076884, -46244476.8298725, 0.0, 0.0, 0.0, 1.5566002865584428e-28, -46244476.82987278, 4449811.225495201, 0.0, 0.0, 0.0, -1.4172300782022895e-29, 0.0, 0.0, 6.002105431609835e-07, 6.363955326004388e-34, 1.0507782448699782e-26, 0.0, 0.0, 0.0, 6.36395532600439e-34, 5.001491565233498e-07, -5.424033589430543e-31, 0.0, 0.0, 0.0, 1.0507782448699783e-26, 5.424033589430543e-31, 5.001491565233498e-07, 0.0, 1.5566002865584428e-28, -1.4172300782022895e-29, 0.0, 0.0, 0.0, 1.0023580320610585e-06]
twist: 
  twist: 
    linear: 
      x: -2.35321992548e-21
      y: 0.0
      z: 0.0
    angular: 
      x: 0.0
      y: 0.0
      z: 0.000119123426612
  covariance: [9.999996266282589e-10, 0.0, 0.0, 0.0, 0.0, 0.0, 0.0, 52121.116766243285, 0.0, 0.0, 0.0, 0.0, 0.0, 0.0, 5.386410836080859e-07, 2.016428270462873e-37, 1.835889312319334e-38, 0.0, 0.0, 0.0, 2.016428270462874e-37, 3.999920251198547e-07, -3.8328392524676076e-35, 0.0, 0.0, 0.0, 1.8358893123193337e-38, 3.8328392524676076e-35, 3.999920251198547e-07, 0.0, 0.0, 0.0, 0.0, 0.0, 0.0, 9.970219128567296e-10]
---
header: 
  seq: 2502
  stamp: 
    secs: 1518209712
    nsecs: 711974621
  frame_id: "swarmone/odom"
child_frame_id: "swarmone/base_link"
pose: 
  pose: 
    position: 
      x: 0.271411445695
      y: 2.02829111622
      z: 0.0
    orientation: 
      x: 0.0
      y: 0.0
      z: 0.670587403137
      w: 0.741830529672
  covariance: [482597753.10468143, -46334589.91112125, 0.0, 0.0, 0.0, 1.4545337677434884e-28, -46334589.91112154, 4458267.576472221, 0.0, 0.0, 0.0, -1.4221105244617912e-29, 0.0, 0.0, 6.002104553020004e-07, 6.541539999549108e-34, 9.731569512243882e-27, 0.0, 0.0, 0.0, 6.541539999549105e-34, 5.001488817700897e-07, -8.22459963931545e-31, 0.0, 0.0, 0.0, 9.73156951224388e-27, 8.22459963931545e-31, 5.001488817700897e-07, 0.0, 1.4545337677434886e-28, -1.4221105244617912e-29, 0.0, 0.0, 0.0, 1.0023580320588603e-06]
twist: 
  twist: 
    linear: 
      x: -2.21007781757e-21
      y: 0.0
      z: 0.0
    angular: 
      x: 0.0
      y: 0.0
      z: 0.000119123425871
  covariance: [9.999996213709375e-10, 0.0, 0.0, 0.0, 0.0, 0.0, 0.0, 52183.18022331046, 0.0, 0.0, 0.0, 0.0, 0.0, 0.0, 5.386409081319322e-07, 1.8657034147089328e-37, 1.886942409471061e-38, 0.0, 0.0, 0.0, 1.8657034147089318e-37, 3.999908395264149e-07, -6.170969288902805e-38, 0.0, 0.0, 0.0, 1.8869424094710602e-38, 6.170969288902805e-38, 3.999908395264149e-07, 0.0, 0.0, 0.0, 0.0, 0.0, 0.0, 9.970219128566711e-10]
---
header: 
  seq: 2503
  stamp: 
    secs: 1518209712
    nsecs: 812720537
  frame_id: "swarmone/odom"
child_frame_id: "swarmone/base_link"
pose: 
  pose: 
    position: 
      x: 0.271411445695
      y: 2.02829111622
      z: 0.0
    orientation: 
      x: 0.0
      y: 0.0
      z: 0.674288284237
      w: 0.738468218505
  covariance: [483572515.358467, -46431066.155339174, 0.0, 0.0, 0.0, 1.5857369464879494e-28, -46431066.155339465, 4467811.676414996, 0.0, 0.0, 0.0, -1.4904279814963356e-29, 0.0, 0.0, 6.317970351973465e-07, 9.053945897857474e-34, 9.850176771418527e-27, 0.0, 0.0, 0.0, 9.053945897857474e-34, 5.255909704461799e-07, -2.5493363518278997e-30, 0.0, 0.0, 0.0, 9.850176771418525e-27, 2.5493363518278997e-30, 5.255909704461799e-07, 0.0, 1.5857369464879494e-28, -1.4904279814963356e-29, 0.0, 0.0, 0.0, 1.2169347532529398e-06]
twist: 
  twist: 
    linear: 
      x: -2.0737044999e-21
      y: 0.0
      z: 0.0
    angular: 
      x: 0.0
      y: 0.0
      z: 0.000122756084546
  covariance: [9.999996274609652e-10, 0.0, 0.0, 0.0, 0.0, 0.0, 0.0, 52246.24974364012, 0.0, 0.0, 0.0, 0.0, 0.0, 0.0, 5.672046998938196e-07, 2.5587962768503157e-37, 2.3296362442738938e-38, 0.0, 0.0, 0.0, 2.558796276850315e-37, 4.1259668141919963e-07, 2.267907202421045e-34, 0.0, 0.0, 0.0, 2.3296362442738925e-38, -2.267907202421045e-34, 4.1259668141919963e-07, 0.0, 0.0, 0.0, 0.0, 0.0, 0.0, 9.975448770932616e-10]
---
header: 
  seq: 2504
  stamp: 
    secs: 1518209712
    nsecs: 912202358
  frame_id: "swarmone/odom"
child_frame_id: "swarmone/base_link"
pose: 
  pose: 
    position: 
      x: 0.271411445695
      y: 2.02829111622
      z: 0.0
    orientation: 
      x: 0.0
      y: 0.0
      z: 0.674288189076
      w: 0.738468305394
  covariance: [484537517.96928793, -46521707.50627332, 0.0, 0.0, 0.0, 1.4879654750834372e-28, -46521707.50627362, 4476317.476657752, 0.0, 0.0, 0.0, -1.3547375742679953e-29, 0.0, 0.0, 6.197808526885534e-07, 6.111723233849072e-34, 8.941113389082513e-27, 0.0, 0.0, 0.0, 6.111723233849071e-34, 5.157312355575754e-07, -3.562648013281222e-31, 0.0, 0.0, 0.0, 8.941113389082514e-27, 3.562648013281222e-31, 5.157312355575754e-07, 0.0, 1.4879654750834372e-28, -1.3547375742679955e-29, 0.0, 0.0, 0.0, 1.131104064774228e-06]
twist: 
  twist: 
    linear: 
      x: -1.9472499051e-21
      y: 0.0
      z: 0.0
    angular: 
      x: 0.0
      y: 0.0
      z: 0.00010562407417
  covariance: [9.999996224355519e-10, 0.0, 0.0, 0.0, 0.0, 0.0, 0.0, 52308.57775526861, 0.0, 0.0, 0.0, 0.0, 0.0, 0.0, 5.562143089701682e-07, 2.075084230932699e-37, 1.8892933464818913e-38, 0.0, 0.0, 0.0, 2.0750842309326994e-37, 4.076178770271549e-07, 9.61417069490998e-35, 0.0, 0.0, 0.0, 1.8892933464818918e-38, -9.614170694910003e-35, 4.076178770271549e-07, 0.0, 0.0, 0.0, 0.0, 0.0, 0.0, 9.97359396822388e-10]
---
header: 
  seq: 2505
  stamp: 
    secs: 1518209713
    nsecs:  12616634
  frame_id: "swarmone/odom"
child_frame_id: "swarmone/base_link"
pose: 
  pose: 
    position: 
      x: 0.271411445695
      y: 2.02829111622
      z: 0.0
    orientation: 
      x: 0.0
      y: 0.0
      z: 0.674288201218
      w: 0.738468294308
  covariance: [485513125.78473926, -46613342.32175136, 0.0, 0.0, 0.0, 1.2246831623130684e-28, -46613342.32175166, 4484916.269824627, 0.0, 0.0, 0.0, -1.115029637156977e-29, 0.0, 0.0, 5.908507819082836e-07, 5.6949902804182275e-34, 7.978162961347275e-27, 0.0, 0.0, 0.0, 5.694990280418228e-34, 4.928971615773391e-07, 9.108821236622933e-31, 0.0, 0.0, 0.0, 7.978162961347275e-27, -9.108821236622933e-31, 4.928971615773391e-07, 0.0, 1.2246831623130684e-28, -1.1150296371569768e-29, 0.0, 0.0, 0.0, 9.451375730764605e-07]
twist: 
  twist: 
    linear: 
      x: -1.82746453761e-21
      y: 0.0
      z: 0.0
    angular: 
      x: 0.0
      y: 0.0
      z: 0.000157871796586
  covariance: [9.999996261548295e-10, 0.0, 0.0, 0.0, 0.0, 0.0, 0.0, 52371.54022622415, 0.0, 0.0, 0.0, 0.0, 0.0, 0.0, 5.303759445339958e-07, 1.3937174969873658e-37, 1.2689321765901156e-38, 0.0, 0.0, 0.0, 1.3937174969873656e-37, 3.965388410914356e-07, -1.3284936423875453e-34, 0.0, 0.0, 0.0, 1.2689321765901146e-38, 1.3284936423875453e-34, 3.965388410914356e-07, 0.0, 0.0, 0.0, 0.0, 0.0, 0.0, 9.968425624991544e-10]
---
header: 
  seq: 2506
  stamp: 
    secs: 1518209713
    nsecs: 112105370
  frame_id: "swarmone/odom"
child_frame_id: "swarmone/base_link"
pose: 
  pose: 
    position: 
      x: 0.271411445695
      y: 2.02829111622
      z: 0.0
    orientation: 
      x: 0.0
      y: 0.0
      z: 0.674288396099
      w: 0.738468116364
  covariance: [486481288.8735238, -46704275.09927138, 0.0, 0.0, 0.0, 1.1010059570664595e-28, -46704275.099271685, 4493448.939393431, 0.0, 0.0, 0.0, -1.0024263297513824e-29, 0.0, 0.0, 5.979109119754329e-07, 9.001541549864438e-34, 7.539637353539729e-27, 0.0, 0.0, 0.0, 9.001541549864438e-34, 4.983556151771757e-07, -3.9204678707288454e-30, 0.0, 0.0, 0.0, 7.539637353539729e-27, 3.9204678707288454e-30, 4.983556151771757e-07, 0.0, 1.1010059570664593e-28, -1.0024263297513825e-29, 0.0, 0.0, 0.0, 9.880529173132143e-07]
twist: 
  twist: 
    linear: 
      x: -1.7160192277e-21
      y: 0.0
      z: 0.0
    angular: 
      x: 0.0
      y: 0.0
      z: 0.00024167884283
  covariance: [9.99999622463278e-10, 0.0, 0.0, 0.0, 0.0, 0.0, 0.0, 52433.972167664186, 0.0, 0.0, 0.0, 0.0, 0.0, 0.0, 5.366020572199267e-07, 1.4140624378659895e-37, 1.2874548616786032e-38, 0.0, 0.0, 0.0, 1.4140624378659893e-37, 3.991315237783014e-07, 7.754087441815025e-35, 0.0, 0.0, 0.0, 1.2874548616786027e-38, -7.754087441815024e-35, 3.991315237783014e-07, 0.0, 0.0, 0.0, 0.0, 0.0, 0.0, 9.969790129491116e-10]
---
header: 
  seq: 2507
  stamp: 
    secs: 1518209713
    nsecs: 212330341
  frame_id: "swarmone/odom"
child_frame_id: "swarmone/base_link"
pose: 
  pose: 
    position: 
      x: 0.271411445695
      y: 2.02829111622
      z: 0.0
    orientation: 
      x: 0.0
      y: 0.0
      z: 0.677972011721
      w: 0.735087716754
  covariance: [487458176.2768455, -46796023.339469045, 0.0, 0.0, 0.0, 1.1391487317492255e-28, -46796023.33946935, 4502057.765754371, 0.0, 0.0, 0.0, -9.578994384561749e-30, 0.0, 0.0, 6.155993271785883e-07, 3.2938961335838762e-34, 7.396617001351587e-27, 0.0, 0.0, 0.0, 3.293896133583877e-34, 5.123531511468193e-07, -5.043237710840272e-31, 0.0, 0.0, 0.0, 7.396617001351588e-27, 5.043237710840272e-31, 5.123531511468193e-07, 0.0, 1.1391487317492255e-28, -9.57899438456175e-30, 0.0, 0.0, 0.0, 1.1024938352832593e-06]
twist: 
  twist: 
    linear: 
      x: -1.61064537155e-21
      y: 0.0
      z: 0.0
    angular: 
      x: 0.0
      y: 0.0
      z: 8.12645205738e-05
  covariance: [9.999996254051822e-10, 0.0, 0.0, 0.0, 0.0, 0.0, 0.0, 52496.916268865665, 0.0, 0.0, 0.0, 0.0, 0.0, 0.0, 5.524258923709553e-07, 1.6507489606679767e-37, 1.3366353316065042e-38, 0.0, 0.0, 0.0, 1.6507489606679776e-37, 4.0594049230184403e-07, -2.5531214594476616e-37, 0.0, 0.0, 0.0, 1.3366353316065045e-38, 2.5531214594476616e-37, 4.0594049230184403e-07, 0.0, 0.0, 0.0, 0.0, 0.0, 0.0, 9.972911813068127e-10]
---
header: 
  seq: 2508
  stamp: 
    secs: 1518209713
    nsecs: 312751532
  frame_id: "swarmone/odom"
child_frame_id: "swarmone/base_link"
pose: 
  pose: 
    position: 
      x: 0.271411445695
      y: 2.02829111622
      z: 0.0
    orientation: 
      x: 0.0
      y: 0.0
      z: 0.674288150955
      w: 0.738468340202
  covariance: [488439391.6067747, -46883232.26361051, 0.0, 0.0, 0.0, 1.0229717436567006e-28, -46883232.26361082, 4509747.455064152, 0.0, 0.0, 0.0, -8.940892145613775e-30, 0.0, 0.0, 5.955848071535951e-07, 3.925304120860569e-34, 6.672382429913269e-27, 0.0, 0.0, 0.0, 3.925304120860568e-34, 4.965492422693687e-07, 3.4171931959714396e-32, 0.0, 0.0, 0.0, 6.672382429913267e-27, -3.4171931959714396e-32, 4.965492422693687e-07, 0.0, 1.0229717436567006e-28, -8.940892145613775e-30, 0.0, 0.0, 0.0, 9.73747802568673e-07]
twist: 
  twist: 
    linear: 
      x: -1.51155937263e-21
      y: 0.0
      z: 0.0
    angular: 
      x: 0.0
      y: 0.0
      z: 0.000122605578486
  covariance: [9.99999626182282e-10, 0.0, 0.0, 0.0, 0.0, 0.0, 0.0, 52560.034104574, 0.0, 0.0, 0.0, 0.0, 0.0, 0.0, 5.345451953670709e-07, 1.2226952396582664e-37, 1.1132019249891164e-38, 0.0, 0.0, 0.0, 1.2226952396582664e-37, 3.9827034009444576e-07, 2.8936534938614396e-34, 0.0, 0.0, 0.0, 1.1132019249891164e-38, -2.8936534938614396e-34, 3.9827034009444576e-07, 0.0, 0.0, 0.0, 0.0, 0.0, 0.0, 9.969348590145511e-10]
---
header: 
  seq: 2509
  stamp: 
    secs: 1518209713
    nsecs: 412224531
  frame_id: "swarmone/odom"
child_frame_id: "swarmone/base_link"
pose: 
  pose: 
    position: 
      x: 0.271411445695
      y: 2.02829111622
      z: 0.0
    orientation: 
      x: 0.0
      y: 0.0
      z: 0.670587396061
      w: 0.741830536069
  covariance: [489412059.9430589, -46974575.467549354, 0.0, 0.0, 0.0, 9.099511654920735e-29, -46974575.46754966, 4518317.524237619, 0.0, 0.0, 0.0, -8.896665868557673e-30, 0.0, 0.0, 5.955847424477149e-07, 4.050577530753636e-34, 6.2027590369867604e-27, 0.0, 0.0, 0.0, 4.050577530753636e-34, 4.965490415768606e-07, 9.598052582375122e-31, 0.0, 0.0, 0.0, 6.2027590369867604e-27, -9.598052582375122e-31, 4.965490415768606e-07, 0.0, 9.099511654920735e-29, -8.896665868557675e-30, 0.0, 0.0, 0.0, 9.737478025670874e-07]
twist: 
  twist: 
    linear: 
      x: -1.41939230153e-21
      y: 0.0
      z: 0.0
    angular: 
      x: 0.0
      y: 0.0
      z: 0.000122605577971
  covariance: [9.99999622400033e-10, 0.0, 0.0, 0.0, 0.0, 0.0, 0.0, 52622.605832311776, 0.0, 0.0, 0.0, 0.0, 0.0, 0.0, 5.345450668027792e-07, 1.1354646654954627e-37, 1.148385180050167e-38, 0.0, 0.0, 0.0, 1.1354646654954623e-37, 3.9826948144300596e-07, 9.633206062693817e-35, 0.0, 0.0, 0.0, 1.1483851800501671e-38, -9.633206062693817e-35, 3.9826948144300596e-07, 0.0, 0.0, 0.0, 0.0, 0.0, 0.0, 9.969348590145067e-10]
---
header: 
  seq: 2510
  stamp: 
    secs: 1518209713
    nsecs: 512768030
  frame_id: "swarmone/odom"
child_frame_id: "swarmone/base_link"
pose: 
  pose: 
    position: 
      x: 0.271411445695
      y: 2.02829111622
      z: 0.0
    orientation: 
      x: 0.0
      y: 0.0
      z: 0.674288153252
      w: 0.738468338105
  covariance: [490395822.3836343, -47071923.031638525, 0.0, 0.0, 0.0, 8.724095817250124e-29, -47071923.03163883, 4527945.807717936, 0.0, 0.0, 0.0, -8.233586203115213e-30, 0.0, 0.0, 5.97910983011347e-07, 3.534117001718106e-34, 5.91813266328451e-27, 0.0, 0.0, 0.0, 3.534117001718106e-34, 4.983556713712587e-07, 7.114601987467115e-32, 0.0, 0.0, 0.0, 5.918132663284509e-27, -7.114601987467115e-32, 4.983556713712587e-07, 0.0, 8.724095817250124e-29, -8.233586203115214e-30, 0.0, 0.0, 0.0, 9.880529173149725e-07]
twist: 
  twist: 
    linear: 
      x: -1.33197286121e-21
      y: 0.0
      z: 0.0
    angular: 
      x: 0.0
      y: 0.0
      z: 0.000120839422115
  covariance: [9.999996266648678e-10, 0.0, 0.0, 0.0, 0.0, 0.0, 0.0, 52685.90138566348, 0.0, 0.0, 0.0, 0.0, 0.0, 0.0, 5.366021987267119e-07, 1.1099665305065297e-37, 1.0105955182621574e-38, 0.0, 0.0, 0.0, 1.10996653050653e-37, 3.9913247429655246e-07, 1.9311451001067077e-34, 0.0, 0.0, 0.0, 1.0105955182621576e-38, -1.9311451001067077e-34, 3.9913247429655246e-07, 0.0, 0.0, 0.0, 0.0, 0.0, 0.0, 9.969790129491598e-10]
---
header: 
  seq: 2511
  stamp: 
    secs: 1518209713
    nsecs: 612249136
  frame_id: "swarmone/odom"
child_frame_id: "swarmone/base_link"
pose: 
  pose: 
    position: 
      x: 0.271411445695
      y: 2.02829111622
      z: 0.0
    orientation: 
      x: 0.0
      y: 0.0
      z: 0.674288088023
      w: 0.738468397665
  covariance: [491371682.7993769, -47163564.92671205, 0.0, 0.0, 0.0, 7.984872503139193e-29, -47163564.92671236, 4536543.796626626, 0.0, 0.0, 0.0, -7.269941835861328e-30, 0.0, 0.0, 5.932315032094064e-07, 2.3649657279908342e-34, 5.4368038646387344e-27, 0.0, 0.0, 0.0, 2.3649657279908347e-34, 4.947295410036668e-07, -8.417673202993202e-31, 0.0, 0.0, 0.0, 5.4368038646387344e-27, 8.417673202993202e-31, 4.947295410036668e-07, 0.0, 7.984872503139193e-29, -7.269941835861326e-30, 0.0, 0.0, 0.0, 9.594426878210003e-07]
twist: 
  twist: 
    linear: 
      x: -1.25074983652e-21
      y: 0.0
      z: 0.0
    angular: 
      x: 0.0
      y: 0.0
      z: 9.33180957271e-05
  covariance: [9.99999622432672e-10, 0.0, 0.0, 0.0, 0.0, 0.0, 0.0, 52748.57806205018, 0.0, 0.0, 0.0, 0.0, 0.0, 0.0, 5.324697365778372e-07, 9.72875079250516e-38, 8.857697726739056e-39, 0.0, 0.0, 0.0, 9.728750792505165e-38, 3.974049838364727e-07, 3.9581943782662363e-35, 0.0, 0.0, 0.0, 8.857697726739059e-39, -3.9581943782662363e-35, 3.974049838364727e-07, 0.0, 0.0, 0.0, 0.0, 0.0, 0.0, 9.968893952517296e-10]
---
header: 
  seq: 2512
  stamp: 
    secs: 1518209713
    nsecs: 712805510
  frame_id: "swarmone/odom"
child_frame_id: "swarmone/base_link"
pose: 
  pose: 
    position: 
      x: 0.271411445695
      y: 2.02829111622
      z: 0.0
    orientation: 
      x: 0.0
      y: 0.0
      z: 0.674288604586
      w: 0.738467925997
  covariance: [492359667.6664005, -47256342.696176834, 0.0, 0.0, 0.0, 1.720592943551172e-28, -47256342.69617714, 4545248.116124049, 0.0, 0.0, 0.0, -1.566541198800054e-29, 0.0, 0.0, 7.684148497466207e-07, 1.001081483847739e-33, 5.876262753947249e-27, 0.0, 0.0, 0.0, 1.0010814838477394e-33, 6.562360420579188e-07, -7.5704827187598855e-31, 0.0, 0.0, 0.0, 5.8762627539472486e-27, 7.5704827187598855e-31, 6.562360420579188e-07, 0.0, 1.7205929435511718e-28, -1.566541198800054e-29, 0.0, 0.0, 0.0, 2.8191076048168768e-06]
twist: 
  twist: 
    linear: 
      x: -1.17370772177e-21
      y: 0.0
      z: 0.0
    angular: 
      x: 0.0
      y: 0.0
      z: 4.24912777032e-05
  covariance: [9.999996267156135e-10, 0.0, 0.0, 0.0, 0.0, 0.0, 0.0, 52811.98269474736, 0.0, 0.0, 0.0, 0.0, 0.0, 0.0, 7.04026094866419e-07, 4.845100169033377e-37, 4.41129353963947e-38, 0.0, 0.0, 0.0, 4.845100169033377e-37, 4.922404411653644e-07, -3.9727362935391224e-34, 0.0, 0.0, 0.0, 4.41129353963947e-38, 3.9727362935391224e-34, 4.922404411653644e-07, 0.0, 0.0, 0.0, 0.0, 0.0, 0.0, 9.98937717530205e-10]
---
header: 
  seq: 2513
  stamp: 
    secs: 1518209713
    nsecs: 812204361
  frame_id: "swarmone/odom"
child_frame_id: "swarmone/base_link"
pose: 
  pose: 
    position: 
      x: 0.271411445695
      y: 2.02829111622
      z: 0.0
    orientation: 
      x: 0.0
      y: 0.0
      z: 0.670587399598
      w: 0.741830532872
  covariance: [493337839.32739437, -47348196.2987509, 0.0, 0.0, 0.0, 1.1592691256592124e-28, -47348196.29875121, 4553865.498936566, 0.0, 0.0, 0.0, -1.1036376492830285e-29, 0.0, 0.0, 5.979109060564302e-07, 3.204585293703132e-34, 4.838092808252531e-27, 0.0, 0.0, 0.0, 3.2045852937031325e-34, 4.983554322432577e-07, -2.78190710889798e-31, 0.0, 0.0, 0.0, 4.83809280825253e-27, 2.78190710889798e-31, 4.983554322432577e-07, 0.0, 1.1592691256592124e-28, -1.1036376492830287e-29, 0.0, 0.0, 0.0, 9.880529173131154e-07]
twist: 
  twist: 
    linear: 
      x: -1.10218996051e-21
      y: 0.0
      z: 0.0
    angular: 
      x: 0.0
      y: 0.0
      z: 0.000120839421305
  covariance: [9.999996221011351e-10, 0.0, 0.0, 0.0, 0.0, 0.0, 0.0, 52874.707382359156, 0.0, 0.0, 0.0, 0.0, 0.0, 0.0, 5.366020456171662e-07, 9.076002535408766e-38, 9.178360449952999e-39, 0.0, 0.0, 0.0, 9.076002535408764e-38, 3.9913145058822676e-07, -9.683927791269785e-35, 0.0, 0.0, 0.0, 9.178360449952996e-39, 9.683927791269785e-35, 3.9913145058822676e-07, 0.0, 0.0, 0.0, 0.0, 0.0, 0.0, 9.969790129491073e-10]
---
header: 
  seq: 2514
  stamp: 
    secs: 1518209713
    nsecs: 912738323
  frame_id: "swarmone/odom"
child_frame_id: "swarmone/base_link"
pose: 
  pose: 
    position: 
      x: 0.271411445695
      y: 2.02829111622
      z: 0.0
    orientation: 
      x: 0.0
      y: 0.0
      z: 0.674288156773
      w: 0.73846833489
  covariance: [494327808.6621928, -47446152.15540474, 0.0, 0.0, 0.0, 6.872411822011044e-29, -47446152.15540504, 4563553.33592767, 0.0, 0.0, 0.0, -6.486041714002471e-30, 0.0, 0.0, 6.002105431478517e-07, 2.7978855190371254e-34, 4.618483405160591e-27, 0.0, 0.0, 0.0, 2.7978855190371262e-34, 5.0014915648673e-07, -6.946535979848079e-31, 0.0, 0.0, 0.0, 4.6184834051605904e-27, 6.946535979848079e-31, 5.0014915648673e-07, 0.0, 6.872411822011044e-29, -6.486041714002471e-30, 0.0, 0.0, 0.0, 1.0023580320610585e-06]
twist: 
  twist: 
    linear: 
      x: -1.03431312482e-21
      y: 0.0
      z: 0.0
    angular: 
      x: 0.0
      y: 0.0
      z: 0.000119123426655
  covariance: [9.999996266271678e-10, 0.0, 0.0, 0.0, 0.0, 0.0, 0.0, 52938.19887218101, 0.0, 0.0, 0.0, 0.0, 0.0, 0.0, 5.386410835835165e-07, 8.862865077345167e-38, 8.069386186214222e-39, 0.0, 0.0, 0.0, 8.862865077345171e-38, 3.999920249844541e-07, -2.3140923908191067e-34, 0.0, 0.0, 0.0, 8.06938618621422e-39, 2.3140923908191067e-34, 3.999920249844541e-07, 0.0, 0.0, 0.0, 0.0, 0.0, 0.0, 9.970219128567296e-10]
---
header: 
  seq: 2515
  stamp: 
    secs: 1518209714
    nsecs:  12233496
  frame_id: "swarmone/odom"
child_frame_id: "swarmone/base_link"
pose: 
  pose: 
    position: 
      x: 0.271411445695
      y: 2.02829111622
      z: 0.0
    orientation: 
      x: 0.0
      y: 0.0
      z: 0.670587396061
      w: 0.741830536069
  covariance: [495310055.5122531, -47538388.7561118, 0.0, 0.0, 0.0, 6.288956995152197e-29, -47538388.7561121, 4572206.685601532, 0.0, 0.0, 0.0, -6.144657782841256e-30, 0.0, 0.0, 5.955847439797265e-07, 2.7722602243728955e-34, 4.245302784188093e-27, 0.0, 0.0, 0.0, 2.7722602243728947e-34, 4.96549046333009e-07, 1.081258716586173e-30, 0.0, 0.0, 0.0, 4.2453027841880935e-27, -1.081258716586173e-30, 4.96549046333009e-07, 0.0, 6.288956995152197e-29, -6.144657782841256e-30, 0.0, 0.0, 0.0, 9.737478025671255e-07]
twist: 
  twist: 
    linear: 
      x: -9.71233113271e-22
      y: 0.0
      z: 0.0
    angular: 
      x: 0.0
      y: 0.0
      z: 0.000122605577979
  covariance: [9.999996224892078e-10, 0.0, 0.0, 0.0, 0.0, 0.0, 0.0, 53001.08434540976, 0.0, 0.0, 0.0, 0.0, 0.0, 0.0, 5.345450698498234e-07, 7.771488173488559e-38, 7.859910065554048e-39, 0.0, 0.0, 0.0, 7.771488173488559e-38, 3.9826950184984935e-07, 3.8557807868166954e-35, 0.0, 0.0, 0.0, 7.859910065554046e-39, -3.8557807868166954e-35, 3.9826950184984935e-07, 0.0, 0.0, 0.0, 0.0, 0.0, 0.0, 9.969348590145077e-10]
---
header: 
  seq: 2516
  stamp: 
    secs: 1518209714
    nsecs: 112755537
  frame_id: "swarmone/odom"
child_frame_id: "swarmone/base_link"
pose: 
  pose: 
    position: 
      x: 0.271411445695
      y: 2.02829111622
      z: 0.0
    orientation: 
      x: 0.0
      y: 0.0
      z: 0.674288213811
      w: 0.73846828281
  covariance: [496303068.5514165, -47636645.530895166, 0.0, 0.0, 0.0, 5.968273990384484e-29, -47636645.53089547, 4581924.257247393, 0.0, 0.0, 0.0, -5.6327096068454115e-30, 0.0, 0.0, 5.979109815811862e-07, 3.021649063896547e-34, 4.048676323082269e-27, 0.0, 0.0, 0.0, 3.0216490638965467e-34, 4.983557081413085e-07, -4.042987717138784e-31, 0.0, 0.0, 0.0, 4.048676323082269e-27, 4.042987717138784e-31, 4.983557081413085e-07, 0.0, 5.968273990384484e-29, -5.632709606845412e-30, 0.0, 0.0, 0.0, 9.88052917314937e-07]
twist: 
  twist: 
    linear: 
      x: -9.11427664525e-22
      y: 0.0
      z: 0.0
    angular: 
      x: 0.0
      y: 0.0
      z: 0.000151049277582
  covariance: [9.999996265801922e-10, 0.0, 0.0, 0.0, 0.0, 0.0, 0.0, 53064.66940339738, 0.0, 0.0, 0.0, 0.0, 0.0, 0.0, 5.366021958778334e-07, 7.593434170700054e-38, 6.913622235897966e-39, 0.0, 0.0, 0.0, 7.593434170700049e-38, 3.991324551614394e-07, 1.3516039342513688e-34, 0.0, 0.0, 0.0, 6.913622235897964e-39, -1.3516039342513688e-34, 3.991324551614394e-07, 0.0, 0.0, 0.0, 0.0, 0.0, 0.0, 9.969790129491588e-10]
---
header: 
  seq: 2517
  stamp: 
    secs: 1518209714
    nsecs: 212243795
  frame_id: "swarmone/odom"
child_frame_id: "swarmone/base_link"
pose: 
  pose: 
    position: 
      x: 0.271411445695
      y: 2.02829111622
      z: 0.0
    orientation: 
      x: 0.0
      y: 0.0
      z: 0.659384913932
      w: 0.751805516925
  covariance: [497288381.79463905, -47729172.116021186, 0.0, 0.0, 0.0, 5.448179892313132e-29, -47729172.11602149, 4590605.018638241, 0.0, 0.0, 0.0, -6.414324901158289e-30, 0.0, 0.0, 5.932315037076159e-07, 3.1027138406980025e-34, 3.720503851345805e-27, 0.0, 0.0, 0.0, 3.1027138406980025e-34, 4.947295824260205e-07, 2.5730975502253318e-30, 0.0, 0.0, 0.0, 3.7205038513458045e-27, -2.5730975502253318e-30, 4.947295824260205e-07, 0.0, 5.448179892313132e-29, -6.414324901158287e-30, 0.0, 0.0, 0.0, 9.594426878210123e-07]
twist: 
  twist: 
    linear: 
      x: -8.55845710012e-22
      y: 0.0
      z: 0.0
    angular: 
      x: 0.0
      y: 0.0
      z: 0.000124424127625
  covariance: [9.999996224613878e-10, 0.0, 0.0, 0.0, 0.0, 0.0, 0.0, 53127.65059871637, 0.0, 0.0, 0.0, 0.0, 0.0, 0.0, 5.32469737564938e-07, 6.628000969031282e-38, 8.718551025860139e-39, 0.0, 0.0, 0.0, 6.62800096903128e-38, 3.974049903872761e-07, 9.603132952922873e-35, 0.0, 0.0, 0.0, 8.718551025860138e-39, -9.603132952922871e-35, 3.974049903872761e-07, 0.0, 0.0, 0.0, 0.0, 0.0, 0.0, 9.9688939525173e-10]
---
header: 
  seq: 2518
  stamp: 
    secs: 1518209714
    nsecs: 312718153
  frame_id: "swarmone/odom"
child_frame_id: "swarmone/base_link"
pose: 
  pose: 
    position: 
      x: 0.271411445695
      y: 2.02829111622
      z: 0.0
    orientation: 
      x: 0.0
      y: 0.0
      z: 0.666869913735
      w: 0.745174152903
  covariance: [498280620.09178585, -47842445.02874748, 0.0, 0.0, 0.0, 5.727431843035624e-29, -47842445.02874777, 4603236.289979308, 0.0, 0.0, 0.0, -6.717608439037233e-30, 0.0, 0.0, 6.197809124640042e-07, 3.106869589083197e-34, 3.726932544633364e-27, 0.0, 0.0, 0.0, 3.106869589083197e-34, 5.157314290040306e-07, -1.9146109102091275e-30, 0.0, 0.0, 0.0, 3.726932544633365e-27, 1.9146109102091275e-30, 5.157314290040306e-07, 0.0, 5.727431843035624e-29, -6.717608439037233e-30, 0.0, 0.0, 0.0, 1.1311040647758758e-06]
twist: 
  twist: 
    linear: 
      x: -8.03168899866e-22
      y: 0.0
      z: 0.0
    angular: 
      x: 0.0
      y: 0.0
      z: 0.000105624074694
  covariance: [9.999996263920684e-10, 0.0, 0.0, 0.0, 0.0, 0.0, 0.0, 53191.30660505934, 0.0, 0.0, 0.0, 0.0, 0.0, 0.0, 5.562144310734261e-07, 8.631313886964018e-38, 9.602228348836433e-39, 0.0, 0.0, 0.0, 8.631313886964017e-38, 4.076187455937656e-07, 1.2050015180113592e-35, 0.0, 0.0, 0.0, 9.602228348836429e-39, -1.2050015180113592e-35, 4.076187455937656e-07, 0.0, 0.0, 0.0, 0.0, 0.0, 0.0, 9.973593968224225e-10]
---
header: 
  seq: 2519
  stamp: 
    secs: 1518209714
    nsecs: 412175655
  frame_id: "swarmone/odom"
child_frame_id: "swarmone/base_link"
pose: 
  pose: 
    position: 
      x: 0.271411445695
      y: 2.02829111622
      z: 0.0
    orientation: 
      x: 0.0
      y: 0.0
      z: 0.670587394818
      w: 0.741830537193
  covariance: [499266768.70441127, -47945029.69570254, 0.0, 0.0, 0.0, 5.091153620435897e-29, -47945029.69570282, 4613856.260198739, 0.0, 0.0, 0.0, -5.3382598302815674e-30, 0.0, 0.0, 5.955847414083187e-07, 2.152089202128958e-34, 3.295335062054636e-27, 0.0, 0.0, 0.0, 2.1520892021289585e-34, 4.965490384065242e-07, 2.7209550893588717e-30, 0.0, 0.0, 0.0, 3.295335062054636e-27, -2.7209550893588717e-30, 4.965490384065242e-07, 0.0, 5.091153620435897e-29, -5.338259830281567e-30, 0.0, 0.0, 0.0, 9.737478025670658e-07]
twist: 
  twist: 
    linear: 
      x: -7.54203155292e-22
      y: 0.0
      z: 0.0
    angular: 
      x: 0.0
      y: 0.0
      z: 0.000122605577935
  covariance: [9.999996223374807e-10, 0.0, 0.0, 0.0, 0.0, 0.0, 0.0, 53254.368437710575, 0.0, 0.0, 0.0, 0.0, 0.0, 0.0, 5.34545064756734e-07, 6.032903440001687e-38, 6.101728652272516e-39, 0.0, 0.0, 0.0, 6.032903440001687e-38, 3.982694681388691e-07, 1.349632411761236e-34, 0.0, 0.0, 0.0, 6.101728652272518e-39, -1.349632411761236e-34, 3.982694681388691e-07, 0.0, 0.0, 0.0, 0.0, 0.0, 0.0, 9.969348590145058e-10]
---
header: 
  seq: 2520
  stamp: 
    secs: 1518209714
    nsecs: 512743235
  frame_id: "swarmone/odom"
child_frame_id: "swarmone/base_link"
pose: 
  pose: 
    position: 
      x: 0.271411445695
      y: 2.02829111622
      z: 0.0
    orientation: 
      x: 0.0
      y: 0.0
      z: 0.674288156773
      w: 0.73846833489
  covariance: [500266572.207488, -48043984.59368297, 0.0, 0.0, 0.0, 4.681726317685705e-29, -48043984.59368325, 4623645.586529845, 0.0, 0.0, 0.0, -4.416998155599016e-30, 0.0, 0.0, 6.002105453595224e-07, 1.915185937925303e-34, 3.1613780919066274e-27, 0.0, 0.0, 0.0, 1.9151859379253027e-34, 5.001491633949044e-07, -4.854298263510226e-31, 0.0, 0.0, 0.0, 3.161378091906627e-27, 4.854298263510226e-31, 5.001491633949044e-07, 0.0, 4.681726317685705e-29, -4.416998155599016e-30, 0.0, 0.0, 0.0, 1.0023580320611134e-06]
twist: 
  twist: 
    linear: 
      x: -7.07742078013e-22
      y: 0.0
      z: 0.0
    angular: 
      x: 0.0
      y: 0.0
      z: 0.000119123426677
  covariance: [9.9999962675964e-10, 0.0, 0.0, 0.0, 0.0, 0.0, 0.0, 53318.18478591279, 0.0, 0.0, 0.0, 0.0, 0.0, 0.0, 5.386410879992017e-07, 6.066638918133641e-38, 5.523498085833202e-39, 0.0, 0.0, 0.0, 6.066638918133642e-38, 3.9999205478989196e-07, 3.800852412863582e-37, 0.0, 0.0, 0.0, 5.523498085833201e-39, -3.800852412863582e-37, 3.9999205478989196e-07, 0.0, 0.0, 0.0, 0.0, 0.0, 0.0, 9.97021912856731e-10]
---
header: 
  seq: 2521
  stamp: 
    secs: 1518209714
    nsecs: 612191677
  frame_id: "swarmone/odom"
child_frame_id: "swarmone/base_link"
pose: 
  pose: 
    position: 
      x: 0.271411445695
      y: 2.02829111622
      z: 0.0
    orientation: 
      x: 0.0
      y: 0.0
      z: 0.670587392524
      w: 0.741830539266
  covariance: [501257775.276066, -48137087.9145868, 0.0, 0.0, 0.0, 4.2595495062338565e-29, -48137087.91458709, 4632382.517603294, 0.0, 0.0, 0.0, -4.1603816269582845e-30, 0.0, 0.0, 5.932315009360337e-07, 1.8581519906509061e-34, 2.8878907868294586e-27, 0.0, 0.0, 0.0, 1.8581519906509066e-34, 4.947295744456141e-07, -2.2489942475281773e-31, 0.0, 0.0, 0.0, 2.887890786829459e-27, 2.2489942475281773e-31, 4.947295744456141e-07, 0.0, 4.2595495062338565e-29, -4.1603816269582845e-30, 0.0, 0.0, 0.0, 9.594426878209456e-07]
twist: 
  twist: 
    linear: 
      x: -6.64597786526e-22
      y: 0.0
      z: 0.0
    angular: 
      x: 0.0
      y: 0.0
      z: 0.00012442412755
