header: 
  seq: 9046
  stamp: 
    secs: 1518210367
    nsecs: 112486601
  frame_id: "swarmone/odom"
child_frame_id: "swarmone/base_link"
pose: 
  pose: 
    position: 
      x: 0.854063366838
      y: 9.27451532713
      z: 0.0
    orientation: 
      x: 0.0
      y: 0.0
      z: 0.648034054574
      w: 0.761611360283
  covariance: [281623884093.35046, -19430025290.82397, 0.0, 0.0, 0.0, 4.658712930746437e-28, -19430025290.82401, 1342552213.8039432, 0.0, 0.0, 0.0, -7.39349555411002e-29, 0.0, 0.0, 5.81042265922604e-07, 3.1764779555985856e-33, 3.3522729649330857e-26, 0.0, 0.0, 0.0, 3.176477955598585e-33, 4.854315796089603e-07, 1.988393142211158e-30, 0.0, 0.0, 0.0, 3.352272964933085e-26, -1.988393142211158e-30, 4.854315796089603e-07, 0.0, 4.658712930746437e-28, -7.393495554110019e-29, 0.0, 0.0, 0.0, 8.879171140920359e-07]
twist: 
  twist: 
    linear: 
      x: -7.86764691012e-21
      y: 0.0
      z: 0.0
    angular: 
      x: 0.0
      y: 0.0
      z: 0.00013439090674
  covariance: [9.999996261161607e-10, 0.0, 0.0, 0.0, 0.0, 0.0, 0.0, 2467065.678626865, 0.0, 0.0, 0.0, 0.0, 0.0, 0.0, 5.218092827404718e-07, 5.246148214533895e-37, 8.508906076330453e-38, 0.0, 0.0, 0.0, 5.246148214533895e-37, 3.930457775544048e-07, -9.728785620946792e-35, 0.0, 0.0, 0.0, 8.508906076330453e-38, 9.728785620946792e-35, 3.930457775544048e-07, 0.0, 0.0, 0.0, 0.0, 0.0, 0.0, 9.966402256635952e-10]
---
header: 
  seq: 9047
  stamp: 
    secs: 1518210367
    nsecs: 211968899
  frame_id: "swarmone/odom"
child_frame_id: "swarmone/base_link"
pose: 
  pose: 
    position: 
      x: 0.854063366838
      y: 9.27451532713
      z: 0.0
    orientation: 
      x: 0.0
      y: 0.0
      z: 0.648034061205
      w: 0.761611354641
  covariance: [281782221681.64386, -19448381395.329826, 0.0, 0.0, 0.0, 4.375726953129436e-28, -19448381395.329865, 1344341314.070978, 0.0, 0.0, 0.0, -7.097273038608472e-29, 0.0, 0.0, 5.8600454611586e-07, 3.087399571993876e-33, 3.156371259152692e-26, 0.0, 0.0, 0.0, 3.087399571993877e-33, 4.891914239158853e-07, 1.271988859667978e-30, 0.0, 0.0, 0.0, 3.156371259152692e-26, -1.271988859667978e-30, 4.891914239158853e-07, 0.0, 4.375726953129435e-28, -7.097273038608472e-29, 0.0, 0.0, 0.0, 9.165273435826973e-07]
twist: 
  twist: 
    linear: 
      x: -7.38787986083e-21
      y: 0.0
      z: 0.0
    angular: 
      x: 0.0
      y: 0.0
      z: 0.000130218534362
  covariance: [9.999996224373226e-10, 0.0, 0.0, 0.0, 0.0, 0.0, 0.0, 2467879.745761447, 0.0, 0.0, 0.0, 0.0, 0.0, 0.0, 5.261311974942267e-07, 5.200182608841506e-37, 8.434515696082254e-38, 0.0, 0.0, 0.0, 5.200182608841505e-37, 3.947965001958268e-07, -3.97452947548048e-35, 0.0, 0.0, 0.0, 8.434515696082254e-38, 3.97452947548048e-35, 3.947965001958268e-07, 0.0, 0.0, 0.0, 0.0, 0.0, 0.0, 9.967445350099963e-10]
---
header: 
  seq: 9048
  stamp: 
    secs: 1518210367
    nsecs: 312444448
  frame_id: "swarmone/odom"
child_frame_id: "swarmone/base_link"
pose: 
  pose: 
    position: 
      x: 0.854063366838
      y: 9.27451532713
      z: 0.0
    orientation: 
      x: 0.0
      y: 0.0
      z: 0.648034057574
      w: 0.761611357731
  covariance: [281942211977.2452, -19466931349.803288, 0.0, 0.0, 0.0, 4.1499166578867935e-28, -19466931349.80332, 1346149819.309876, 0.0, 0.0, 0.0, -6.73101630532401e-29, 0.0, 0.0, 5.835382257481305e-07, 2.8646900439029103e-33, 2.975151237653322e-26, 0.0, 0.0, 0.0, 2.86469004390291e-33, 4.873185115591273e-07, -3.7976320968750065e-31, 0.0, 0.0, 0.0, 2.9751512376533224e-26, 3.7976320968750065e-31, 4.873185115591273e-07, 0.0, 4.1499166578867935e-28, -6.731016305324009e-29, 0.0, 0.0, 0.0, 9.022222288382537e-07]
twist: 
  twist: 
    linear: 
      x: -6.93315639058e-21
      y: 0.0
      z: 0.0
    angular: 
      x: 0.0
      y: 0.0
      z: 0.000132271825833
  covariance: [9.999996263967124e-10, 0.0, 0.0, 0.0, 0.0, 0.0, 0.0, 2468702.1224624957, 0.0, 0.0, 0.0, 0.0, 0.0, 0.0, 5.239801252190034e-07, 4.77839968785712e-37, 7.750398321942803e-38, 0.0, 0.0, 0.0, 4.77839968785712e-37, 3.939228911231008e-07, 3.942240010144307e-35, 0.0, 0.0, 0.0, 7.750398321942805e-38, -3.9422400101443155e-35, 3.939228911231008e-07, 0.0, 0.0, 0.0, 0.0, 0.0, 0.0, 9.966932027137041e-10]
---
header: 
  seq: 9049
  stamp: 
    secs: 1518210367
    nsecs: 412782907
  frame_id: "swarmone/odom"
child_frame_id: "swarmone/base_link"
pose: 
  pose: 
    position: 
      x: 0.854682934941
      y: 9.27838441993
      z: 0.0
    orientation: 
      x: 0.0
      y: 0.0
      z: 0.864924886035
      w: 0.501901326475
  covariance: [282102046435.38666, -19485439753.865387, 0.0, 0.0, 0.0, 8.848052011223953e-28, -19485439753.86542, 1347953705.74382, 0.0, 0.0, 0.0, 4.110315446534832e-28, 0.0, 0.0, 7.779767381720468e-07, -2.3988235698213693e-32, 3.2187560490446907e-26, 0.0, 0.0, 0.0, -2.3988235698213688e-32, 6.668837792524813e-07, -2.5932816188038952e-30, 0.0, 0.0, 0.0, 3.21875604904469e-26, 2.5932816188038952e-30, 6.668837792524813e-07, 0.0, 8.848052011223952e-28, 4.110315446534832e-28, 0.0, 0.0, 0.0, 3.0050740965160293e-06]
twist: 
  twist: 
    linear: 
      x: 0.0782999707045
      y: 0.0
      z: 0.0
    angular: 
      x: 0.0
      y: 0.0
      z: -0.00996013388656
  covariance: [9.999996258552919e-10, 0.0, 0.0, 0.0, 0.0, 0.0, 0.0, 2469523.5593990684, 0.0, 0.0, 0.0, 0.0, 0.0, 0.0, 7.14502183704575e-07, 2.4966094461640622e-36, -1.4279009449320595e-36, 0.0, 0.0, 0.0, 2.4966094461640626e-36, 5.0010746609923e-07, -1.5396065910035424e-33, 0.0, 0.0, 0.0, -1.42790094493206e-36, 1.5396065910035424e-33, 5.0010746609923e-07, 0.0, 0.0, 0.0, 0.0, 0.0, 0.0, 9.990033467930907e-10]
---
header: 
  seq: 9050
  stamp: 
    secs: 1518210367
    nsecs: 512481928
  frame_id: "swarmone/odom"
child_frame_id: "swarmone/base_link"
pose: 
  pose: 
    position: 
      x: 0.851696921053
      y: 9.29363984401
      z: 0.0
    orientation: 
      x: 0.0
      y: 0.0
      z: 0.666869315769
      w: 0.745174688034
  covariance: [282241806383.8607, -19450378766.453022, 0.0, 0.0, 0.0, -4.826034012940791e-15, -19450378766.453056, 1342391718.364184, 0.0, 0.0, 0.0, -1.857537248785175e-15, 0.0, 0.0, 5.932315185664435e-07, 6.86562079106087e-21, -1.3637690612515402e-13, 0.0, 0.0, 0.0, 6.865620791060865e-21, 4.947292239639968e-07, -1.4574937539265034e-26, 0.0, 0.0, 0.0, -1.3637690612515397e-13, -1.457520789784877e-26, 4.94729223963951e-07, 0.0, -4.8260340129407915e-15, -1.8575372487851754e-15, 0.0, 0.0, 0.0, 9.59442687821423e-07]
twist: 
  twist: 
    linear: 
      x: 0.251799936446
      y: 0.0
      z: 0.0
    angular: 
      x: 0.0
      y: 0.0
      z: -0.12978225759
  covariance: [9.99999623308291e-10, 0.0, 0.0, 0.0, 0.0, 0.0, 0.0, 2470339.941927597, 0.0, 0.0, 0.0, 0.0, 0.0, 0.0, 5.324697672034414e-07, -2.445011122176713e-24, -2.659842133070771e-25, 0.0, 0.0, 0.0, -2.445011122176712e-24, 3.974051922033345e-07, -9.367586867247663e-32, 0.0, 0.0, 0.0, -2.65984213307077e-25, -9.350152089217774e-32, 3.974051922033345e-07, 0.0, 0.0, 0.0, 0.0, 0.0, 0.0, 9.968893952517404e-10]
---
header: 
  seq: 9051
  stamp: 
    secs: 1518210367
    nsecs: 612421513
  frame_id: "swarmone/odom"
child_frame_id: "swarmone/base_link"
pose: 
  pose: 
    position: 
      x: 0.854921780998
      y: 9.3223813393
      z: 0.0
    orientation: 
      x: 0.0
      y: 0.0
      z: 0.674291359365
      w: 0.738465410623
  covariance: [282402245153.28204, -19464883126.749683, 0.0, 0.0, 0.0, -2.4845565700644073e-14, -19464883126.74972, 1343633344.954273, 0.0, 0.0, 0.0, 2.345379732389134e-15, 0.0, 0.0, 8.381282656916696e-07, -3.6134967983412375e-19, -4.386885717908484e-13, 0.0, 0.0, 0.0, -3.613496798341238e-19, 7.395027526815203e-07, -9.06118891618018e-25, 0.0, 0.0, 0.0, -4.3868857179084846e-13, -9.061203614129088e-25, 7.395027526803314e-07, 0.0, -2.4845565700644076e-14, 2.3453797323891338e-15, 0.0, 0.0, 0.0, 4.67877252181186e-06]
twist: 
  twist: 
    linear: 
      x: 0.327599977204
      y: 0.0
      z: 0.0
    angular: 
      x: 0.0
      y: 0.0
      z: -0.129839872748
  covariance: [9.99999624270117e-10, 0.0, 0.0, 0.0, 0.0, 0.0, 0.0, 2471158.474864161, 0.0, 0.0, 0.0, 0.0, 0.0, 0.0, 7.834772552964702e-07, -6.299793196416997e-23, -5.7351652649336455e-24, 0.0, 0.0, 0.0, -6.299793196417002e-23, 5.61283945488141e-07, -3.134860444948977e-29, 0.0, 0.0, 0.0, -5.735165264933647e-24, -3.135034752577277e-29, 5.61283945488141e-07, 0.0, 0.0, 0.0, 0.0, 0.0, 0.0, 9.993594906697778e-10]
---
header: 
  seq: 9052
  stamp: 
    secs: 1518210367
    nsecs: 711767912
  frame_id: "swarmone/odom"
child_frame_id: "swarmone/base_link"
pose: 
  pose: 
    position: 
      x: 0.858008892168
      y: 9.3560552777
      z: 0.0
    orientation: 
      x: 0.0
      y: 0.0
      z: 0.560507581696
      w: 0.828149292616
  covariance: [282562121149.8083, -19477733784.93161, 0.0, 0.0, 0.0, -4.155530583823951e-14, -19477733784.931644, 1344647627.7706673, 0.0, 0.0, 0.0, 8.54873948680314e-15, 0.0, 0.0, 7.714435184221568e-07, 7.215623915096557e-19, -6.455679493736598e-13, 0.0, 0.0, 0.0, 7.215623915096556e-19, 6.59583446551575e-07, 2.4251558997674336e-24, 0.0, 0.0, 0.0, -6.455679493736598e-13, 2.4251564098286706e-24, 6.595834465497513e-07, 0.0, -4.1555305838239516e-14, 8.548739486803138e-15, 0.0, 0.0, 0.0, 2.876328063799425e-06]
twist: 
  twist: 
    linear: 
      x: 0.353199997403
      y: 0.0
      z: 0.0
    angular: 
      x: 0.0
      y: 0.0
      z: -0.129927116979
  covariance: [9.999996218890688e-10, 0.0, 0.0, 0.0, 0.0, 0.0, 0.0, 2471972.3286323915, 0.0, 0.0, 0.0, 0.0, 0.0, 0.0, 7.073304179570135e-07, -5.0860893589575596e-23, -2.0362910293766247e-23, 0.0, 0.0, 0.0, -5.086089358957559e-23, 4.946865906923091e-07, -9.226262100700716e-29, 0.0, 0.0, 0.0, -2.036291029376625e-23, -9.226114590588957e-29, 4.946865906923091e-07, 0.0, 0.0, 0.0, 0.0, 0.0, 0.0, 9.98958813458595e-10]
---
header: 
  seq: 9053
  stamp: 
    secs: 1518210367
    nsecs: 812358141
  frame_id: "swarmone/odom"
child_frame_id: "swarmone/base_link"
pose: 
  pose: 
    position: 
      x: 0.871042328015
      y: 9.38601136174
      z: 0.0
    orientation: 
      x: 0.0
      y: 0.0
      z: 0.572867590794
      w: 0.819647926502
  covariance: [282713096444.2275, -19513210425.124706, 0.0, 0.0, 0.0, -2.1898968156122035e-14, -19513210425.12474, 1348856235.0666313, 0.0, 0.0, 0.0, 8.56896463578493e-15, 0.0, 0.0, 5.979109863241227e-07, 2.537325969363601e-19, -6.181328354300105e-13, 0.0, 0.0, 0.0, 2.537325969363601e-19, 4.983555949378512e-07, 3.571212155866564e-24, 0.0, 0.0, 0.0, -6.181328354300104e-13, 3.571210815270491e-24, 4.983555949369003e-07, 0.0, -2.1898968156122035e-14, 8.56896463578493e-15, 0.0, 0.0, 0.0, 9.880529173151017e-07]
twist: 
  twist: 
    linear: 
      x: 0.292200029998
      y: 0.0
      z: 0.0
    angular: 
      x: 0.0
      y: 0.0
      z: -0.0398187410021
  covariance: [9.999996268484397e-10, 0.0, 0.0, 0.0, 0.0, 0.0, 0.0, 2472796.5539955394, 0.0, 0.0, 0.0, 0.0, 0.0, 0.0, 5.366022055036801e-07, -1.097393997899418e-23, -4.01755317620516e-24, 0.0, 0.0, 0.0, -1.0973939978994173e-23, 3.991325245277845e-07, -7.858575443265093e-30, 0.0, 0.0, 0.0, -4.017553176205158e-24, -7.858574834753614e-30, 3.991325245277845e-07, 0.0, 0.0, 0.0, 0.0, 0.0, 0.0, 9.969790129491619e-10]
---
header: 
  seq: 9054
  stamp: 
    secs: 1518210367
    nsecs: 912208319
  frame_id: "swarmone/odom"
child_frame_id: "swarmone/base_link"
pose: 
  pose: 
    position: 
      x: 0.880763674156
      y: 9.4103920837
      z: 0.0
    orientation: 
      x: 0.0
      y: 0.0
      z: 0.613116976962
      w: 0.789992134493
  covariance: [282864759617.1108, -19546245243.566658, 0.0, 0.0, 0.0, -9.584532546351075e-15, -19546245243.56669, 1352725488.5643966, 0.0, 0.0, 0.0, 2.9634326704968795e-15, 0.0, 0.0, 6.002104977876092e-07, 1.4293985749441393e-20, -5.111116665998566e-13, 0.0, 0.0, 0.0, 1.4293985749441423e-20, 5.001489293764535e-07, 3.6897898232280814e-25, 0.0, 0.0, 0.0, -5.111116665998566e-13, 3.6898036908581e-25, 5.001489293758e-07, 0.0, -9.584532546351073e-15, 2.96343267049688e-15, 0.0, 0.0, 0.0, 1.002358032059923e-06]
twist: 
  twist: 
    linear: 
      x: 0.230900028444
      y: 0.0
      z: 0.0
    angular: 
      x: 0.0
      y: 0.0
      z: 0.0199999999108
  covariance: [9.999996239128991e-10, 0.0, 0.0, 0.0, 0.0, 0.0, 0.0, 2473614.8966360586, 0.0, 0.0, 0.0, 0.0, 0.0, 0.0, 5.386409929819806e-07, -9.553049989298249e-24, -2.4487103799178318e-24, 0.0, 0.0, 0.0, -9.553049989298253e-24, 3.999914128068193e-07, -4.024784676030296e-30, 0.0, 0.0, 0.0, -2.448710379917833e-24, -4.024361083780281e-30, 3.999914128068193e-07, 0.0, 0.0, 0.0, 0.0, 0.0, 0.0, 9.970219128566994e-10]
---
header: 
  seq: 9055
  stamp: 
    secs: 1518210368
    nsecs:  12564898
  frame_id: "swarmone/odom"
child_frame_id: "swarmone/base_link"
pose: 
  pose: 
    position: 
      x: 0.886149309572
      y: 9.43018357534
      z: 0.0
    orientation: 
      x: 0.0
      y: 0.0
      z: 0.601198817272
      w: 0.799099481986
  covariance: [283022067152.96216, -19571885390.019028, 0.0, 0.0, 0.0, -7.453490245597055e-15, -19571885390.019054, 1355538224.5075777, 0.0, 0.0, 0.0, 2.0267663802265363e-15, 0.0, 0.0, 5.908507778933262e-07, -1.196344495356908e-19, -3.92813501936388e-13, 0.0, 0.0, 0.0, -1.1963444953569083e-19, 4.928971809990847e-07, -1.9716963580368001e-25, 0.0, 0.0, 0.0, -3.928135019363882e-13, -1.9717614295343499e-25, 4.928971809987073e-07, 0.0, -7.453490245597055e-15, 2.0267663802265363e-15, 0.0, 0.0, 0.0, 9.451375730763615e-07]
twist: 
  twist: 
    linear: 
      x: 0.176500023998
      y: 0.0
      z: 0.0
    angular: 
      x: 0.0
      y: 0.0
      z: 0.0300947230621
  covariance: [9.99999625926608e-10, 0.0, 0.0, 0.0, 0.0, 0.0, 0.0, 2474437.571494024, 0.0, 0.0, 0.0, 0.0, 0.0, 0.0, 5.303759365830605e-07, -6.630537097469001e-24, -1.9119996804265625e-24, 0.0, 0.0, 0.0, -6.630537097468998e-24, 3.965387883550789e-07, -2.3056988548398873e-30, 0.0, 0.0, 0.0, -1.911999680426563e-24, -2.3056985556835886e-30, 3.965387883550789e-07, 0.0, 0.0, 0.0, 0.0, 0.0, 0.0, 9.968425624991513e-10]
---
header: 
  seq: 9056
  stamp: 
    secs: 1518210368
    nsecs: 112099171
  frame_id: "swarmone/odom"
child_frame_id: "swarmone/base_link"
pose: 
  pose: 
    position: 
      x: 0.890860043625
      y: 9.44588858885
      z: 0.0
    orientation: 
      x: 0.0
      y: 0.0
      z: 0.601197686835
      w: 0.799100332464
  covariance: [283176885196.93964, -19599618569.595882, 0.0, 0.0, 0.0, -5.4702030858998125e-15, -19599618569.595913, 1358657269.615541, 0.0, 0.0, 0.0, 1.5776950935439044e-15, 0.0, 0.0, 5.90850720464202e-07, 1.3443791496013216e-19, -2.9750092681668595e-13, 0.0, 0.0, 0.0, 1.3443791496013213e-19, 4.928963048825901e-07, 2.0027395697819557e-26, 0.0, 0.0, 0.0, -2.975009268166859e-13, 2.0019747684579175e-26, 4.928963048823737e-07, 0.0, -5.4702030858998125e-15, 1.5776950935439044e-15, 0.0, 0.0, 0.0, 9.451375730749879e-07]
twist: 
  twist: 
    linear: 
      x: 0.15250001123
      y: 0.0
      z: 0.0
    angular: 
      x: 0.0
      y: 0.0
      z: 0.00958953336299
  covariance: [9.999996226464285e-10, 0.0, 0.0, 0.0, 0.0, 0.0, 0.0, 2475253.6856346303, 0.0, 0.0, 0.0, 0.0, 0.0, 0.0, 5.303758231035824e-07, -5.021413142038056e-24, -1.4482405626071959e-24, 0.0, 0.0, 0.0, -5.0214131420380545e-24, 3.965380396811545e-07, -1.3246490549474395e-30, 0.0, 0.0, 0.0, -1.4482405626071957e-24, -1.3250227442218891e-30, 3.965380396811545e-07, 0.0, 0.0, 0.0, 0.0, 0.0, 0.0, 9.968425624991104e-10]
---
header: 
  seq: 9057
  stamp: 
    secs: 1518210368
    nsecs: 211757898
  frame_id: "swarmone/odom"
child_frame_id: "swarmone/base_link"
pose: 
  pose: 
    position: 
      x: 0.896053029803
      y: 9.46610060895
      z: 0.0
    orientation: 
      x: 0.0
      y: 0.0
      z: 0.609159481525
      w: 0.793047745138
  covariance: [283331964879.0257, -19627403572.664127, 0.0, 0.0, 0.0, -4.6441642581792666e-15, -19627403572.664165, 1361784452.704239, 0.0, 0.0, 0.0, 1.2897718545619472e-15, 0.0, 0.0, 5.860045588359059e-07, -4.566214412210812e-20, -2.523971182738354e-13, 0.0, 0.0, 0.0, -4.5662144122108113e-20, 4.891914593273843e-07, -4.64612408761077e-26, 0.0, 0.0, 0.0, -2.523971182738353e-13, -4.6463358842375577e-26, 4.891914593272304e-07, 0.0, -4.6441642581792666e-15, 1.2897718545619472e-15, 0.0, 0.0, 0.0, 9.165273435829955e-07]
twist: 
  twist: 
    linear: 
      x: 0.267799958037
      y: 0.0
      z: 0.0
    angular: 
      x: 0.0
      y: 0.0
      z: -0.089576789601
  covariance: [9.999996231460032e-10, 0.0, 0.0, 0.0, 0.0, 0.0, 0.0, 2476070.9999821195, 0.0, 0.0, 0.0, 0.0, 0.0, 0.0, 5.261312224945723e-07, -4.077030789894892e-24, -1.0881975402413592e-24, 0.0, 0.0, 0.0, -4.077030789894893e-24, 3.947966632248799e-07, -8.367796607929094e-31, 0.0, 0.0, 0.0, -1.0881975402413595e-24, -8.369717523880074e-31, 3.947966632248799e-07, 0.0, 0.0, 0.0, 0.0, 0.0, 0.0, 9.967445350100056e-10]
---
header: 
  seq: 9058
  stamp: 
    secs: 1518210368
    nsecs: 312783957
  frame_id: "swarmone/odom"
child_frame_id: "swarmone/base_link"
pose: 
  pose: 
    position: 
      x: 0.903713213143
      y: 9.49584985037
      z: 0.0
    orientation: 
      x: 0.0
      y: 0.0
      z: 0.699715946299
      w: 0.714421160447
  covariance: [283490118475.28, -19654037603.93965, 0.0, 0.0, 0.0, -8.41677572595459e-15, -19654037603.93969, 1364737583.200816, 0.0, 0.0, 0.0, 1.1672949512986804e-15, 0.0, 0.0, 5.908508239335622e-07, 9.190386990305325e-20, -4.549143380608121e-13, 0.0, 0.0, 0.0, 9.190386990305321e-20, 4.92897008163954e-07, 5.888364425307029e-25, 0.0, 0.0, 0.0, -4.549143380608123e-13, 5.888364008025521e-25, 4.928970081634481e-07, 0.0, -8.41677572595459e-15, 1.1672949512986802e-15, 0.0, 0.0, 0.0, 9.451375730774597e-07]
twist: 
  twist: 
    linear: 
      x: 0.341899976524
      y: 0.0
      z: 0.0
    angular: 
      x: 0.0
      y: 0.0
      z: -0.129652681984
  covariance: [9.99999628557523e-10, 0.0, 0.0, 0.0, 0.0, 0.0, 0.0, 2476899.711602525, 0.0, 0.0, 0.0, 0.0, 0.0, 0.0, 5.303760275424561e-07, -7.98819068855674e-24, -1.6893458966703152e-25, 0.0, 0.0, 0.0, -7.988190688556741e-24, 3.96539388175117e-07, -2.8865549197525742e-31, 0.0, 0.0, 0.0, -1.6893458966703157e-25, -2.8868333671558717e-31, 3.96539388175117e-07, 0.0, 0.0, 0.0, 0.0, 0.0, 0.0, 9.968425624991844e-10]
---
header: 
  seq: 9059
  stamp: 
    secs: 1518210368
    nsecs: 412216663
  frame_id: "swarmone/odom"
child_frame_id: "swarmone/base_link"
pose: 
  pose: 
    position: 
      x: 0.904482750162
      y: 9.5308220893
      z: 0.0
    orientation: 
      x: 0.0
      y: 0.0
      z: 0.552199798236
      w: 0.833711810417
  covariance: [283651260047.5112, -19661358157.091328, 0.0, 0.0, 0.0, -1.0663227857658877e-14, -19661358157.091366, 1364972865.0683951, 0.0, 0.0, 0.0, 2.3028584013751755e-15, 0.0, 0.0, 5.908507133083809e-07, -2.0096861832541142e-19, -5.818674818803671e-13, 0.0, 0.0, 0.0, -2.0096861832541137e-19, 4.928969727776246e-07, -1.9214595501448207e-25, 0.0, 0.0, 0.0, -5.81867481880367e-13, -1.921666821706132e-25, 4.928969727767968e-07, 0.0, -1.0663227857658878e-14, 2.3028584013751755e-15, 0.0, 0.0, 0.0, 9.451375730748168e-07]
twist: 
  twist: 
    linear: 
      x: 0.361799997988
      y: 0.0
      z: 0.0
    angular: 
      x: 0.0
      y: 0.0
      z: -0.099494810301
  covariance: [9.99999622237751e-10, 0.0, 0.0, 0.0, 0.0, 0.0, 0.0, 2477715.533578106, 0.0, 0.0, 0.0, 0.0, 0.0, 0.0, 5.303758089605941e-07, -9.41175482325356e-24, -3.9820835395678904e-24, 0.0, 0.0, 0.0, -9.411754823253555e-24, 3.9653794638961556e-07, -6.717515907483385e-30, 0.0, 0.0, 0.0, -3.98208353956789e-24, -6.718365672241759e-30, 3.9653794638961556e-07, 0.0, 0.0, 0.0, 0.0, 0.0, 0.0, 9.968425624991054e-10]
---
header: 
  seq: 9060
  stamp: 
    secs: 1518210368
    nsecs: 511928082
  frame_id: "swarmone/odom"
child_frame_id: "swarmone/base_link"
pose: 
  pose: 
    position: 
      x: 0.918237809533
      y: 9.56138135908
      z: 0.0
    orientation: 
      x: 0.0
      y: 0.0
      z: 0.613117160037
      w: 0.789991992407
  covariance: [283800147769.0617, -19698114440.178535, 0.0, 0.0, 0.0, -1.1271817535283012e-14, -19698114440.17857, 1369391439.1914318, 0.0, 0.0, 0.0, 3.784913798041312e-15, 0.0, 0.0, 5.955847588253825e-07, 7.461951715484906e-20, -6.217403226717862e-13, 0.0, 0.0, 0.0, 7.461951715484897e-20, 4.965491277348387e-07, 1.6087344853193835e-24, 0.0, 0.0, 0.0, -6.217403226717861e-13, 1.6087345144375967e-24, 4.965491277338824e-07, 0.0, -1.1271817535283012e-14, 3.7849137980413115e-15, 0.0, 0.0, 0.0, 9.737478025674872e-07]
twist: 
  twist: 
    linear: 
      x: 0.307900025929
      y: 0.0
      z: 0.0
    angular: 
      x: 0.0
      y: 0.0
      z: -0.029754788951
  covariance: [9.999996233574763e-10, 0.0, 0.0, 0.0, 0.0, 0.0, 0.0, 2478533.822188683, 0.0, 0.0, 0.0, 0.0, 0.0, 0.0, 5.345450993302697e-07, -1.1096002758244839e-23, -2.845221038895713e-24, 0.0, 0.0, 0.0, -1.1096002758244842e-23, 3.982696985516933e-07, -5.6108336659431925e-30, 0.0, 0.0, 0.0, -2.8452210388957138e-24, -5.611219460442491e-30, 3.982696985516933e-07, 0.0, 0.0, 0.0, 0.0, 0.0, 0.0, 9.969348590145178e-10]
---
header: 
  seq: 9061
  stamp: 
    secs: 1518210368
    nsecs: 612316370
  frame_id: "swarmone/odom"
child_frame_id: "swarmone/base_link"
pose: 
  pose: 
    position: 
      x: 0.925349362136
      y: 9.58812795899
      z: 0.0
    orientation: 
      x: 0.0
      y: 0.0
      z: 0.593177838404
      w: 0.805071457715
  covariance: [283957921840.1054, -19723856706.967953, 0.0, 0.0, 0.0, -9.787213484336001e-15, -19723856706.967987, 1372225791.9537585, 0.0, 0.0, 0.0, 2.770048437003664e-15, 0.0, 0.0, 5.932315658319426e-07, -9.101660339849108e-20, -5.231323218977995e-13, 0.0, 0.0, 0.0, -9.10166033984911e-20, 4.94729807061308e-07, 9.334928963410812e-26, 0.0, 0.0, 0.0, -5.231323218977996e-13, 9.336466390437281e-26, 4.94729807060635e-07, 0.0, -9.787213484336001e-15, 2.7700484370036637e-15, 0.0, 0.0, 0.0, 9.59442687822514e-07]
twist: 
  twist: 
    linear: 
      x: 0.242100028647
      y: 0.0
      z: 0.0
    angular: 
      x: 0.0
      y: 0.0
      z: 0.0200933180189
  covariance: [9.999996260518877e-10, 0.0, 0.0, 0.0, 0.0, 0.0, 0.0, 2479357.8475665106, 0.0, 0.0, 0.0, 0.0, 0.0, 0.0, 5.324698606457631e-07, -8.991102210743398e-24, -2.78843980269306e-24, 0.0, 0.0, 0.0, -8.991102210743398e-24, 3.974058071746114e-07, -4.4831572554868884e-30, 0.0, 0.0, 0.0, -2.7884398026930594e-24, -4.482002572282696e-30, 3.974058071746114e-07, 0.0, 0.0, 0.0, 0.0, 0.0, 0.0, 9.968893952517735e-10]
---
header: 
  seq: 9062
  stamp: 
    secs: 1518210368
    nsecs: 712564468
  frame_id: "swarmone/odom"
child_frame_id: "swarmone/base_link"
pose: 
  pose: 
    position: 
      x: 0.932050204611
      y: 9.60861069706
      z: 0.0
    orientation: 
      x: 0.0
      y: 0.0
      z: 0.597196032819
      w: 0.802095317519
  covariance: [284113330473.0778, -19753414605.425343, 0.0, 0.0, 0.0, -7.654892318134833e-15, -19753414605.425373, 1375609230.2848287, 0.0, 0.0, 0.0, 2.331865487138977e-15, 0.0, 0.0, 5.979109632676895e-07, -1.9500148508919626e-19, -4.117375583112686e-13, 0.0, 0.0, 0.0, -1.9500148508919623e-19, 4.983558019307582e-07, -3.018782701948501e-25, 0.0, 0.0, 0.0, -4.117375583112685e-13, -3.0186728084843877e-25, 4.983558019303365e-07, 0.0, -7.654892318134833e-15, 2.331865487138977e-15, 0.0, 0.0, 0.0, 9.880529173144835e-07]
twist: 
  twist: 
    linear: 
      x: 0.186600023065
      y: 0.0
      z: 0.0
    angular: 
      x: 0.0
      y: 0.0
      z: 0.000271888729227
  covariance: [9.999996254971636e-10, 0.0, 0.0, 0.0, 0.0, 0.0, 0.0, 2480180.9044478647, 0.0, 0.0, 0.0, 0.0, 0.0, 0.0, 5.366021593930165e-07, -7.439080212247993e-24, -2.2264520031789286e-24, 0.0, 0.0, 0.0, -7.43908021224799e-24, 3.991322100729147e-07, -2.879694587946296e-30, 0.0, 0.0, 0.0, -2.226452003178927e-24, -2.8800463811933947e-30, 3.991322100729147e-07, 0.0, 0.0, 0.0, 0.0, 0.0, 0.0, 9.969790129491464e-10]
---
header: 
  seq: 9063
  stamp: 
    secs: 1518210368
    nsecs: 812470675
  frame_id: "swarmone/odom"
child_frame_id: "swarmone/base_link"
pose: 
  pose: 
    position: 
      x: 0.936931546365
      y: 9.62410262928
      z: 0.0
    orientation: 
      x: 0.0
      y: 0.0
      z: 0.589145266279
      w: 0.808027137676
  covariance: [284268749869.7027, -19782130979.04532, 0.0, 0.0, 0.0, -5.7914647571033276e-15, -19782130979.045353, 1378876944.5295439, 0.0, 0.0, 0.0, 1.7953154473777958e-15, 0.0, 0.0, 5.908507465599428e-07, -1.1891185744856716e-19, -3.0833471993951653e-13, 0.0, 0.0, 0.0, -1.1891185744856716e-19, 4.928971596629881e-07, -9.046944916820409e-26, 0.0, 0.0, 0.0, -3.083347199395164e-13, -9.048114034499258e-26, 4.928971596627557e-07, 0.0, -5.791464757103327e-15, 1.7953154473777958e-15, 0.0, 0.0, 0.0, 9.451375730756125e-07]
twist: 
  twist: 
    linear: 
      x: 0.137800019205
      y: 0.0
      z: 0.0
    angular: 
      x: 0.0
      y: 0.0
      z: 0.000252594874064
  covariance: [9.999996241370469e-10, 0.0, 0.0, 0.0, 0.0, 0.0, 0.0, 2481001.335525438, 0.0, 0.0, 0.0, 0.0, 0.0, 0.0, 5.303758746709783e-07, -5.15730849143442e-24, -1.6563736723192696e-24, 0.0, 0.0, 0.0, -5.157308491434419e-24, 3.965383799303615e-07, -1.5562437096825296e-30, 0.0, 0.0, 0.0, -1.6563736723192693e-24, -1.5559713528174727e-30, 3.965383799303615e-07, 0.0, 0.0, 0.0, 0.0, 0.0, 0.0, 9.968425624991292e-10]
---
header: 
  seq: 9064
  stamp: 
    secs: 1518210368
    nsecs: 912423611
  frame_id: "swarmone/odom"
child_frame_id: "swarmone/base_link"
pose: 
  pose: 
    position: 
      x: 0.941209466491
      y: 9.63757093965
      z: 0.0
    orientation: 
      x: 0.0
      y: 0.0
      z: 0.849480773994
      w: 0.52761957376
  covariance: [284423346633.8195, -19812385711.45872, 0.0, 0.0, 0.0, -4.050662621075637e-15, -19812385711.45875, 1382367584.7929416, 0.0, 0.0, 0.0, -3.2252633799650393e-16, 0.0, 0.0, 5.95584775336115e-07, 9.731101036153074e-20, -2.260415498241187e-13, 0.0, 0.0, 0.0, 9.731101036153076e-20, 4.965492009413757e-07, 5.400053413201133e-26, 0.0, 0.0, 0.0, -2.260415498241187e-13, 5.399979641014104e-26, 4.965492009412493e-07, 0.0, -4.050662621075637e-15, -3.22526337996504e-16, 0.0, 0.0, 0.0, 9.737478025678912e-07]
twist: 
  twist: 
    linear: 
      x: 0.145099996945
      y: 0.0
      z: 0.0
    angular: 
      x: 0.0
      y: 0.0
      z: 0.0201226055478
  covariance: [9.999996243234204e-10, 0.0, 0.0, 0.0, 0.0, 0.0, 0.0, 2481822.3313878733, 0.0, 0.0, 0.0, 0.0, 0.0, 0.0, 5.345451321368707e-07, -3.733957689360256e-24, 1.8417156755628925e-24, 0.0, 0.0, 0.0, -3.733957689360258e-24, 3.9826991758696074e-07, 1.1802266461569558e-30, 0.0, 0.0, 0.0, 1.8417156755628932e-24, 1.1799974420793582e-30, 3.9826991758696074e-07, 0.0, 0.0, 0.0, 0.0, 0.0, 0.0, 9.969348590145292e-10]
---
header: 
  seq: 9065
  stamp: 
    secs: 1518210369
    nsecs:  11971951
  frame_id: "swarmone/odom"
child_frame_id: "swarmone/base_link"
pose: 
  pose: 
    position: 
      x: 0.935801425386
      y: 9.65635850708
      z: 0.0
    orientation: 
      x: 0.0
      y: 0.0
      z: 0.609159106123
      w: 0.793048033494
  covariance: [284568377445.3666, -19781635636.000328, 0.0, 0.0, 0.0, -4.275766293750817e-15, -19781635636.000366, 1377328860.15288, 0.0, 0.0, 0.0, -4.63900835331761e-16, 0.0, 0.0, 5.884419018156857e-07, 4.682918148355893e-20, -2.349452514343647e-13, 0.0, 0.0, 0.0, 4.6829181483558947e-20, 4.910506560735303e-07, 8.219404322372024e-26, 0.0, 0.0, 0.0, -2.3494525143436476e-13, 8.219708129352516e-26, 4.91050656073396e-07, 0.0, -4.275766293750817e-15, -4.639008353317607e-16, 0.0, 0.0, 0.0, 9.308324583289115e-07]
twist: 
  twist: 
    linear: 
      x: 0.266199954184
      y: 0.0
      z: 0.0
    angular: 
      x: 0.0
      y: 0.0
      z: -0.0698717718384
  covariance: [9.999996227029525e-10, 0.0, 0.0, 0.0, 0.0, 0.0, 0.0, 2482640.1839684304, 0.0, 0.0, 0.0, 0.0, 0.0, 0.0, 5.282630639018496e-07, -3.890957061270625e-24, -1.0337469677022147e-24, 0.0, 0.0, 0.0, -3.8909570612706264e-24, 3.9566856180150256e-07, -7.103051709279842e-31, 0.0, 0.0, 0.0, -1.0337469677022147e-24, -7.093416653683491e-31, 3.9566856180150256e-07, 0.0, 0.0, 0.0, 0.0, 0.0, 0.0, 9.967942979775971e-10]
---
header: 
  seq: 9066
  stamp: 
    secs: 1518210369
    nsecs: 112697840
  frame_id: "swarmone/odom"
child_frame_id: "swarmone/base_link"
pose: 
  pose: 
    position: 
      x: 0.94335403114
      y: 9.68575566665
      z: 0.0
    orientation: 
      x: 0.0
      y: 0.0
      z: 0.670587143173
      w: 0.74183076467
  covariance: [284726614306.03534, -19808304875.308334, 0.0, 0.0, 0.0, -8.711898553341316e-15, -19808304875.308372, 1380294491.029017, 0.0, 0.0, 0.0, 1.551212326282064e-15, 0.0, 0.0, 6.047316617624473e-07, 6.499770506164788e-20, -4.602330079411421e-13, 0.0, 0.0, 0.0, 6.499770506164786e-20, 5.036978015536077e-07, 4.335060572958528e-25, 0.0, 0.0, 0.0, -4.60233007941142e-13, 4.335060565734137e-25, 5.036978015530718e-07, 0.0, -8.711898553341314e-15, 1.551212326282064e-15, 0.0, 0.0, 0.0, 1.0309682615535755e-06]
twist: 
  twist: 
    linear: 
      x: 0.338499975728
      y: 0.0
      z: 0.0
    angular: 
      x: 0.0
      y: 0.0
      z: -0.119652499107
  covariance: [9.999996273823364e-10, 0.0, 0.0, 0.0, 0.0, 0.0, 0.0, 2483467.893718229, 0.0, 0.0, 0.0, 0.0, 0.0, 0.0, 5.426655251744392e-07, -9.237185533784441e-24, -9.35887568671859e-25, 0.0, 0.0, 0.0, -9.237185533784437e-24, 4.01703955571377e-07, -1.4653514011000525e-30, 0.0, 0.0, 0.0, -9.358875686718588e-25, -1.4656796907201399e-30, 4.01703955571377e-07, 0.0, 0.0, 0.0, 0.0, 0.0, 0.0, 9.971041583847987e-10]
---
header: 
  seq: 9067
  stamp: 
    secs: 1518210369
    nsecs: 212268353
  frame_id: "swarmone/odom"
child_frame_id: "swarmone/base_link"
pose: 
  pose: 
    position: 
      x: 0.946873538485
      y: 9.72021916345
      z: 0.0
    orientation: 
      x: 0.0
      y: 0.0
      z: 0.539631862516
      w: 0.841901094522
  covariance: [284887753213.1434, -19822128099.259167, 0.0, 0.0, 0.0, -2.147950012451992e-14, -19822128099.25921, 1381441515.6709967, 0.0, 0.0, 0.0, 7.763903412059548e-15, 0.0, 0.0, 7.751197825396811e-07, 1.5504099799969667e-19, -6.491278622048162e-13, 0.0, 0.0, 0.0, 1.5504099799969667e-19, 6.636781858451062e-07, 6.3449368632641495e-25, 0.0, 0.0, 0.0, -6.49127862204816e-13, 6.344952587121136e-25, 6.636781858432324e-07, 0.0, -2.147950012451992e-14, 7.763903412059548e-15, 0.0, 0.0, 0.0, 2.947853637530283e-06]
twist: 
  twist: 
    linear: 
      x: 0.357499997002
      y: 0.0
      z: 0.0
    angular: 
      x: 0.0
      y: 0.0
      z: -0.0999085630824
  covariance: [9.999996227923711e-10, 0.0, 0.0, 0.0, 0.0, 0.0, 0.0, 2484286.2900211303, 0.0, 0.0, 0.0, 0.0, 0.0, 0.0, 7.113585859163903e-07, -5.151902211465733e-23, -2.368526952722387e-23, 0.0, 0.0, 0.0, -5.151902211465732e-23, 4.97712405964203e-07, -1.0804432918651027e-28, 0.0, 0.0, 0.0, -2.368526952722387e-23, -1.080427880667053e-28, 4.97712405964203e-07, 0.0, 0.0, 0.0, 0.0, 0.0, 0.0, 9.989840336265794e-10]
---
header: 
  seq: 9068
  stamp: 
    secs: 1518210369
    nsecs: 311761856
  frame_id: "swarmone/odom"
child_frame_id: "swarmone/base_link"
pose: 
  pose: 
    position: 
      x: 0.961309112927
      y: 9.74955171314
      z: 0.0
    orientation: 
      x: 0.0
      y: 0.0
      z: 0.605186900504
      w: 0.796083422424
  covariance: [285034874278.61566, -19861106489.423218, 0.0, 0.0, 0.0, -2.1888788376429003e-14, -19861106489.42326, 1386196343.0405557, 0.0, 0.0, 0.0, 9.026179724047436e-15, 0.0, 0.0, 5.932315042837703e-07, 7.989322951788363e-20, -6.057458919796211e-13, 0.0, 0.0, 0.0, 7.989322951788362e-20, 4.947297372626219e-07, 2.9564682181479934e-24, 0.0, 0.0, 0.0, -6.05745891979621e-13, 2.9564720109421192e-24, 4.947297372617191e-07, 0.0, -2.1888788376429006e-14, 9.026179724047437e-15, 0.0, 0.0, 0.0, 9.594426878210763e-07]
twist: 
  twist: 
    linear: 
      x: 0.296100027531
      y: 0.0
      z: 0.0
    angular: 
      x: 0.0
      y: 0.0
      z: -0.049595621664
  covariance: [9.999996224821209e-10, 0.0, 0.0, 0.0, 0.0, 0.0, 0.0, 2485104.2329323944, 0.0, 0.0, 0.0, 0.0, 0.0, 0.0, 5.324697388958064e-07, -1.0530922603324794e-23, -2.931327140957555e-24, 0.0, 0.0, 0.0, -1.053092260332479e-23, 3.9740500421671004e-07, -5.806242660713193e-30, 0.0, 0.0, 0.0, -2.9313271409575543e-24, -5.8062164657412136e-30, 3.9740500421671004e-07, 0.0, 0.0, 0.0, 0.0, 0.0, 0.0, 9.968893952517302e-10]
---
header: 
  seq: 9069
  stamp: 
    secs: 1518210369
    nsecs: 412328959
  frame_id: "swarmone/odom"
child_frame_id: "swarmone/base_link"
pose: 
  pose: 
    position: 
      x: 0.968774389382
      y: 9.77548347529
      z: 0.0
    orientation: 
      x: 0.0
      y: 0.0
      z: 0.605186862787
      w: 0.796083451096
  covariance: [285192638762.58154, -19888559560.513588, 0.0, 0.0, 0.0, -9.423720038303009e-15, -19888559560.51363, 1389280211.6318846, 0.0, 0.0, 0.0, 2.6161664435048462e-15, 0.0, 0.0, 5.979109845831894e-07, -9.989730752305731e-20, -5.030953505071148e-13, 0.0, 0.0, 0.0, -9.989730752305726e-20, 4.983557905166043e-07, 2.1279183967747767e-25, 0.0, 0.0, 0.0, -5.030953505071147e-13, 2.12789542014065e-25, 4.983557905159747e-07, 0.0, -9.423720038303009e-15, 2.616166443504846e-15, 0.0, 0.0, 0.0, 9.880529173150108e-07]
twist: 
  twist: 
    linear: 
      x: 0.238700024095
      y: 0.0
      z: 0.0
    angular: 
      x: 0.0
      y: 0.0
      z: 0.0201510491729
  covariance: [9.999996267574878e-10, 0.0, 0.0, 0.0, 0.0, 0.0, 0.0, 2485931.184407175, 0.0, 0.0, 0.0, 0.0, 0.0, 0.0, 5.366022018521512e-07, -9.141999384612161e-24, -2.538015460703914e-24, 0.0, 0.0, 0.0, -9.141999384612164e-24, 3.9913249525871494e-07, -4.033387935538867e-30, 0.0, 0.0, 0.0, -2.5380154607039138e-24, -4.033082073810742e-30, 3.9913249525871494e-07, 0.0, 0.0, 0.0, 0.0, 0.0, 0.0, 9.969790129491608e-10]
---
header: 
  seq: 9070
  stamp: 
    secs: 1518210369
    nsecs: 512069225
  frame_id: "swarmone/odom"
child_frame_id: "swarmone/base_link"
pose: 
  pose: 
    position: 
      x: 0.974653772213
      y: 9.79588220229
      z: 0.0
    orientation: 
      x: 0.0
      y: 0.0
      z: 0.62098629679
      w: 0.783821420478
  covariance: [285349175513.1901, -19915803253.58736, 0.0, 0.0, 0.0, -7.572879597878442e-15, -19915803253.587402, 1392342668.9844878, 0.0, 0.0, 0.0, 1.9420085004239102e-15, 0.0, 0.0, 5.932315212168404e-07, -9.094725305425864e-20, -3.9698412289484407e-13, 0.0, 0.0, 0.0, -9.094725305425866e-20, 4.947296732135223e-07, -1.8025013156057942e-25, 0.0, 0.0, 0.0, -3.9698412289484427e-13, -1.8025471433481187e-25, 4.947296732131345e-07, 0.0, -7.572879597878442e-15, 1.94200850042391e-15, 0.0, 0.0, 0.0, 9.594426878214356e-07]
twist: 
  twist: 
    linear: 
      x: 0.185900021068
      y: 0.0
      z: 0.0
    angular: 
      x: 0.0
      y: 0.0
      z: 0.0101244241434
  covariance: [9.999996234732094e-10, 0.0, 0.0, 0.0, 0.0, 0.0, 0.0, 2486751.518086477, 0.0, 0.0, 0.0, 0.0, 0.0, 0.0, 5.324697722534359e-07, -6.954648182125717e-24, -1.6346531317789615e-24, 0.0, 0.0, 0.0, -6.95464818212572e-24, 3.9740522059461446e-07, -2.0446410039780302e-30, 0.0, 0.0, 0.0, -1.634653131778962e-24, -2.0457638315898638e-30, 3.9740522059461446e-07, 0.0, 0.0, 0.0, 0.0, 0.0, 0.0, 9.968893952517424e-10]
---
header: 
  seq: 9071
  stamp: 
    secs: 1518210369
    nsecs: 612760305
  frame_id: "swarmone/odom"
child_frame_id: "swarmone/base_link"
pose: 
  pose: 
    position: 
      x: 0.978457608664
      y: 9.81170753044
      z: 0.0
    orientation: 
      x: 0.0
      y: 0.0
      z: 0.593178103358
      w: 0.805071262496
  covariance: [285508901553.50055, -19940205106.810852, 0.0, 0.0, 0.0, -1.1472240092026637e-14, -19940205106.810894, 1394990192.6723359, 0.0, 0.0, 0.0, 3.341290255107309e-15, 0.0, 0.0, 7.729283808448894e-07, -1.5090762963726797e-19, -3.4550935952726014e-13, 0.0, 0.0, 0.0, -1.5090762963726812e-19, 6.612337320464012e-07, -2.4003384387770766e-25, 0.0, 0.0, 0.0, -3.4550935952726024e-13, -2.4003694056609803e-25, 6.612337320458754e-07, 0.0, -1.1472240092026635e-14, 3.3412902551073082e-15, 0.0, 0.0, 0.0, 2.904938293293795e-06]
twist: 
  twist: 
    linear: 
      x: 0.136200018425
      y: 0.0
      z: 0.0
    angular: 
      x: 0.0
      y: 0.0
      z: 0.0200103094868
  covariance: [9.999996272456884e-10, 0.0, 0.0, 0.0, 0.0, 0.0, 0.0, 2487579.8549564756, 0.0, 0.0, 0.0, 0.0, 0.0, 0.0, 7.089551681672517e-07, -2.832711052062582e-23, -8.7881120212432e-24, 0.0, 0.0, 0.0, -2.832711052062584e-23, 4.959020702520504e-07, -2.211974576461413e-29, 0.0, 0.0, 0.0, -8.788112021243205e-24, -2.2122080830408895e-29, 4.959020702520504e-07, 0.0, 0.0, 0.0, 0.0, 0.0, 0.0, 9.989690503031346e-10]
---
header: 
  seq: 9072
  stamp: 
    secs: 1518210369
    nsecs: 712517738
  frame_id: "swarmone/odom"
child_frame_id: "swarmone/base_link"
pose: 
  pose: 
    position: 
      x: 0.982038266351
      y: 9.82260964685
      z: 0.0
    orientation: 
      x: 0.0
      y: 0.0
      z: 0.613117666042
      w: 0.789991599694
  covariance: [285664229431.9386, -19969776959.619064, 0.0, 0.0, 0.0, -1.2880548094880347e-14, -19969776959.619102, 1398391076.8253515, 0.0, 0.0, 0.0, 3.63581235855322e-15, 0.0, 0.0, 7.82805498439911e-07, -1.308605419516631e-19, -2.446493552648163e-13, 0.0, 0.0, 0.0, -1.3086054195166308e-19, 6.723485156916435e-07, -1.7077559834689126e-25, 0.0, 0.0, 0.0, -2.4464935526481623e-13, -1.7078230787481897e-25, 6.723485156913679e-07, 0.0, -1.288054809488035e-14, 3.63581235855322e-15, 0.0, 0.0, 0.0, 3.10520989973794e-06]
twist: 
  twist: 
    linear: 
      x: 0.0931000149878
      y: 0.0
      z: 0.0
    angular: 
      x: 0.0
      y: 0.0
      z: 0.0300096456416
  covariance: [9.999996235423081e-10, 0.0, 0.0, 0.0, 0.0, 0.0, 0.0, 2488400.692538163, 0.0, 0.0, 0.0, 0.0, 0.0, 0.0, 7.198417017611187e-07, -2.201034400820044e-23, -5.63849554000383e-24, 0.0, 0.0, 0.0, -2.201034400820044e-23, 5.04243140498201e-07, -1.090815716881849e-29, 0.0, 0.0, 0.0, -5.638495540003828e-24, -1.0910501780621721e-29, 5.04243140498201e-07, 0.0, 0.0, 0.0, 0.0, 0.0, 0.0, 9.99035434874815e-10]
---
header: 
  seq: 9073
  stamp: 
    secs: 1518210369
    nsecs: 812189579
  frame_id: "swarmone/odom"
child_frame_id: "swarmone/base_link"
pose: 
  pose: 
    position: 
      x: 0.983940089882
      y: 9.82974402927
      z: 0.0
    orientation: 
      x: 0.0
      y: 0.0
      z: 0.613117096632
      w: 0.789992041617
  covariance: [285821704186.02466, -19995511359.635567, 0.0, 0.0, 0.0, -5.833733315951355e-15, -19995511359.63561, 1401241332.599319, 0.0, 0.0, 0.0, 1.4945362508282338e-15, 0.0, 0.0, 5.884419108232188e-07, -3.4956472828098753e-20, -1.4182161772229586e-13, 0.0, 0.0, 0.0, -3.4956472828098753e-20, 4.910509560822844e-07, -4.499047446040662e-26, 0.0, 0.0, 0.0, -1.4182161772229591e-13, -4.499293990523631e-26, 4.910509560822355e-07, 0.0, -5.833733315951355e-15, 1.4945362508282335e-15, 0.0, 0.0, 0.0, 9.308324583291786e-07]
twist: 
  twist: 
    linear: 
      x: 0.0546000123528
      y: 0.0
      z: 0.0
    angular: 
      x: 0.0
      y: 0.0
      z: 0.0200641140244
  covariance: [9.999996231989498e-10, 0.0, 0.0, 0.0, 0.0, 0.0, 0.0, 2489221.006156628, 0.0, 0.0, 0.0, 0.0, 0.0, 0.0, 5.282630818631308e-07, -2.3640369721866786e-24, -6.056216178626181e-25, 0.0, 0.0, 0.0, -2.364036972186679e-24, 3.9566868500198385e-07, -2.757896659215742e-31, 0.0, 0.0, 0.0, -6.056216178626181e-25, -2.762047809924628e-31, 3.9566868500198385e-07, 0.0, 0.0, 0.0, 0.0, 0.0, 0.0, 9.967942979776037e-10]
---
header: 
  seq: 9074
  stamp: 
    secs: 1518210369
    nsecs: 911742449
  frame_id: "swarmone/odom"
child_frame_id: "swarmone/base_link"
pose: 
  pose: 
    position: 
      x: 0.984910910896
      y: 9.83330419235
      z: 0.0
    orientation: 
      x: 0.0
      y: 0.0
      z: 0.613117037982
      w: 0.789992087135
  covariance: [285979060228.2313, -20021230797.19026, 0.0, 0.0, 0.0, -1.4772830101315767e-15, -20021230797.190304, 1404091668.4749484, 0.0, 0.0, 0.0, 3.7846513429515737e-16, 0.0, 0.0, 5.908507217697014e-07, -1.2541017226835442e-20, -7.653963822629848e-14, 0.0, 0.0, 0.0, -1.2541017226835442e-20, 4.928968929404501e-07, -6.0347158539551674e-27, 0.0, 0.0, 0.0, -7.653963822629852e-14, -6.031693575264465e-27, 4.928968929404358e-07, 0.0, -1.477283010131577e-15, 3.784651342951573e-16, 0.0, 0.0, 0.0, 9.451375730750187e-07]
twist: 
  twist: 
    linear: 
      x: 0.0192000104469
      y: 0.0
      z: 0.0
    angular: 
      x: 0.0
      y: 0.0
      z: 9.47231092678e-05
  covariance: [9.999996227208564e-10, 0.0, 0.0, 0.0, 0.0, 0.0, 0.0, 2490040.5205661207, 0.0, 0.0, 0.0, 0.0, 0.0, 0.0, 5.303758256826323e-07, -1.3028520388365465e-24, -3.3377432867061036e-25, 0.0, 0.0, 0.0, -1.3028520388365467e-24, 3.9653805666229836e-07, -7.976064134026048e-32, 0.0, 0.0, 0.0, -3.3377432867061046e-25, -7.968553537529732e-32, 3.9653805666229836e-07, 0.0, 0.0, 0.0, 0.0, 0.0, 0.0, 9.968425624991116e-10]
---
header: 
  seq: 9075
  stamp: 
    secs: 1518210370
    nsecs:  12204885
  frame_id: "swarmone/odom"
child_frame_id: "swarmone/base_link"
pose: 
  pose: 
    position: 
      x: 0.985170748546
      y: 9.83424300292
      z: 0.0
    orientation: 
      x: 0.0
      y: 0.0
      z: 0.640385676025
      w: 0.768053504609
  covariance: [286137924582.3939, -20047200222.958996, 0.0, 0.0, 0.0, -3.7097061804449327e-16, -20047200222.959034, 1406971437.1508489, 0.0, 0.0, 0.0, 8.400113423595712e-17, 0.0, 0.0, 5.908507852044724e-07, -1.7996986600159327e-21, -1.5858757299981633e-14, 0.0, 0.0, 0.0, -1.7996986600159327e-21, 4.928971293795115e-07, -6.958888042219075e-29, 0.0, 0.0, 0.0, -1.585875729998163e-14, -7.317060033696209e-29, 4.928971293795108e-07, 0.0, -3.709706180444932e-16, 8.400113423595712e-17, 0.0, 0.0, 0.0, 9.451375730765349e-07]
twist: 
  twist: 
    linear: 
      x: 3.62987074599e-09
      y: 0.0
      z: 0.0
    angular: 
      x: 0.0
      y: 0.0
      z: 0.000126297437315
  covariance: [9.999996263446211e-10, 0.0, 0.0, 0.0, 0.0, 0.0, 0.0, 2490867.704809285, 0.0, 0.0, 0.0, 0.0, 0.0, 0.0, 5.303759510245894e-07, -2.7445802302698625e-25, -5.022642482837263e-26, 0.0, 0.0, 0.0, -2.7445802302698634e-25, 3.9653888349272335e-07, -2.338809541975991e-33, 0.0, 0.0, 0.0, -5.022642482837265e-26, -2.530705762698931e-33, 3.9653888349272335e-07, 0.0, 0.0, 0.0, 0.0, 0.0, 0.0, 9.968425624991567e-10]
---
header: 
  seq: 9076
  stamp: 
    secs: 1518210370
    nsecs: 111921072
  frame_id: "swarmone/odom"
child_frame_id: "swarmone/base_link"
pose: 
  pose: 
    position: 
      x: 0.985183803431
      y: 9.83423499476
      z: 0.0
    orientation: 
      x: 0.0
      y: 0.0
      z: 0.632673263147
      w: 0.774418841519
  covariance: [286298118953.69574, -20067512852.10603, 0.0, 0.0, 0.0, 2.365070650347076e-16, -20067512852.10607, 1409044793.3764029, 0.0, 0.0, 0.0, -4.6530147415552834e-17, 0.0, 0.0, 5.955847591491415e-07, 2.137693470529088e-21, 1.6515122819229286e-14, 0.0, 0.0, 0.0, 2.1376934705290878e-21, 4.965490908502748e-07, -8.543534837387036e-29, 0.0, 0.0, 0.0, 1.651512281922929e-14, -8.915936255939383e-29, 4.96549090850274e-07, 0.0, 2.365070650347076e-16, -4.6530147415552846e-17, 0.0, 0.0, 0.0, 9.737478025674952e-07]
twist: 
  twist: 
    linear: 
      x: -3.76942141563e-09
      y: 0.0
      z: 0.0
    angular: 
      x: 0.0
      y: 0.0
      z: 0.000122605578126
  covariance: [9.999996233765883e-10, 0.0, 0.0, 0.0, 0.0, 0.0, 0.0, 2491688.925739393, 0.0, 0.0, 0.0, 0.0, 0.0, 0.0, 5.345450999795196e-07, 2.977550227625794e-25, 6.060417584386173e-26, 0.0, 0.0, 0.0, 2.977550227625795e-25, 3.982697028865259e-07, -3.2562578714579796e-33, 0.0, 0.0, 0.0, 6.060417584386173e-26, -2.8721963819866507e-33, 3.982697028865259e-07, 0.0, 0.0, 0.0, 0.0, 0.0, 0.0, 9.96934859014518e-10]
---
header: 
  seq: 9077
  stamp: 
    secs: 1518210370
    nsecs: 212444782
  frame_id: "swarmone/odom"
child_frame_id: "swarmone/base_link"
pose: 
  pose: 
    position: 
      x: 0.985185979798
      y: 9.83422603643
      z: 0.0
    orientation: 
      x: 0.0
      y: 0.0
      z: 0.620986227411
      w: 0.783821475443
  covariance: [286459059782.8886, -20089592721.49234, 0.0, 0.0, 0.0, 2.1600244165465635e-16, -20089592721.492386, 1411365454.2509584, 0.0, 0.0, 0.0, -4.8389184377261406e-17, 0.0, 0.0, 5.860046204974033e-07, 2.1351654872000715e-21, 1.5280656305011167e-14, 0.0, 0.0, 0.0, 2.135165487200072e-21, 4.891916481834903e-07, -7.343587083769855e-29, 0.0, 0.0, 0.0, 1.5280656305011167e-14, -7.759597098288896e-29, 4.8919164818349e-07, 0.0, 2.1600244165465632e-16, -4.8389184377261406e-17, 0.0, 0.0, 0.0, 9.165273435844353e-07]
twist: 
  twist: 
    linear: 
      x: -3.5373129495e-09
      y: 0.0
      z: 0.0
    angular: 
      x: 0.0
      y: 0.0
      z: 0.000130218535017
  covariance: [9.999996265866393e-10, 0.0, 0.0, 0.0, 0.0, 0.0, 0.0, 2492516.9797776137, 0.0, 0.0, 0.0, 0.0, 0.0, 0.0, 5.261313436605462e-07, 2.4829288768030325e-25, 5.834272340371676e-26, 0.0, 0.0, 0.0, 2.482928876803033e-25, 3.947974528235592e-07, -2.9225698657082983e-33, 0.0, 0.0, 0.0, 5.834272340371676e-26, -2.3405831643170504e-33, 3.947974528235592e-07, 0.0, 0.0, 0.0, 0.0, 0.0, 0.0, 9.967445350100515e-10]
---
header: 
  seq: 9078
  stamp: 
    secs: 1518210370
    nsecs: 312713146
  frame_id: "swarmone/odom"
child_frame_id: "swarmone/base_link"
pose: 
  pose: 
    position: 
      x: 0.985175886783
      y: 9.83422189537
      z: 0.0
    orientation: 
      x: 0.0
      y: 0.0
      z: 0.628793277789
      w: 0.777572513536
  covariance: [286618610941.25635, -20113993330.637264, 0.0, 0.0, 0.0, 2.0853694427675442e-16, -20113993330.63731, 1414023067.4075499, 0.0, 0.0, 0.0, -4.600627719621659e-17, 0.0, 0.0, 5.979109646163219e-07, 2.0269525697851863e-21, 1.470839327064878e-14, 0.0, 0.0, 0.0, 2.0269525697851863e-21, 4.983556111240981e-07, -7.56803737196012e-29, 0.0, 0.0, 0.0, 1.4708393270648774e-14, -8.213965702919798e-29, 4.983556111240977e-07, 0.0, 2.085369442767544e-16, -4.6006277196216604e-17, 0.0, 0.0, 0.0, 9.88052917314516e-07]
twist: 
  twist: 
    linear: 
      x: -3.32000922761e-09
      y: 0.0
      z: 0.0
    angular: 
      x: 0.0
      y: 0.0
      z: 0.000120839421962
  covariance: [9.999996255776278e-10, 0.0, 0.0, 0.0, 0.0, 0.0, 0.0, 2493343.113164145, 0.0, 0.0, 0.0, 0.0, 0.0, 0.0, 5.366021620771121e-07, 2.7086244680059433e-25, 5.795809030639541e-26, 0.0, 0.0, 0.0, 2.708624468005944e-25, 3.9913222801021975e-07, -3.17449058320971e-33, 0.0, 0.0, 0.0, 5.79580903063954e-26, -2.288183922004622e-33, 3.9913222801021975e-07, 0.0, 0.0, 0.0, 0.0, 0.0, 0.0, 9.969790129491472e-10]
---
header: 
  seq: 9079
  stamp: 
    secs: 1518210370
    nsecs: 412513971
  frame_id: "swarmone/odom"
child_frame_id: "swarmone/base_link"
pose: 
  pose: 
    position: 
      x: 0.98517507626
      y: 9.83421859857
      z: 0.0
    orientation: 
      x: 0.0
      y: 0.0
      z: 0.62879382041
      w: 0.777572074739
  covariance: [286778203439.41925, -20136727809.70691, 0.0, 0.0, 0.0, 4.817556147037229e-16, -20136727809.706963, 1416445310.75504, 0.0, 0.0, 0.0, -1.0308365554089383e-16, 0.0, 0.0, 7.814474168800068e-07, 6.5509923167018094e-21, 1.5268386624441793e-14, 0.0, 0.0, 0.0, 6.550992316701812e-21, 6.708055545029498e-07, -4.582318537796893e-28, 0.0, 0.0, 0.0, 1.5268386624441796e-14, -4.5709027410022e-28, 6.708055545029487e-07, 0.0, 4.817556147037229e-16, -1.0308365554089384e-16, 0.0, 0.0, 0.0, 3.076599670245724e-06]
twist: 
  twist: 
    linear: 
      x: -3.11694579001e-09
      y: 0.0
      z: 0.0
    angular: 
      x: 0.0
      y: 0.0
      z: 3.89407946924e-05
  covariance: [9.999996237159954e-10, 0.0, 0.0, 0.0, 0.0, 0.0, 0.0, 2494165.5756451846, 0.0, 0.0, 0.0, 0.0, 0.0, 0.0, 7.18336608495553e-07, 1.371261404711762e-24, 2.9341516485922023e-25, 0.0, 0.0, 0.0, 1.371261404711762e-24, 5.030684388172888e-07, -3.5995902671536543e-32, 0.0, 0.0, 0.0, 2.934151648592201e-25, -3.3722954018146037e-32, 5.030684388172888e-07, 0.0, 0.0, 0.0, 0.0, 0.0, 0.0, 9.990264796461816e-10]
---
header: 
  seq: 9080
  stamp: 
    secs: 1518210370
    nsecs: 512411594
  frame_id: "swarmone/odom"
child_frame_id: "swarmone/base_link"
pose: 
  pose: 
    position: 
      x: 0.985174235208
      y: 9.83421508929
      z: 0.0
    orientation: 
      x: 0.0
      y: 0.0
      z: 0.632673253821
      w: 0.774418849138
  covariance: [286938021790.1718, -20159497635.992085, 0.0, 0.0, 0.0, 3.150515086822385e-16, -20159497635.992134, 1418872411.2367418, 0.0, 0.0, 0.0, -6.61602285777873e-17, 0.0, 0.0, 5.908507461752625e-07, 1.5955813011077108e-21, 1.2705015248030863e-14, 0.0, 0.0, 0.0, 1.5955813011077113e-21, 4.928970094850834e-07, -5.206106483031685e-29, 0.0, 0.0, 0.0, 1.2705015248030866e-14, -4.703200702726571e-29, 4.92897009485083e-07, 0.0, 3.150515086822386e-16, -6.616022857778731e-17, 0.0, 0.0, 0.0, 9.451375730756562e-07]
twist: 
  twist: 
    linear: 
      x: -2.92612693797e-09
      y: 0.0
      z: 0.0
    angular: 
      x: 0.0
      y: 0.0
      z: 0.000126297436873
  covariance: [9.999996241026275e-10, 0.0, 0.0, 0.0, 0.0, 0.0, 0.0, 2494989.01695254, 0.0, 0.0, 0.0, 0.0, 0.0, 0.0, 5.303758741177185e-07, 2.1869642427487464e-25, 4.4516729414030125e-26, 0.0, 0.0, 0.0, 2.186964242748748e-25, 3.9653838157930275e-07, -1.8029708861554793e-33, 0.0, 0.0, 0.0, 4.451672941403016e-26, -1.6885877850909704e-33, 3.9653838157930275e-07, 0.0, 0.0, 0.0, 0.0, 0.0, 0.0, 9.968425624991286e-10]
---
header: 
  seq: 9081
  stamp: 
    secs: 1518210370
    nsecs: 612685680
  frame_id: "swarmone/odom"
child_frame_id: "swarmone/base_link"
pose: 
  pose: 
    position: 
      x: 0.985176624722
      y: 9.83421015827
      z: 0.0
    orientation: 
      x: 0.0
      y: 0.0
      z: 0.6287936023
      w: 0.777572251117
  covariance: [287098849041.66583, -20181575908.65078, 0.0, 0.0, 0.0, 3.233217356860281e-16, -20181575908.650833, 1421197145.812157, 0.0, 0.0, 0.0, -6.85922588965677e-17, 0.0, 0.0, 7.320153017153679e-07, 4.349728335128673e-21, 1.3971135534742021e-14, 0.0, 0.0, 0.0, 4.349728335128673e-21, 6.176956885335749e-07, -2.2914813115830824e-28, 0.0, 0.0, 0.0, 1.3971135534742021e-14, -2.2439094332701357e-28, 6.176956885335743e-07, 0.0, 3.233217356860281e-16, -6.859225889656771e-17, 0.0, 0.0, 0.0, 2.2325979002257597e-06]
twist: 
  twist: 
    linear: 
      x: -2.74636100493e-09
      y: 0.0
      z: 0.0
    angular: 
      x: 0.0
      y: 0.0
      z: 5.36289117853e-05
  covariance: [9.999996256001488e-10, 0.0, 0.0, 0.0, 0.0, 0.0, 0.0, 2495815.7436321997, 0.0, 0.0, 0.0, 0.0, 0.0, 0.0, 6.652909676725278e-07, 8.440246010420046e-25, 1.806044912056306e-25, 0.0, 0.0, 0.0, 8.440246010420041e-25, 4.657217198674336e-07, -1.5206826889835176e-32, 0.0, 0.0, 0.0, 1.8060449120563056e-25, -1.405277537338025e-32, 4.657217198674336e-07, 0.0, 0.0, 0.0, 0.0, 0.0, 0.0, 9.986592765387014e-10]
---
header: 
  seq: 9082
  stamp: 
    secs: 1518210370
    nsecs: 712034941
  frame_id: "swarmone/odom"
child_frame_id: "swarmone/base_link"
pose: 
  pose: 
    position: 
      x: 0.985176173391
      y: 9.83420932476
      z: 0.0
    orientation: 
      x: 0.0
      y: 0.0
      z: 0.628793405143
      w: 0.77757241055
  covariance: [287257931493.3581, -20204247640.66712, 0.0, 0.0, 0.0, 2.878037473022121e-16, -20204247640.667175, 1423615908.9790576, 0.0, 0.0, 0.0, -6.158263959063247e-17, 0.0, 0.0, 6.636829603026645e-07, 2.5882992209708496e-21, 1.2590792823917763e-14, 0.0, 0.0, 0.0, 2.5882992209708507e-21, 5.528988810446974e-07, -1.0019549671285118e-28, 0.0, 0.0, 0.0, 1.2590792823917763e-14, -9.360265412809219e-29, 5.528988810446971e-07, 0.0, 2.8780374730221204e-16, -6.158263959063247e-17, 0.0, 0.0, 0.0, 1.474426818680521e-06]
twist: 
  twist: 
    linear: 
      x: -2.5790966654e-09
      y: 0.0
      z: 0.0
    angular: 
      x: 0.0
      y: 0.0
      z: 8.11124540037e-05
  covariance: [9.999996219008952e-10, 0.0, 0.0, 0.0, 0.0, 0.0, 0.0, 2496635.025518453, 0.0, 0.0, 0.0, 0.0, 0.0, 0.0, 5.9713508897894e-07, 4.281923412122285e-25, 9.162240187671931e-26, 0.0, 0.0, 0.0, 4.281923412122285e-25, 4.270390629368817e-07, -4.6492433366005965e-33, 0.0, 0.0, 0.0, 9.162240187671935e-26, -4.310310394611292e-33, 4.270390629368817e-07, 0.0, 0.0, 0.0, 0.0, 0.0, 0.0, 9.979721876304775e-10]
---
header: 
  seq: 9083
  stamp: 
    secs: 1518210370
    nsecs: 812787771
  frame_id: "swarmone/odom"
child_frame_id: "swarmone/base_link"
pose: 
  pose: 
    position: 
      x: 0.985174862797
      y: 9.83420434432
      z: 0.0
    orientation: 
      x: 0.0
      y: 0.0
      z: 0.624897562296
      w: 0.780706754573
  covariance: [287419333116.6638, -20227253524.35237, 0.0, 0.0, 0.0, 1.7775473709110111e-16, -20227253524.352425, 1426071438.9680324, 0.0, 0.0, 0.0, -3.908027659783276e-17, 0.0, 0.0, 5.908508052991302e-07, 1.4624255762211087e-21, 1.0602593444846836e-14, 0.0, 0.0, 0.0, 1.4624255762211083e-21, 4.928971899720933e-07, -3.720570922506597e-29, 0.0, 0.0, 0.0, 1.0602593444846836e-14, -3.85884839847621e-29, 4.92897189972093e-07, 0.0, 1.7775473709110111e-16, -3.908027659783276e-17, 0.0, 0.0, 0.0, 9.451375730770276e-07]
twist: 
  twist: 
    linear: 
      x: -2.4199423897e-09
      y: 0.0
      z: 0.0
    angular: 
      x: 0.0
      y: 0.0
      z: 0.000126297437474
  covariance: [9.99999627488041e-10, 0.0, 0.0, 0.0, 0.0, 0.0, 0.0, 2497466.0650117407, 0.0, 0.0, 0.0, 0.0, 0.0, 0.0, 5.303759907911058e-07, 1.8150963198179984e-25, 4.074001223049003e-26, 0.0, 0.0, 0.0, 1.8150963198179986e-25, 3.965391470357226e-07, -9.041684227407638e-34, 0.0, 0.0, 0.0, 4.0740012230490047e-26, -1.5951375593382078e-33, 3.965391470357226e-07, 0.0, 0.0, 0.0, 0.0, 0.0, 0.0, 9.96842562499171e-10]
---
header: 
  seq: 9084
  stamp: 
    secs: 1518210370
    nsecs: 912536383
  frame_id: "swarmone/odom"
child_frame_id: "swarmone/base_link"
pose: 
  pose: 
    position: 
      x: 0.985173629774
      y: 9.83421308977
      z: 0.0
    orientation: 
      x: 0.0
      y: 0.0
      z: 0.609159435806
      w: 0.793047780256
  covariance: [287578846945.3689, -20250830207.5687, 0.0, 0.0, 0.0, 1.3949178324452818e-16, -20250830207.568752, 1428618767.7240462, 0.0, 0.0, 0.0, -3.526017349908409e-17, 0.0, 0.0, 5.932315217855841e-07, 1.2250074254014722e-21, 9.904203190513283e-15, 0.0, 0.0, 0.0, 1.2250074254014718e-21, 4.947295946646659e-07, -2.838597650118794e-29, 0.0, 0.0, 0.0, 9.904203190513283e-15, -3.1267668822484416e-29, 4.947295946646657e-07, 0.0, 1.3949178324452818e-16, -3.5260173499084095e-17, 0.0, 0.0, 0.0, 9.594426878214483e-07]
twist: 
  twist: 
    linear: 
      x: 0.000199997652698
      y: 0.0
      z: 0.0
    angular: 
      x: 0.0
      y: 0.0
      z: 0.0200311060009
  covariance: [9.999996235069197e-10, 0.0, 0.0, 0.0, 0.0, 0.0, 0.0, 2498289.0030533886, 0.0, 0.0, 0.0, 0.0, 0.0, 0.0, 5.324697733775751e-07, 1.7193962936998703e-25, 4.5885309869197483e-26, 0.0, 0.0, 0.0, 1.7193962936998703e-25, 3.974052279612275e-07, -5.504222403766024e-34, 0.0, 0.0, 0.0, 4.588530986919751e-26, -1.8612087778314648e-33, 3.974052279612275e-07, 0.0, 0.0, 0.0, 0.0, 0.0, 0.0, 9.968893952517429e-10]
---
header: 
  seq: 9085
  stamp: 
    secs: 1518210371
    nsecs:  12181759
  frame_id: "swarmone/odom"
child_frame_id: "swarmone/base_link"
pose: 
  pose: 
    position: 
      x: 0.985163561877
      y: 9.83422459497
      z: 0.0
    orientation: 
      x: 0.0
      y: 0.0
      z: 0.636537489472
      w: 0.771245761412
  covariance: [287736708211.5918, -20277513367.934288, 0.0, 0.0, 0.0, 1.272343615036627e-16, -20277513367.934338, 1431618078.6134498, 0.0, 0.0, 0.0, -2.7562573198578028e-17, 0.0, 0.0, 5.955847542956446e-07, 1.5713645484998674e-21, 8.989218904180974e-15, 0.0, 0.0, 0.0, 1.571364548499867e-21, 4.965491164893266e-07, -3.8738034879276165e-29, 0.0, 0.0, 0.0, 8.989218904180972e-15, -5.03126996007041e-29, 4.965491164893264e-07, 0.0, 1.272343615036627e-16, -2.7562573198578024e-17, 0.0, 0.0, 0.0, 9.737478025673768e-07]
twist: 
  twist: 
    linear: 
      x: -2.05325970549e-09
      y: 0.0
      z: 0.0
    angular: 
      x: 0.0
      y: 0.0
      z: 0.000153257003174
  covariance: [9.999996230927646e-10, 0.0, 0.0, 0.0, 0.0, 0.0, 0.0, 2499111.26986915, 0.0, 0.0, 0.0, 0.0, 0.0, 0.0, 5.345450903389523e-07, 1.6238343117810972e-25, 3.136414458720544e-26, 0.0, 0.0, 0.0, 1.6238343117810968e-25, 3.9826963855175106e-07, -5.467725689388448e-34, 0.0, 0.0, 0.0, 3.136414458720543e-26, -1.510430839622023e-33, 3.9826963855175106e-07, 0.0, 0.0, 0.0, 0.0, 0.0, 0.0, 9.969348590145147e-10]
---
header: 
  seq: 9086
  stamp: 
    secs: 1518210371
    nsecs: 112621546
  frame_id: "swarmone/odom"
child_frame_id: "swarmone/base_link"
pose: 
  pose: 
    position: 
      x: 0.985168628686
      y: 9.83422060521
      z: 0.0
    orientation: 
      x: 0.0
      y: 0.0
      z: 0.632673768394
      w: 0.774418428749
  covariance: [287898479599.31494, -20298899051.9689, 0.0, 0.0, 0.0, 2.9917571863450065e-16, -20298899051.96895, 1433844176.3953853, 0.0, 0.0, 0.0, -6.04506146372461e-17, 0.0, 0.0, 7.743940406911206e-07, 3.881716147795208e-21, 9.953866076328584e-15, 0.0, 0.0, 0.0, 3.8817161477952105e-21, 6.628675430953197e-07, -1.7085999179420052e-28, 0.0, 0.0, 0.0, 9.953866076328584e-15, -1.7166755595288203e-28, 6.628675430953192e-07, 0.0, 2.9917571863450065e-16, -6.04506146372461e-17, 0.0, 0.0, 0.0, 2.933548522785614e-06]
twist: 
  twist: 
    linear: 
      x: -2.00226857924e-09
      y: 0.0
      z: 0.0
    angular: 
      x: 0.0
      y: 0.0
      z: 4.08364672513e-05
  covariance: [9.999996262555069e-10, 0.0, 0.0, 0.0, 0.0, 0.0, 0.0, 2499940.2746744175, 0.0, 0.0, 0.0, 0.0, 0.0, 0.0, 7.105618953328837e-07, 8.469563872123224e-25, 1.7239308771929697e-25, 0.0, 0.0, 0.0, 8.469563872123226e-25, 4.971107208183598e-07, -1.4324890660219337e-32, 0.0, 0.0, 0.0, 1.7239308771929693e-25, -1.275882284881409e-32, 4.971107208183598e-07, 0.0, 0.0, 0.0, 0.0, 0.0, 0.0, 9.989790878121983e-10]
---
header: 
  seq: 9087
  stamp: 
    secs: 1518210371
    nsecs: 212195873
  frame_id: "swarmone/odom"
child_frame_id: "swarmone/base_link"
pose: 
  pose: 
    position: 
      x: 0.985171124431
      y: 9.83421940998
      z: 0.0
    orientation: 
      x: 0.0
      y: 0.0
      z: 0.628793210404
      w: 0.777572568028
  covariance: [288058610719.97687, -20320902750.038246, 0.0, 0.0, 0.0, 1.971746638340993e-16, -20320902750.038296, 1436167468.8906724, 0.0, 0.0, 0.0, -4.094498386973124e-17, 0.0, 0.0, 5.932315099036325e-07, 8.206613408872654e-22, 8.180561918951157e-15, 0.0, 0.0, 0.0, 8.206613408872653e-22, 4.947295599974266e-07, -1.4515786690907084e-29, 0.0, 0.0, 0.0, 8.180561918951155e-15, -1.849294446032141e-29, 4.947295599974263e-07, 0.0, 1.971746638340993e-16, -4.0944983869731246e-17, 0.0, 0.0, 0.0, 9.594426878212116e-07]
twist: 
  twist: 
    linear: 
      x: -1.88006267672e-09
      y: 0.0
      z: 0.0
    angular: 
      x: 0.0
      y: 0.0
      z: 9.33180956458e-05
  covariance: [9.999996228074527e-10, 0.0, 0.0, 0.0, 0.0, 0.0, 0.0, 2500762.3171438146, 0.0, 0.0, 0.0, 0.0, 0.0, 0.0, 5.324697500352726e-07, 1.4393123914404774e-25, 3.079567096219587e-26, 0.0, 0.0, 0.0, 1.439312391440477e-25, 3.9740507809801653e-07, -5.485425935904422e-34, 0.0, 0.0, 0.0, 3.079567096219586e-26, -1.1339286819590745e-33, 3.9740507809801653e-07, 0.0, 0.0, 0.0, 0.0, 0.0, 0.0, 9.968893952517344e-10]
---
header: 
  seq: 9088
  stamp: 
    secs: 1518210371
    nsecs: 312799454
  frame_id: "swarmone/odom"
child_frame_id: "swarmone/base_link"
pose: 
  pose: 
    position: 
      x: 0.985170706332
      y: 9.83421656317
      z: 0.0
    orientation: 
      x: 0.0
      y: 0.0
      z: 0.62098617276
      w: 0.78382151874
  covariance: [288220131426.8827, -20343943783.715416, 0.0, 0.0, 0.0, 1.0938551764261489e-16, -20343943783.71547, 1438632539.2424276, 0.0, 0.0, 0.0, -2.4927348730632893e-17, 0.0, 0.0, 5.908507949476049e-07, 8.340358989679281e-22, 7.717396406534313e-15, 0.0, 0.0, 0.0, 8.340358989679282e-22, 4.92897118270139e-07, -1.6147669804533898e-29, 0.0, 0.0, 0.0, 7.717396406534314e-15, -1.5315199506627095e-29, 4.928971182701388e-07, 0.0, 1.0938551764261489e-16, -2.4927348730632893e-17, 0.0, 0.0, 0.0, 9.451375730767681e-07]
twist: 
  twist: 
    linear: 
      x: -1.76420659852e-09
      y: 0.0
      z: 0.0
    angular: 
      x: 0.0
      y: 0.0
      z: 9.47230780868e-05
