header: 
  seq: 8193
  stamp: 
    secs: 1518210281
    nsecs: 812265635
  frame_id: "swarmone/odom"
child_frame_id: "swarmone/base_link"
pose: 
  pose: 
    position: 
      x: 0.678766279265
      y: 8.25407351508
      z: 0.0
    orientation: 
      x: 0.0
      y: 0.0
      z: 0.688921680024
      w: 0.724835787467
  covariance: [179297404908.36642, -9271896008.820635, 0.0, 0.0, 0.0, 5.2682215738377514e-34, -9271896008.820711, 480731019.0910994, 0.0, 0.0, 0.0, -2.5057174870487344e-35, 0.0, 0.0, 5.955847540801767e-07, 1.1904206528394083e-39, 3.613527916906588e-32, 0.0, 0.0, 0.0, 1.190420652839408e-39, 4.965490782337558e-07, -1.0036331570313963e-31, 0.0, 0.0, 0.0, 3.6135279169065877e-32, 1.0036331570313963e-31, 4.965490782337558e-07, 0.0, 5.268221573837752e-34, -2.5057174870487344e-35, 0.0, 0.0, 0.0, 9.737478025673713e-07]
twist: 
  twist: 
    linear: 
      x: -8.2540230952e-27
      y: 0.0
      z: 0.0
    angular: 
      x: 0.0
      y: 0.0
      z: 0.000122605578032
  covariance: [9.999996230804616e-10, 0.0, 0.0, 0.0, 0.0, 0.0, 0.0, 1832875.1134311778, 0.0, 0.0, 0.0, 0.0, 0.0, 0.0, 5.345450899091702e-07, 6.639920399935135e-43, 3.375672327183526e-44, 0.0, 0.0, 0.0, 6.639920399935134e-43, 3.982696356513456e-07, -4.807828351467325e-35, 0.0, 0.0, 0.0, 3.3756723271835245e-44, 4.807828351467326e-35, 3.982696356513456e-07, 0.0, 0.0, 0.0, 0.0, 0.0, 0.0, 9.969348590145147e-10]
---
header: 
  seq: 8194
  stamp: 
    secs: 1518210281
    nsecs: 912767887
  frame_id: "swarmone/odom"
child_frame_id: "swarmone/base_link"
pose: 
  pose: 
    position: 
      x: 0.678766279265
      y: 8.25407351508
      z: 0.0
    orientation: 
      x: 0.0
      y: 0.0
      z: 0.688921620842
      w: 0.724835843717
  covariance: [179408840623.40717, -9277574972.543055, 0.0, 0.0, 0.0, 5.037789663512831e-34, -9277574972.543133, 481020427.5947223, 0.0, 0.0, 0.0, -2.561204405457074e-35, 0.0, 0.0, 5.955848126040828e-07, 8.460133300074934e-40, 3.4221306251326763e-32, 0.0, 0.0, 0.0, 8.460133300074937e-40, 4.965492185499446e-07, -1.0324534902866674e-31, 0.0, 0.0, 0.0, 3.422130625132676e-32, 1.0324534902866674e-31, 4.965492185499446e-07, 0.0, 5.037789663512831e-34, -2.561204405457074e-35, 0.0, 0.0, 0.0, 9.737478025688032e-07]
twist: 
  twist: 
    linear: 
      x: -7.7458589532e-27
      y: 0.0
      z: 0.0
    angular: 
      x: 0.0
      y: 0.0
      z: 9.19541839957e-05
  covariance: [9.999996265022118e-10, 0.0, 0.0, 0.0, 0.0, 0.0, 0.0, 1833549.7401557444, 0.0, 0.0, 0.0, 0.0, 0.0, 0.0, 5.345452061802111e-07, 6.2883269670912065e-43, 3.1969878015245063e-44, 0.0, 0.0, 0.0, 6.288326967091207e-43, 3.982704120048697e-07, -4.807076131423492e-35, 0.0, 0.0, 0.0, 3.196987801524508e-44, 4.807076131423491e-35, 3.982704120048697e-07, 0.0, 0.0, 0.0, 0.0, 0.0, 0.0, 9.969348590145548e-10]
---
header: 
  seq: 8195
  stamp: 
    secs: 1518210282
    nsecs:  12187004
  frame_id: "swarmone/odom"
child_frame_id: "swarmone/base_link"
pose: 
  pose: 
    position: 
      x: 0.678766279265
      y: 8.25407351508
      z: 0.0
    orientation: 
      x: 0.0
      y: 0.0
      z: 0.685288897741
      w: 0.72827132762
  covariance: [179519129643.32455, -9283195582.025024, 0.0, 0.0, 0.0, 4.583325803742107e-34, -9283195582.0251, 481306866.55569243, 0.0, 0.0, 0.0, -2.633465024031732e-35, 0.0, 0.0, 5.908507123524912e-07, 1.2022904899892061e-39, 3.1421281743018696e-32, 0.0, 0.0, 0.0, 1.2022904899892063e-39, 4.928969079733746e-07, -1.6032010884048677e-30, 0.0, 0.0, 0.0, 3.142128174301871e-32, 1.6032010884048677e-30, 4.928969079733746e-07, 0.0, 4.583325803742107e-34, -2.633465024031732e-35, 0.0, 0.0, 0.0, 9.451375730747948e-07]
twist: 
  twist: 
    linear: 
      x: -7.2737975988e-27
      y: 0.0
      z: 0.0
    angular: 
      x: 0.0
      y: 0.0
      z: 0.000126297436654
  covariance: [9.999996221828625e-10, 0.0, 0.0, 0.0, 0.0, 0.0, 0.0, 1834217.259128902, 0.0, 0.0, 0.0, 0.0, 0.0, 0.0, 5.303758070806445e-07, 5.501032368597811e-43, 3.348452099358679e-44, 0.0, 0.0, 0.0, 5.501032368597812e-43, 3.965379340516913e-07, -3.968824350526252e-35, 0.0, 0.0, 0.0, 3.3484520993586784e-44, 3.968824350526252e-35, 3.965379340516913e-07, 0.0, 0.0, 0.0, 0.0, 0.0, 0.0, 9.968425624991046e-10]
---
header: 
  seq: 8196
  stamp: 
    secs: 1518210282
    nsecs: 112648726
  frame_id: "swarmone/odom"
child_frame_id: "swarmone/base_link"
pose: 
  pose: 
    position: 
      x: 0.678766279265
      y: 8.25407351508
      z: 0.0
    orientation: 
      x: 0.0
      y: 0.0
      z: 0.692537223679
      w: 0.721382141323
  covariance: [179630567879.7171, -9289433500.17591, 0.0, 0.0, 0.0, 4.307782400559337e-34, -9289433500.175987, 481653377.2188263, 0.0, 0.0, 0.0, -2.046284144526988e-35, 0.0, 0.0, 5.908507851550401e-07, 7.663992699022892e-40, 2.9815819841545564e-32, 0.0, 0.0, 0.0, 7.66399269902289e-40, 4.928971317307934e-07, 2.665519824171548e-31, 0.0, 0.0, 0.0, 2.9815819841545564e-32, -2.665519824171548e-31, 4.928971317307934e-07, 0.0, 4.307782400559336e-34, -2.0462841445269878e-35, 0.0, 0.0, 0.0, 9.451375730765338e-07]
twist: 
  twist: 
    linear: 
      x: -6.82615276896e-27
      y: 0.0
      z: 0.0
    angular: 
      x: 0.0
      y: 0.0
      z: 0.000126297437364
  covariance: [9.999996263421662e-10, 0.0, 0.0, 0.0, 0.0, 0.0, 0.0, 1834891.942896496, 0.0, 0.0, 0.0, 0.0, 0.0, 0.0, 5.303759509269216e-07, 5.225182474485409e-43, 2.1330345975341053e-44, 0.0, 0.0, 0.0, 5.2251824744854095e-43, 3.965388828484588e-07, 1.0596854334265823e-34, 0.0, 0.0, 0.0, 2.1330345975341058e-44, -1.0596854334265823e-34, 3.965388828484588e-07, 0.0, 0.0, 0.0, 0.0, 0.0, 0.0, 9.968425624991567e-10]
---
header: 
  seq: 8197
  stamp: 
    secs: 1518210282
    nsecs: 212144852
  frame_id: "swarmone/odom"
child_frame_id: "swarmone/base_link"
pose: 
  pose: 
    position: 
      x: 0.678766279265
      y: 8.25407351508
      z: 0.0
    orientation: 
      x: 0.0
      y: 0.0
      z: 0.692537231755
      w: 0.72138213357
  covariance: [179741101681.0195, -9294512720.795593, 0.0, 0.0, 0.0, 4.086044717802328e-34, -9294512720.79567, 481883863.50044286, 0.0, 0.0, 0.0, -1.6678732636152158e-35, 0.0, 0.0, 5.955847440345417e-07, 7.416559459425932e-40, 2.8017962394347494e-32, 0.0, 0.0, 0.0, 7.416559459425933e-40, 4.965490471820259e-07, -9.450650443561107e-32, 0.0, 0.0, 0.0, 2.80179623943475e-32, 9.450650443561107e-32, 4.965490471820259e-07, 0.0, 4.086044717802328e-34, -1.6678732636152158e-35, 0.0, 0.0, 0.0, 9.737478025671255e-07]
twist: 
  twist: 
    linear: 
      x: -6.4098410649e-27
      y: 0.0
      z: 0.0
    angular: 
      x: 0.0
      y: 0.0
      z: 0.000122605577991
  covariance: [9.999996224930037e-10, 0.0, 0.0, 0.0, 0.0, 0.0, 0.0, 1835560.3049409937, 0.0, 0.0, 0.0, 0.0, 0.0, 0.0, 5.345450699518262e-07, 5.150708185917875e-43, 2.1024644941527028e-44, 0.0, 0.0, 0.0, 5.1507081859178765e-43, 3.982695024053121e-07, -9.753155271090725e-36, 0.0, 0.0, 0.0, 2.1024644941527036e-44, 9.753155271090725e-36, 3.982695024053121e-07, 0.0, 0.0, 0.0, 0.0, 0.0, 0.0, 9.969348590145077e-10]
---
header: 
  seq: 8198
  stamp: 
    secs: 1518210282
    nsecs: 312625408
  frame_id: "swarmone/odom"
child_frame_id: "swarmone/base_link"
pose: 
  pose: 
    position: 
      x: 0.678766279265
      y: 8.25407351508
      z: 0.0
    orientation: 
      x: 0.0
      y: 0.0
      z: 0.688921704213
      w: 0.724835764476
  covariance: [179852784093.0454, -9299644622.548697, 0.0, 0.0, 0.0, 4.180269117483968e-34, -9299644622.548769, 482116738.7699934, 0.0, 0.0, 0.0, -1.9944630412420192e-35, 0.0, 0.0, 6.113247739192242e-07, 9.981969502601899e-40, 2.747131320984373e-32, 0.0, 0.0, 0.0, 9.9819695026019e-40, 5.089275969166805e-07, 6.380040428779108e-31, 0.0, 0.0, 0.0, 2.7471313209843723e-32, -6.380040428779108e-31, 5.089275969166805e-07, 0.0, 4.180269117483969e-34, -1.9944630412420195e-35, 0.0, 0.0, 0.0, 1.0738836057914779e-06]
twist: 
  twist: 
    linear: 
      x: -6.0152968771e-27
      y: 0.0
      z: 0.0
    angular: 
      x: 0.0
      y: 0.0
      z: 0.000111226030281
  covariance: [9.9999962641649e-10, 0.0, 0.0, 0.0, 0.0, 0.0, 0.0, 1836235.444563264, 0.0, 0.0, 0.0, 0.0, 0.0, 0.0, 5.485721760411381e-07, 5.895234889924236e-43, 2.9971821046579126e-44, 0.0, 0.0, 0.0, 5.895234889924235e-43, 4.042531468615514e-07, 4.81381989661206e-35, 0.0, 0.0, 0.0, 2.9971821046579126e-44, -4.81381989661206e-35, 4.042531468615514e-07, 0.0, 0.0, 0.0, 0.0, 0.0, 0.0, 9.972193478633031e-10]
---
header: 
  seq: 8199
  stamp: 
    secs: 1518210282
    nsecs: 412124395
  frame_id: "swarmone/odom"
child_frame_id: "swarmone/base_link"
pose: 
  pose: 
    position: 
      x: 0.678766279265
      y: 8.25407351508
      z: 0.0
    orientation: 
      x: 0.0
      y: 0.0
      z: 0.688921618249
      w: 0.724835846181
  covariance: [179963379278.05716, -9305280499.946058, 0.0, 0.0, 0.0, 3.7237584147914753e-34, -9305280499.94613, 482403938.77734506, 0.0, 0.0, 0.0, -1.893151456298742e-35, 0.0, 0.0, 5.932315044705012e-07, 5.981507733344157e-40, 2.4557480045976013e-32, 0.0, 0.0, 0.0, 5.981507733344157e-40, 4.947295452678236e-07, 1.6761491104997617e-31, 0.0, 0.0, 0.0, 2.4557480045976013e-32, -1.6761491104997617e-31, 4.947295452678236e-07, 0.0, 3.7237584147914753e-34, -1.8931514562987424e-35, 0.0, 0.0, 0.0, 9.594426878210329e-07]
twist: 
  twist: 
    linear: 
      x: -5.64842724033e-27
      y: 0.0
      z: 0.0
    angular: 
      x: 0.0
      y: 0.0
      z: 9.33180957205e-05
  covariance: [9.999996225045085e-10, 0.0, 0.0, 0.0, 0.0, 0.0, 0.0, 1836904.1520281995, 0.0, 0.0, 0.0, 0.0, 0.0, 0.0, 5.324697390868472e-07, 4.407078786482696e-43, 2.240560528682363e-44, 0.0, 0.0, 0.0, 4.407078786482695e-43, 3.974050006805686e-07, 4.796933268495795e-35, 0.0, 0.0, 0.0, 2.240560528682363e-44, -4.796933268495795e-35, 3.974050006805686e-07, 0.0, 0.0, 0.0, 0.0, 0.0, 0.0, 9.968893952517304e-10]
---
header: 
  seq: 8200
  stamp: 
    secs: 1518210282
    nsecs: 512340307
  frame_id: "swarmone/odom"
child_frame_id: "swarmone/base_link"
pose: 
  pose: 
    position: 
      x: 0.678766279265
      y: 8.25407351508
      z: 0.0
    orientation: 
      x: 0.0
      y: 0.0
      z: 0.692537831219
      w: 0.721381558074
  covariance: [180074826124.59375, -9310959519.784603, 0.0, 0.0, 0.0, 7.667900323758444e-34, -9310959519.784676, 482693324.09661883, 0.0, 0.0, 0.0, -3.243121854427854e-35, 0.0, 0.0, 7.660901155417892e-07, 2.4998789337132258e-39, 2.6501800561130224e-32, 0.0, 0.0, 0.0, 2.499878933713226e-39, 6.536814859558643e-07, -1.1347379421499573e-30, 0.0, 0.0, 0.0, 2.6501800561130224e-32, 1.1347379421499573e-30, 6.536814859558643e-07, 0.0, 7.667900323758444e-34, -3.2431218544278536e-35, 0.0, 0.0, 0.0, 2.7761922605779667e-06]
twist: 
  twist: 
    linear: 
      x: -5.30160989864e-27
      y: 0.0
      z: 0.0
    angular: 
      x: 0.0
      y: 0.0
      z: 5.39336771013e-05
  covariance: [9.99999625369211e-10, 0.0, 0.0, 0.0, 0.0, 0.0, 0.0, 1837577.8418518815, 0.0, 0.0, 0.0, 0.0, 0.0, 0.0, 7.014984001099227e-07, 2.152046136488575e-42, 8.783286395415482e-44, 0.0, 0.0, 0.0, 2.152046136488575e-42, 4.90389430101335e-07, 1.8568767456346161e-34, 0.0, 0.0, 0.0, 8.783286395415485e-44, -1.8568767456346161e-34, 4.90389430101335e-07, 0.0, 0.0, 0.0, 0.0, 0.0, 0.0, 9.989213259205551e-10]
---
header: 
  seq: 8201
  stamp: 
    secs: 1518210282
    nsecs: 612339735
  frame_id: "swarmone/odom"
child_frame_id: "swarmone/base_link"
pose: 
  pose: 
    position: 
      x: 0.678766279265
      y: 8.25407351508
      z: 0.0
    orientation: 
      x: 0.0
      y: 0.0
      z: 0.696135459829
      w: 0.717910455119
  covariance: [180186138027.68033, -9316073894.117535, 0.0, 0.0, 0.0, 5.1147049689750795e-34, -9316073894.117609, 482925380.08746034, 0.0, 0.0, 0.0, -1.882148750007026e-35, 0.0, 0.0, 5.884419339961495e-07, 4.107991267702371e-40, 2.150766804549851e-32, 0.0, 0.0, 0.0, 4.107991267702371e-40, 4.910510317771713e-07, -1.8832670828015104e-31, 0.0, 0.0, 0.0, 2.1507668045498518e-32, 1.8832670828015104e-31, 4.910510317771713e-07, 0.0, 5.1147049689750795e-34, -1.8821487500070258e-35, 0.0, 0.0, 0.0, 9.308324583297168e-07]
twist: 
  twist: 
    linear: 
      x: -4.97673919371e-27
      y: 0.0
      z: 0.0
    angular: 
      x: 0.0
      y: 0.0
      z: 0.000128228016857
  covariance: [9.999996245085537e-10, 0.0, 0.0, 0.0, 0.0, 0.0, 0.0, 1838250.2405521637, 0.0, 0.0, 0.0, 0.0, 0.0, 0.0, 5.282631274977276e-07, 3.68401790308476e-43, 1.1354114282503092e-44, 0.0, 0.0, 0.0, 3.684017903084761e-43, 3.956689833160576e-07, 2.3682390791815193e-35, 0.0, 0.0, 0.0, 1.1354114282503092e-44, -2.3682390791815188e-35, 3.956689833160576e-07, 0.0, 0.0, 0.0, 0.0, 0.0, 0.0, 9.967942979776205e-10]
---
header: 
  seq: 8202
  stamp: 
    secs: 1518210282
    nsecs: 712270975
  frame_id: "swarmone/odom"
child_frame_id: "swarmone/base_link"
pose: 
  pose: 
    position: 
      x: 0.678766279265
      y: 8.25407351508
      z: 0.0
    orientation: 
      x: 0.0
      y: 0.0
      z: 0.692537252995
      w: 0.721382113179
  covariance: [180297468624.9381, -9320631746.195354, 0.0, 0.0, 0.0, 3.15525095997782e-34, -9320631746.195427, 483100547.41089135, 0.0, 0.0, 0.0, -1.1914440860847431e-35, 0.0, 0.0, 6.091516051401571e-07, 6.082448966211133e-40, 2.1121097123989673e-32, 0.0, 0.0, 0.0, 6.082448966211133e-40, 5.071965499711039e-07, 7.9058808650614e-33, 0.0, 0.0, 0.0, 2.1121097123989673e-32, -7.9058808650614e-33, 5.071965499711039e-07, 0.0, 3.1552509599778202e-34, -1.1914440860847431e-35, 0.0, 0.0, 0.0, 1.0595784910444629e-06]
twist: 
  twist: 
    linear: 
      x: -4.67197665088e-27
      y: 0.0
      z: 0.0
    angular: 
      x: 0.0
      y: 0.0
      z: 0.000112720613182
  covariance: [9.999996242366506e-10, 0.0, 0.0, 0.0, 0.0, 0.0, 0.0, 1838922.3445969336, 0.0, 0.0, 0.0, 0.0, 0.0, 0.0, 5.466202376483798e-07, 4.439885060807952e-43, 1.8123433892673698e-44, 0.0, 0.0, 0.0, 4.439885060807953e-43, 4.034052754915181e-07, 6.68357383579059e-35, 0.0, 0.0, 0.0, 1.8123433892673708e-44, -6.68357383579059e-35, 4.034052754915181e-07, 0.0, 0.0, 0.0, 0.0, 0.0, 0.0, 9.971819832647398e-10]
---
header: 
  seq: 8203
  stamp: 
    secs: 1518210282
    nsecs: 812746286
  frame_id: "swarmone/odom"
child_frame_id: "swarmone/base_link"
pose: 
  pose: 
    position: 
      x: 0.678766279265
      y: 8.25407351508
      z: 0.0
    orientation: 
      x: 0.0
      y: 0.0
      z: 0.692537231755
      w: 0.72138213357
  covariance: [180409420489.51855, -9325775120.059715, 0.0, 0.0, 0.0, 2.93587976761796e-34, -9325775120.059788, 483333908.1696624, 0.0, 0.0, 0.0, -1.1983886951783408e-35, 0.0, 0.0, 5.955848108014181e-07, 5.125690111222344e-40, 1.9364911548014961e-32, 0.0, 0.0, 0.0, 5.1256901112223454e-40, 4.965492540991179e-07, 3.487349666001147e-31, 0.0, 0.0, 0.0, 1.9364911548014961e-32, -3.487349666001147e-31, 4.965492540991179e-07, 0.0, 2.9358797676179605e-34, -1.1983886951783411e-35, 0.0, 0.0, 0.0, 9.737478025687613e-07]
twist: 
  twist: 
    linear: 
      x: -4.38441544752e-27
      y: 0.0
      z: 0.0
    angular: 
      x: 0.0
      y: 0.0
      z: 0.000122605578567
  covariance: [9.999996263959061e-10, 0.0, 0.0, 0.0, 0.0, 0.0, 0.0, 1839598.2730270158, 0.0, 0.0, 0.0, 0.0, 0.0, 0.0, 5.345452026090354e-07, 3.5601922320766273e-43, 1.4532330764060683e-44, 0.0, 0.0, 0.0, 3.5601922320766273e-43, 3.982703883495241e-07, 5.801080510888548e-35, 0.0, 0.0, 0.0, 1.453233076406068e-44, -5.801080510888548e-35, 3.982703883495241e-07, 0.0, 0.0, 0.0, 0.0, 0.0, 0.0, 9.969348590145536e-10]
---
header: 
  seq: 8204
  stamp: 
    secs: 1518210282
    nsecs: 912231207
  frame_id: "swarmone/odom"
child_frame_id: "swarmone/base_link"
pose: 
  pose: 
    position: 
      x: 0.678766279265
      y: 8.25407351508
      z: 0.0
    orientation: 
      x: 0.0
      y: 0.0
      z: 0.688921707675
      w: 0.724835761186
  covariance: [180520323380.57742, -9330870209.721827, 0.0, 0.0, 0.0, 2.856979780997392e-34, -9330870209.721899, 483565077.0407704, 0.0, 0.0, 0.0, -1.3639162848737506e-35, 0.0, 0.0, 6.134738140463085e-07, 6.878952817317963e-40, 1.8682681674092698e-32, 0.0, 0.0, 0.0, 6.878952817317962e-40, 5.106462175055911e-07, 2.0366250314695705e-31, 0.0, 0.0, 0.0, 1.8682681674092692e-32, -2.0366250314695705e-31, 5.106462175055911e-07, 0.0, 2.856979780997392e-34, -1.3639162848737506e-35, 0.0, 0.0, 0.0, 1.0881887205359196e-06]
twist: 
  twist: 
    linear: 
      x: -4.1170470223e-27
      y: 0.0
      z: 0.0
    angular: 
      x: 0.0
      y: 0.0
      z: 0.000109770561804
  covariance: [9.9999962244798e-10, 0.0, 0.0, 0.0, 0.0, 0.0, 0.0, 1840267.701965208, 0.0, 0.0, 0.0, 0.0, 0.0, 0.0, 5.505071842584741e-07, 4.093278331225516e-43, 2.0810626295225365e-44, 0.0, 0.0, 0.0, 4.0932783312255155e-43, 4.050972481534002e-07, -1.8356903009731108e-35, 0.0, 0.0, 0.0, 2.0810626295225357e-44, 1.8356903009731108e-35, 4.050972481534002e-07, 0.0, 0.0, 0.0, 0.0, 0.0, 0.0, 9.972557345796535e-10]
---
header: 
  seq: 8205
  stamp: 
    secs: 1518210283
    nsecs:  12737274
  frame_id: "swarmone/odom"
child_frame_id: "swarmone/base_link"
pose: 
  pose: 
    position: 
      x: 0.678766279265
      y: 8.25407351508
      z: 0.0
    orientation: 
      x: 0.0
      y: 0.0
      z: 0.688921720893
      w: 0.724835748623
  covariance: [180632368398.23386, -9336578965.692846, 0.0, 0.0, 0.0, 2.906890356076247e-34, -9336578965.69292, 483855939.9518371, 0.0, 0.0, 0.0, -1.4778580215337195e-35, 0.0, 0.0, 6.218377681052014e-07, 6.976721459198896e-40, 1.8000482383248108e-32, 0.0, 0.0, 0.0, 6.976721459198896e-40, 5.174030376984259e-07, 7.843739106828787e-31, 0.0, 0.0, 0.0, 1.8000482383248106e-32, -7.843739106828787e-31, 5.174030376984259e-07, 0.0, 2.906890356076247e-34, -1.4778580215337198e-35, 0.0, 0.0, 0.0, 1.1454091795220338e-06]
twist: 
  twist: 
    linear: 
      x: -3.86356955186e-27
      y: 0.0
      z: 0.0
    angular: 
      x: 0.0
      y: 0.0
      z: 0.000104310659832
  covariance: [9.999996265172177e-10, 0.0, 0.0, 0.0, 0.0, 0.0, 0.0, 1840944.16704074, 0.0, 0.0, 0.0, 0.0, 0.0, 0.0, 5.580847392032372e-07, 4.271787848375461e-43, 2.1717779394237386e-44, 0.0, 0.0, 0.0, 4.27178784837546e-43, 4.0845424138286203e-07, -7.840775065241892e-35, 0.0, 0.0, 0.0, 2.1717779394237389e-44, 7.840775065241892e-35, 4.0845424138286203e-07, 0.0, 0.0, 0.0, 0.0, 0.0, 0.0, 9.973922322101884e-10]
---
header: 
  seq: 8206
  stamp: 
    secs: 1518210283
    nsecs: 112160683
  frame_id: "swarmone/odom"
child_frame_id: "swarmone/base_link"
pose: 
  pose: 
    position: 
      x: 0.678766279265
      y: 8.25407351508
      z: 0.0
    orientation: 
      x: 0.0
      y: 0.0
      z: 0.688921679418
      w: 0.724835788043
  covariance: [180743260966.92804, -9342228988.944008, 0.0, 0.0, 0.0, 2.4699143723790874e-34, -9342228988.944084, 484143809.660469, 0.0, 0.0, 0.0, -1.2556989990858286e-35, 0.0, 0.0, 5.955847390612198e-07, 5.221508480328279e-40, 1.5846471246278926e-32, 0.0, 0.0, 0.0, 5.221508480328277e-40, 4.965490317606837e-07, -1.3365461404033712e-31, 0.0, 0.0, 0.0, 1.584647124627893e-32, 1.3365461404033712e-31, 4.965490317606837e-07, 0.0, 2.4699143723790874e-34, -1.2556989990858283e-35, 0.0, 0.0, 0.0, 9.737478025670086e-07]
twist: 
  twist: 
    linear: 
      x: -3.62809972051e-27
      y: 0.0
      z: 0.0
    angular: 
      x: 0.0
      y: 0.0
      z: 0.000122605577912
  covariance: [9.99999622200125e-10, 0.0, 0.0, 0.0, 0.0, 0.0, 0.0, 1841613.508270921, 0.0, 0.0, 0.0, 0.0, 0.0, 0.0, 5.345450600955479e-07, 2.9121411151966794e-43, 1.4805333025972535e-44, 0.0, 0.0, 0.0, 2.9121411151966798e-43, 3.982694370519848e-07, -4.809956631467e-35, 0.0, 0.0, 0.0, 1.4805333025972535e-44, 4.809956631467e-35, 3.982694370519848e-07, 0.0, 0.0, 0.0, 0.0, 0.0, 0.0, 9.969348590145042e-10]
---
header: 
  seq: 8207
  stamp: 
    secs: 1518210283
    nsecs: 212639093
  frame_id: "swarmone/odom"
child_frame_id: "swarmone/base_link"
pose: 
  pose: 
    position: 
      x: 0.678766279265
      y: 8.25407351508
      z: 0.0
    orientation: 
      x: 0.0
      y: 0.0
      z: 0.692537224277
      w: 0.721382140748
  covariance: [180855385345.90695, -9347941678.931334, 0.0, 0.0, 0.0, 2.1711275575702165e-34, -9347941678.931412, 484434867.41966826, 0.0, 0.0, 0.0, -9.602173724140607e-36, 0.0, 0.0, 5.90850786313716e-07, 3.822454364168567e-40, 1.4874317300719756e-32, 0.0, 0.0, 0.0, 3.822454364168566e-40, 4.928971352985631e-07, 7.137683444751319e-31, 0.0, 0.0, 0.0, 1.487431730071975e-32, -7.137683444751319e-31, 4.928971352985631e-07, 0.0, 2.1711275575702165e-34, -9.602173724140607e-36, 0.0, 0.0, 0.0, 9.451375730765621e-07]
twist: 
  twist: 
    linear: 
      x: -3.40478423593e-27
      y: 0.0
      z: 0.0
    angular: 
      x: 0.0
      y: 0.0
      z: 0.000126297437369
  covariance: [9.999996264080179e-10, 0.0, 0.0, 0.0, 0.0, 0.0, 0.0, 1842290.116832652, 0.0, 0.0, 0.0, 0.0, 0.0, 0.0, 5.303759532197822e-07, 2.6067476371997225e-43, 1.0640927969935551e-44, 0.0, 0.0, 0.0, 2.6067476371997213e-43, 3.965388980345618e-07, -1.0035423714648041e-35, 0.0, 0.0, 0.0, 1.0640927969935544e-44, 1.0035423714648041e-35, 3.965388980345618e-07, 0.0, 0.0, 0.0, 0.0, 0.0, 0.0, 9.968425624991578e-10]
---
header: 
  seq: 8208
  stamp: 
    secs: 1518210283
    nsecs: 312148809
  frame_id: "swarmone/odom"
child_frame_id: "swarmone/base_link"
pose: 
  pose: 
    position: 
      x: 0.678766279265
      y: 8.25407351508
      z: 0.0
    orientation: 
      x: 0.0
      y: 0.0
      z: 0.692537231755
      w: 0.72138213357
  covariance: [180966534290.9569, -9353047738.756268, 0.0, 0.0, 0.0, 2.0383372081623455e-34, -9353047738.756346, 484666519.8493541, 0.0, 0.0, 0.0, -8.320241880847236e-36, 0.0, 0.0, 5.955847449698827e-07, 3.6997757351634644e-40, 1.397685512233682e-32, 0.0, 0.0, 0.0, 3.699775735163464e-40, 4.96549050080234e-07, -2.6970348510096437e-31, 0.0, 0.0, 0.0, 1.3976855122336823e-32, 2.6970348510096437e-31, 4.96549050080234e-07, 0.0, 2.038337208162345e-34, -8.320241880847235e-36, 0.0, 0.0, 0.0, 9.737478025671483e-07]
twist: 
  twist: 
    linear: 
      x: -3.19710758536e-27
      y: 0.0
      z: 0.0
    angular: 
      x: 0.0
      y: 0.0
      z: 0.000122605577999
  covariance: [9.9999962254769e-10, 0.0, 0.0, 0.0, 0.0, 0.0, 0.0, 1842960.3656458016, 0.0, 0.0, 0.0, 0.0, 0.0, 0.0, 5.345450718100381e-07, 2.569448204350781e-43, 1.0488216084268841e-44, 0.0, 0.0, 0.0, 2.569448204350781e-43, 3.9826951481173355e-07, -4.821546640856377e-35, 0.0, 0.0, 0.0, 1.0488216084268838e-44, 4.821546640856377e-35, 3.9826951481173355e-07, 0.0, 0.0, 0.0, 0.0, 0.0, 0.0, 9.969348590145083e-10]
---
header: 
  seq: 8209
  stamp: 
    secs: 1518210283
    nsecs: 411763191
  frame_id: "swarmone/odom"
child_frame_id: "swarmone/base_link"
pose: 
  pose: 
    position: 
      x: 0.678766279265
      y: 8.25407351508
      z: 0.0
    orientation: 
      x: 0.0
      y: 0.0
      z: 0.692537277153
      w: 0.721382089986
  covariance: [181077854638.49042, -9358161475.872864, 0.0, 0.0, 0.0, 1.8780918066654327e-34, -9358161475.872944, 484898513.4239917, 0.0, 0.0, 0.0, -7.666136433118e-36, 0.0, 0.0, 5.884419065151685e-07, 4.08592704155164e-40, 1.2919971208917815e-32, 0.0, 0.0, 0.0, 4.0859270415516405e-40, 4.910509872773419e-07, -3.5280220444991613e-31, 0.0, 0.0, 0.0, 1.2919971208917818e-32, 3.5280220444991613e-31, 4.910509872773419e-07, 0.0, 1.8780918066654323e-34, -7.666136433118e-36, 0.0, 0.0, 0.0, 9.308324583290226e-07]
twist: 
  twist: 
    linear: 
      x: -3.00190920644e-27
      y: 0.0
      z: 0.0
    angular: 
      x: 0.0
      y: 0.0
      z: 0.000160285020852
  covariance: [9.99999622968027e-10, 0.0, 0.0, 0.0, 0.0, 0.0, 0.0, 1843631.4822372352, 0.0, 0.0, 0.0, 0.0, 0.0, 0.0, 5.282630731627486e-07, 2.2093041141409232e-43, 9.018145477438545e-45, 0.0, 0.0, 0.0, 2.2093041141409236e-43, 3.9566862251786766e-07, 5.806760433332948e-35, 0.0, 0.0, 0.0, 9.018145477438542e-45, -5.806760433332948e-35, 3.9566862251786766e-07, 0.0, 0.0, 0.0, 0.0, 0.0, 0.0, 9.967942979776008e-10]
---
header: 
  seq: 8210
  stamp: 
    secs: 1518210283
    nsecs: 512277365
  frame_id: "swarmone/odom"
child_frame_id: "swarmone/base_link"
pose: 
  pose: 
    position: 
      x: 0.678766279265
      y: 8.25407351508
      z: 0.0
    orientation: 
      x: 0.0
      y: 0.0
      z: 0.688921676563
      w: 0.724835790756
  covariance: [181190235791.38602, -9363323827.364515, 0.0, 0.0, 0.0, 1.7877942462628483e-34, -9363323827.364594, 485132709.95376134, 0.0, 0.0, 0.0, -8.503414752956954e-36, 0.0, 0.0, 5.932315744221527e-07, 4.02000134852642e-40, 1.238035135628793e-32, 0.0, 0.0, 0.0, 4.02000134852642e-40, 4.947298017442828e-07, 7.439208817632234e-32, 0.0, 0.0, 0.0, 1.238035135628793e-32, -7.439208817632234e-32, 4.947298017442828e-07, 0.0, 1.7877942462628483e-34, -8.503414752956955e-36, 0.0, 0.0, 0.0, 9.594426878227206e-07]
twist: 
  twist: 
    linear: 
      x: -2.81707737565e-27
      y: 0.0
      z: 0.0
    angular: 
      x: 0.0
      y: 0.0
      z: 0.000124424128273
  covariance: [9.999996265488253e-10, 0.0, 0.0, 0.0, 0.0, 0.0, 0.0, 1844308.8259766144, 0.0, 0.0, 0.0, 0.0, 0.0, 0.0, 5.32469877664715e-07, 2.22159512728381e-43, 1.129432339095042e-44, 0.0, 0.0, 0.0, 2.221595127283809e-43, 3.9740592002887083e-07, 1.4404277509732894e-34, 0.0, 0.0, 0.0, 1.1294323390950418e-44, -1.4404277509732894e-34, 3.9740592002887083e-07, 0.0, 0.0, 0.0, 0.0, 0.0, 0.0, 9.968893952517797e-10]
---
header: 
  seq: 8211
  stamp: 
    secs: 1518210283
    nsecs: 612753868
  frame_id: "swarmone/odom"
child_frame_id: "swarmone/base_link"
pose: 
  pose: 
    position: 
      x: 0.678766279265
      y: 8.25407351508
      z: 0.0
    orientation: 
      x: 0.0
      y: 0.0
      z: 0.692537231156
      w: 0.721382134144
  covariance: [181302578859.531, -9369047050.433828, 0.0, 0.0, 0.0, 1.711048937029816e-34, -9369047050.433907, 485424273.4711991, 0.0, 0.0, 0.0, -7.550342583462733e-36, 0.0, 0.0, 5.955848108638131e-07, 3.091481829055014e-40, 1.167665228632363e-32, 0.0, 0.0, 0.0, 3.091481829055014e-40, 4.965492542611155e-07, 3.950120432308402e-31, 0.0, 0.0, 0.0, 1.1676652286323633e-32, -3.950120432308402e-31, 4.965492542611155e-07, 0.0, 1.7110489370298159e-34, -7.550342583462733e-36, 0.0, 0.0, 0.0, 9.737478025687605e-07]
twist: 
  twist: 
    linear: 
      x: -2.64368320344e-27
      y: 0.0
      z: 0.0
    angular: 
      x: 0.0
      y: 0.0
      z: 0.000122605578586
  covariance: [9.99999626400705e-10, 0.0, 0.0, 0.0, 0.0, 0.0, 0.0, 1844986.081654405, 0.0, 0.0, 0.0, 0.0, 0.0, 0.0, 5.345452027211795e-07, 2.146607036706387e-43, 8.762445127035356e-45, 0.0, 0.0, 0.0, 2.146607036706388e-43, 3.982703888796993e-07, -4.853518270893392e-35, 0.0, 0.0, 0.0, 8.762445127035356e-45, 4.853518270893392e-35, 3.982703888796993e-07, 0.0, 0.0, 0.0, 0.0, 0.0, 0.0, 9.969348590145536e-10]
---
header: 
  seq: 8212
  stamp: 
    secs: 1518210283
    nsecs: 712246656
  frame_id: "swarmone/odom"
child_frame_id: "swarmone/base_link"
pose: 
  pose: 
    position: 
      x: 0.678766279265
      y: 8.25407351508
      z: 0.0
    orientation: 
      x: 0.0
      y: 0.0
      z: 0.692537231755
      w: 0.72138213357
  covariance: [181413927727.83203, -9374161692.284126, 0.0, 0.0, 0.0, 1.59807769266981e-34, -9374161692.28421, 485656293.3876884, 0.0, 0.0, 0.0, -6.523154985065347e-36, 0.0, 0.0, 5.955847438102487e-07, 2.8721927822552466e-40, 1.085064393838477e-32, 0.0, 0.0, 0.0, 2.872192782255247e-40, 4.965490464961513e-07, 1.923324410607999e-31, 0.0, 0.0, 0.0, 1.085064393838477e-32, -1.923324410607999e-31, 4.965490464961513e-07, 0.0, 1.5980776926698095e-34, -6.523154985065348e-36, 0.0, 0.0, 0.0, 9.737478025671208e-07]
twist: 
  twist: 
    linear: 
      x: -2.48245479667e-27
      y: 0.0
      z: 0.0
    angular: 
      x: 0.0
      y: 0.0
      z: 0.000122605577983
  covariance: [9.999996224797409e-10, 0.0, 0.0, 0.0, 0.0, 0.0, 0.0, 1845656.870013499, 0.0, 0.0, 0.0, 0.0, 0.0, 0.0, 5.345450695096805e-07, 1.994769059047804e-43, 8.142436532404519e-45, 0.0, 0.0, 0.0, 1.9947690590478037e-43, 3.9826949951570665e-07, -2.9823101046720507e-37, 0.0, 0.0, 0.0, 8.142436532404518e-45, 2.9823101046720507e-37, 3.9826949951570665e-07, 0.0, 0.0, 0.0, 0.0, 0.0, 0.0, 9.969348590145075e-10]
---
header: 
  seq: 8213
  stamp: 
    secs: 1518210283
    nsecs: 812790871
  frame_id: "swarmone/odom"
child_frame_id: "swarmone/base_link"
pose: 
  pose: 
    position: 
      x: 0.678766279265
      y: 8.25407351508
      z: 0.0
    orientation: 
      x: 0.0
      y: 0.0
      z: 0.692537224875
      w: 0.721382140174
  covariance: [181526508651.91135, -9379332728.251749, 0.0, 0.0, 0.0, 1.4867554392567237e-34, -9379332728.251833, 485890864.35711795, 0.0, 0.0, 0.0, -6.068750537486673e-36, 0.0, 0.0, 5.90850790856789e-07, 2.616604684776949e-40, 1.0184120808193662e-32, 0.0, 0.0, 0.0, 2.616604684776949e-40, 4.928971492519517e-07, -2.7813759094776133e-31, 0.0, 0.0, 0.0, 1.0184120808193662e-32, 2.7813759094776133e-31, 4.928971492519517e-07, 0.0, 1.4867554392567237e-34, -6.068750537486673e-36, 0.0, 0.0, 0.0, 9.451375730766707e-07]
twist: 
  twist: 
    linear: 
      x: -2.32956076972e-27
      y: 0.0
      z: 0.0
    angular: 
      x: 0.0
      y: 0.0
      z: 0.000126297437409
  covariance: [9.999996266677263e-10, 0.0, 0.0, 0.0, 0.0, 0.0, 0.0, 1846334.9123249762, 0.0, 0.0, 0.0, 0.0, 0.0, 0.0, 5.303759621963947e-07, 1.7847834729696801e-43, 7.285298243834868e-45, 0.0, 0.0, 0.0, 1.7847834729696801e-43, 3.96538957247671e-07, -9.931109808070611e-36, 0.0, 0.0, 0.0, 7.285298243834866e-45, 9.931109808070611e-36, 3.96538957247671e-07, 0.0, 0.0, 0.0, 0.0, 0.0, 0.0, 9.968425624991609e-10]
---
header: 
  seq: 8214
  stamp: 
    secs: 1518210283
    nsecs: 912510872
  frame_id: "swarmone/odom"
child_frame_id: "swarmone/base_link"
pose: 
  pose: 
    position: 
      x: 0.678766279265
      y: 8.25407351508
      z: 0.0
    orientation: 
      x: 0.0
      y: 0.0
      z: 0.688921676568
      w: 0.724835790752
  covariance: [181638221648.8293, -9384463792.530142, 0.0, 0.0, 0.0, 1.3833261620564352e-34, -9384463792.530226, 486123620.11051446, 0.0, 0.0, 0.0, -6.574957256282883e-36, 0.0, 0.0, 5.932315198027039e-07, 3.0944195492540436e-40, 9.531560204789274e-33, 0.0, 0.0, 0.0, 3.094419549254044e-40, 4.94729633248149e-07, 4.7477232926416595e-31, 0.0, 0.0, 0.0, 9.531560204789271e-33, -4.7477232926416595e-31, 4.94729633248149e-07, 0.0, 1.3833261620564352e-34, -6.574957256282883e-36, 0.0, 0.0, 0.0, 9.594426878214005e-07]
twist: 
  twist: 
    linear: 
      x: -2.18718491502e-27
      y: 0.0
      z: 0.0
    angular: 
      x: 0.0
      y: 0.0
      z: 0.000124424127731
  covariance: [9.999996233923804e-10, 0.0, 0.0, 0.0, 0.0, 0.0, 0.0, 1847007.5603787333, 0.0, 0.0, 0.0, 0.0, 0.0, 0.0, 5.324697694488974e-07, 1.7104055185889868e-43, 8.695484358887589e-45, 0.0, 0.0, 0.0, 1.7104055185889872e-43, 3.974052018887801e-07, 2.807301180846975e-35, 0.0, 0.0, 0.0, 8.695484358887591e-45, -2.807301180846975e-35, 3.974052018887801e-07, 0.0, 0.0, 0.0, 0.0, 0.0, 0.0, 9.968893952517412e-10]
---
header: 
  seq: 8215
  stamp: 
    secs: 1518210284
    nsecs:  11993408
  frame_id: "swarmone/odom"
child_frame_id: "swarmone/base_link"
pose: 
  pose: 
    position: 
      x: 0.678766279265
      y: 8.25407351508
      z: 0.0
    orientation: 
      x: 0.0
      y: 0.0
      z: 0.692537220831
      w: 0.721382144056
  covariance: [181749672105.9219, -9390140944.3643, 0.0, 0.0, 0.0, 1.2764522859460776e-34, -9390140944.364384, 486412806.24579453, 0.0, 0.0, 0.0, -5.645457994418541e-36, 0.0, 0.0, 5.884418971232618e-07, 2.23413124893949e-40, 8.82702629273576e-33, 0.0, 0.0, 0.0, 2.23413124893949e-40, 4.91050918453435e-07, -2.4604282360587276e-31, 0.0, 0.0, 0.0, 8.827026292735762e-33, 2.4604282360587276e-31, 4.91050918453435e-07, 0.0, 1.2764522859460778e-34, -5.6454579944185404e-36, 0.0, 0.0, 0.0, 9.308324583288005e-07]
twist: 
  twist: 
    linear: 
      x: -2.05381111115e-27
      y: 0.0
      z: 0.0
    angular: 
      x: 0.0
      y: 0.0
      z: 0.000128228016639
  covariance: [9.999996224381827e-10, 0.0, 0.0, 0.0, 0.0, 0.0, 0.0, 1847678.7694128538, 0.0, 0.0, 0.0, 0.0, 0.0, 0.0, 5.282630546548239e-07, 1.5094006909405364e-43, 6.161528542409606e-45, 0.0, 0.0, 0.0, 1.5094006909405364e-43, 3.9566850114450187e-07, 1.044467383728676e-35, 0.0, 0.0, 0.0, 6.161528542409609e-45, -1.044467383728676e-35, 3.9566850114450187e-07, 0.0, 0.0, 0.0, 0.0, 0.0, 0.0, 9.96794297977594e-10]
---
header: 
  seq: 8216
  stamp: 
    secs: 1518210284
    nsecs: 112473488
  frame_id: "swarmone/odom"
child_frame_id: "swarmone/base_link"
pose: 
  pose: 
    position: 
      x: 0.678766279265
      y: 8.25407351508
      z: 0.0
    orientation: 
      x: 0.0
      y: 0.0
      z: 0.692537737405
      w: 0.721381648138
  covariance: [181862347036.9584, -9395315890.23698, 0.0, 0.0, 0.0, 3.0413155908497097e-34, -9395315890.237064, 486647539.8136054, 0.0, 0.0, 0.0, -1.241431387161276e-35, 0.0, 0.0, 7.81447430366647e-07, 7.953080552798854e-40, 9.509577865931876e-33, 0.0, 0.0, 0.0, 7.953080552798853e-40, 6.708056204066e-07, -6.125731003303239e-31, 0.0, 0.0, 0.0, 9.509577865931877e-33, 6.125731003303239e-31, 6.708056204066e-07, 0.0, 3.0413155908497097e-34, -1.241431387161276e-35, 0.0, 0.0, 0.0, 3.076599670246852e-06]
twist: 
  twist: 
    linear: 
      x: -1.92739427256e-27
      y: 0.0
      z: 0.0
    angular: 
      x: 0.0
      y: 0.0
      z: 3.89407948275e-05
  covariance: [9.999996264145042e-10, 0.0, 0.0, 0.0, 0.0, 0.0, 0.0, 1848356.8739233841, 0.0, 0.0, 0.0, 0.0, 0.0, 0.0, 7.183366420883303e-07, 8.726725607305715e-43, 3.5621526012910105e-44, 0.0, 0.0, 0.0, 8.726725607305715e-43, 5.030688564514561e-07, 4.790478267630286e-34, 0.0, 0.0, 0.0, 3.5621526012910115e-44, -4.790478267630284e-34, 5.030688564514561e-07, 0.0, 0.0, 0.0, 0.0, 0.0, 0.0, 9.990264796461851e-10]
---
header: 
  seq: 8217
  stamp: 
    secs: 1518210284
    nsecs: 212045193
  frame_id: "swarmone/odom"
child_frame_id: "swarmone/base_link"
pose: 
  pose: 
    position: 
      x: 0.678766279265
      y: 8.25407351508
      z: 0.0
    orientation: 
      x: 0.0
      y: 0.0
      z: 0.692537217995
      w: 0.721382146779
  covariance: [181974058239.70178, -9400446297.171429, 0.0, 0.0, 0.0, 1.9596704372246424e-34, -9400446297.171515, 486880241.4362086, 0.0, 0.0, 0.0, -7.998921818537826e-36, 0.0, 0.0, 5.860045528040981e-07, 1.9273470174206676e-40, 7.739460630895627e-33, 0.0, 0.0, 0.0, 1.9273470174206676e-40, 4.891914468187198e-07, -2.367872265536225e-31, 0.0, 0.0, 0.0, 7.739460630895627e-33, 2.367872265536225e-31, 4.891914468187198e-07, 0.0, 1.959670437224642e-34, -7.998921818537826e-36, 0.0, 0.0, 0.0, 9.16527343582909e-07]
twist: 
  twist: 
    linear: 
      x: -1.80976119118e-27
      y: 0.0
      z: 0.0
    angular: 
      x: 0.0
      y: 0.0
      z: 0.000130218534264
  covariance: [9.999996227968577e-10, 0.0, 0.0, 0.0, 0.0, 0.0, 0.0, 1849029.0117824133, 0.0, 0.0, 0.0, 0.0, 0.0, 0.0, 5.26131210859177e-07, 1.2928772487898225e-43, 5.277388078278886e-45, 0.0, 0.0, 0.0, 1.2928772487898221e-43, 3.9479659286617837e-07, 5.84228353125922e-38, 0.0, 0.0, 0.0, 5.277388078278885e-45, -5.84228353125922e-38, 3.9479659286617837e-07, 0.0, 0.0, 0.0, 0.0, 0.0, 0.0, 9.96744535010001e-10]
---
header: 
  seq: 8218
  stamp: 
    secs: 1518210284
    nsecs: 312585592
  frame_id: "swarmone/odom"
child_frame_id: "swarmone/base_link"
pose: 
  pose: 
    position: 
      x: 0.678766279265
      y: 8.25407351508
      z: 0.0
    orientation: 
      x: 0.0
      y: 0.0
      z: 0.692537730525
      w: 0.721381654743
  covariance: [182086911687.69196, -9405629045.24966, 0.0, 0.0, 0.0, 2.6544584632463963e-34, -9405629045.249746, 487115314.52558684, 0.0, 0.0, 0.0, -1.0835206187865056e-35, 0.0, 0.0, 7.800722587752122e-07, 6.958497037062804e-40, 8.398448066528984e-33, 0.0, 0.0, 0.0, 6.958497037062801e-40, 6.692480588596902e-07, 7.146968150195425e-31, 0.0, 0.0, 0.0, 8.398448066528981e-33, -7.146968150195425e-31, 6.692480588596902e-07, 0.0, 2.6544584632463963e-34, -1.0835206187865056e-35, 0.0, 0.0, 0.0, 3.0479894407547158e-06]
twist: 
  twist: 
    linear: 
      x: -1.69830332882e-27
      y: 0.0
      z: 0.0
    angular: 
      x: 0.0
      y: 0.0
      z: 3.93057175165e-05
  covariance: [9.99999626652462e-10, 0.0, 0.0, 0.0, 0.0, 0.0, 0.0, 1849707.8539219452, 0.0, 0.0, 0.0, 0.0, 0.0, 0.0, 7.168152912502874e-07, 7.623276466730975e-43, 3.1117369850542633e-44, 0.0, 0.0, 0.0, 7.623276466730974e-43, 5.018885925587689e-07, -3.8513424348557436e-34, 0.0, 0.0, 0.0, 3.1117369850542624e-44, 3.8513424348557436e-34, 5.018885925587689e-07, 0.0, 0.0, 0.0, 0.0, 0.0, 0.0, 9.99017356574753e-10]
---
header: 
  seq: 8219
  stamp: 
    secs: 1518210284
    nsecs: 412088394
  frame_id: "swarmone/odom"
child_frame_id: "swarmone/base_link"
pose: 
  pose: 
    position: 
      x: 0.678766279265
      y: 8.25407351508
      z: 0.0
    orientation: 
      x: 0.0
      y: 0.0
      z: 0.688922132795
      w: 0.724835357129
  covariance: [182198655332.4643, -9410760817.03505, 0.0, 0.0, 0.0, 3.0724368527633775e-34, -9410760817.035135, 487348078.98931843, 0.0, 0.0, 0.0, -1.4546705873959646e-35, 0.0, 0.0, 7.69939141636112e-07, 7.597502109018016e-40, 7.884225507526105e-33, 0.0, 0.0, 0.0, 7.597502109018016e-40, 6.579181580441361e-07, -4.21104809970418e-31, 0.0, 0.0, 0.0, 7.884225507526105e-33, 4.21104809970418e-31, 6.579181580441361e-07, 0.0, 3.0724368527633775e-34, -1.4546705873959646e-35, 0.0, 0.0, 0.0, 2.8477178343074107e-06]
twist: 
  twist: 
    linear: 
      x: -1.59471921576e-27
      y: 0.0
      z: 0.0
    angular: 
      x: 0.0
      y: 0.0
      z: 4.20651276282e-05
  covariance: [9.999996225197907e-10, 0.0, 0.0, 0.0, 0.0, 0.0, 0.0, 1850379.8538387439, 0.0, 0.0, 0.0, 0.0, 0.0, 0.0, 7.056875065946486e-07, 6.599034930652269e-43, 3.3552984727411785e-44, 0.0, 0.0, 0.0, 6.599034930652269e-43, 4.934661838663104e-07, 1.0002875890453343e-35, 0.0, 0.0, 0.0, 3.3552984727411785e-44, -1.0002875890453343e-35, 4.934661838663104e-07, 0.0, 0.0, 0.0, 0.0, 0.0, 0.0, 9.989483712811226e-10]
---
header: 
  seq: 8220
  stamp: 
    secs: 1518210284
    nsecs: 512519836
  frame_id: "swarmone/odom"
child_frame_id: "swarmone/base_link"
pose: 
  pose: 
    position: 
      x: 0.678766279265
      y: 8.25407351508
      z: 0.0
    orientation: 
      x: 0.0
      y: 0.0
      z: 0.692537224276
      w: 0.721382140749
  covariance: [182311445570.5436, -9416505338.05736, 0.0, 0.0, 0.0, 1.5778454093895742e-34, -9416505338.057444, 487640652.2605744, 0.0, 0.0, 0.0, -7.390787959562738e-36, 0.0, 0.0, 5.908507832703034e-07, 1.6784112398728632e-40, 6.534984857721959e-33, 0.0, 0.0, 0.0, 1.6784112398728632e-40, 4.928971264769864e-07, 2.1459447164849136e-31, 0.0, 0.0, 0.0, 6.534984857721957e-33, -2.1459447164849136e-31, 4.928971264769864e-07, 0.0, 1.5778454093895742e-34, -7.39078795956274e-36, 0.0, 0.0, 0.0, 9.451375730765361e-07]
twist: 
  twist: 
    linear: 
      x: -1.49660331358e-27
      y: 0.0
      z: 0.0
    angular: 
      x: 0.0
      y: 0.0
      z: 0.000126297437213
  covariance: [9.999996262224273e-10, 0.0, 0.0, 0.0, 0.0, 0.0, 0.0, 1851058.2904254708, 0.0, 0.0, 0.0, 0.0, 0.0, 0.0, 5.30375947394117e-07, 1.1467924652642781e-43, 4.6826345502373757e-45, 0.0, 0.0, 0.0, 1.1467924652642781e-43, 3.9653886430173747e-07, 3.848363316409639e-35, 0.0, 0.0, 0.0, 4.682634550237373e-45, -3.8483633164096396e-35, 3.9653886430173747e-07, 0.0, 0.0, 0.0, 0.0, 0.0, 0.0, 9.968425624991553e-10]
---
header: 
  seq: 8221
  stamp: 
    secs: 1518210284
    nsecs: 612110615
  frame_id: "swarmone/odom"
child_frame_id: "swarmone/base_link"
pose: 
  pose: 
    position: 
      x: 0.678766279265
      y: 8.25407351508
      z: 0.0
    orientation: 
      x: 0.0
      y: 0.0
      z: 0.688921673112
      w: 0.724835794036
  covariance: [182423397900.6275, -9421646385.467775, 0.0, 0.0, 0.0, 8.786821504501048e-35, -9421646385.46786, 487873824.21947485, 0.0, 0.0, 0.0, -4.173444747366303e-36, 0.0, 0.0, 5.908507244393325e-07, 1.9449281566310657e-40, 6.081493054348406e-33, 0.0, 0.0, 0.0, 1.9449281566310657e-40, 4.928969451773038e-07, -6.6830474802006785e-31, 0.0, 0.0, 0.0, 6.0814930543484045e-33, 6.6830474802006785e-31, 4.928969451773038e-07, 0.0, 8.786821504501049e-35, -4.173444747366303e-36, 0.0, 0.0, 0.0, 9.451375730750829e-07]
twist: 
  twist: 
    linear: 
      x: -1.40524791151e-27
      y: 0.0
      z: 0.0
    angular: 
      x: 0.0
      y: 0.0
      z: 0.000126297436818
  covariance: [9.999996228735107e-10, 0.0, 0.0, 0.0, 0.0, 0.0, 0.0, 1851731.2118771344, 0.0, 0.0, 0.0, 0.0, 0.0, 0.0, 5.303758309593772e-07, 1.0652849718190785e-43, 5.4157364758725427e-45, 0.0, 0.0, 0.0, 1.0652849718190789e-43, 3.9653809150049307e-07, 2.6313905872404093e-37, 0.0, 0.0, 0.0, 5.4157364758725464e-45, -2.6313905872404093e-37, 3.9653809150049307e-07, 0.0, 0.0, 0.0, 0.0, 0.0, 0.0, 9.968425624991135e-10]
---
header: 
  seq: 8222
  stamp: 
    secs: 1518210284
    nsecs: 712836981
  frame_id: "swarmone/odom"
child_frame_id: "swarmone/base_link"
pose: 
  pose: 
    position: 
      x: 0.678766279265
      y: 8.25407351508
      z: 0.0
    orientation: 
      x: 0.0
      y: 0.0
      z: 0.688922142557
      w: 0.724835347851
  covariance: [182536630564.6534, -9427413390.236212, 0.0, 0.0, 0.0, 1.97979494089736e-34, -9427413390.236296, 488167540.15686345, 0.0, 0.0, 0.0, -1.0065272019843537e-35, 0.0, 0.0, 7.721883844140753e-07, 6.446067210009937e-40, 6.589590824642474e-33, 0.0, 0.0, 0.0, 6.446067210009938e-40, 6.604109575926733e-07, 8.216872235602738e-31, 0.0, 0.0, 0.0, 6.589590824642474e-33, -8.216872235602738e-31, 6.604109575926733e-07, 0.0, 1.9797949408973597e-34, -1.0065272019843536e-35, 0.0, 0.0, 0.0, 2.890633178547736e-06]
twist: 
  twist: 
    linear: 
      x: -1.31855254144e-27
      y: 0.0
      z: 0.0
    angular: 
      x: 0.0
      y: 0.0
      z: 4.14416928002e-05
  covariance: [9.999996273842203e-10, 0.0, 0.0, 0.0, 0.0, 0.0, 0.0, 1852411.9722084885, 0.0, 0.0, 0.0, 0.0, 0.0, 0.0, 7.08145091759038e-07, 5.615070398843867e-43, 2.8546997485666113e-44, 0.0, 0.0, 0.0, 5.615070398843866e-43, 4.952955067405452e-07, -3.3965910452122936e-36, 0.0, 0.0, 0.0, 2.854699748566612e-44, 3.3965910452122936e-36, 4.952955067405452e-07, 0.0, 0.0, 0.0, 0.0, 0.0, 0.0, 9.989639571670889e-10]
---
header: 
  seq: 8223
  stamp: 
    secs: 1518210284
    nsecs: 812458992
  frame_id: "swarmone/odom"
child_frame_id: "swarmone/base_link"
pose: 
  pose: 
    position: 
      x: 0.678766279265
      y: 8.25407351508
      z: 0.0
    orientation: 
      x: 0.0
      y: 0.0
      z: 0.688922173663
      w: 0.724835318286
  covariance: [182648676837.08444, -9433119886.537048, 0.0, 0.0, 0.0, 2.438719958668547e-34, -9433119886.537132, 488458170.0399493, 0.0, 0.0, 0.0, -1.2398314939471573e-35, 0.0, 0.0, 7.78679652076233e-07, 6.204947979560105e-40, 6.0728823844666234e-33, 0.0, 0.0, 0.0, 6.2049479795601034e-40, 6.67675598767738e-07, 3.8387871268587526e-31, 0.0, 0.0, 0.0, 6.0728823844666234e-33, -3.8387871268587526e-31, 6.67675598767738e-07, 0.0, 2.4387199586685473e-34, -1.239831493947157e-35, 0.0, 0.0, 0.0, 3.0193792112610068e-06]
twist: 
  twist: 
    linear: 
      x: -1.23803951671e-27
      y: 0.0
      z: 0.0
    angular: 
      x: 0.0
      y: 0.0
      z: 3.96775442084e-05
  covariance: [9.999996229992198e-10, 0.0, 0.0, 0.0, 0.0, 0.0, 0.0, 1853085.4328383151, 0.0, 0.0, 0.0, 0.0, 0.0, 0.0, 7.152773673196316e-07, 5.44917326817308e-43, 2.770357477604027e-44, 0.0, 0.0, 0.0, 5.449173268173081e-43, 5.007021069724586e-07, 3.700973171618033e-38, 0.0, 0.0, 0.0, 2.770357477604027e-44, -3.700973171618033e-38, 5.007021069724586e-07, 0.0, 0.0, 0.0, 0.0, 0.0, 0.0, 9.990080608972049e-10]
---
header: 
  seq: 8224
  stamp: 
    secs: 1518210284
    nsecs: 912008524
  frame_id: "swarmone/odom"
child_frame_id: "swarmone/base_link"
pose: 
  pose: 
    position: 
      x: 0.678766279265
      y: 8.25407351508
      z: 0.0
    orientation: 
      x: 0.0
      y: 0.0
      z: 0.688921618249
      w: 0.724835846181
  covariance: [182760696322.12018, -9438825001.632795, 0.0, 0.0, 0.0, 1.2652596123073646e-34, -9438825001.632874, 488748728.71792203, 0.0, 0.0, 0.0, -6.432431678632332e-36, 0.0, 0.0, 5.932315081843093e-07, 1.2310540842225301e-40, 5.0569341528072806e-33, 0.0, 0.0, 0.0, 1.23105408422253e-40, 4.947295572626711e-07, -1.8143435458538543e-31, 0.0, 0.0, 0.0, 5.05693415280728e-33, 1.8143435458538543e-31, 4.947295572626711e-07, 0.0, 1.2652596123073644e-34, -6.432431678632332e-36, 0.0, 0.0, 0.0, 9.594426878211724e-07]
twist: 
  twist: 
    linear: 
      x: -1.16249561919e-27
      y: 0.0
      z: 0.0
    angular: 
      x: 0.0
      y: 0.0
      z: 9.33180956323e-05
  covariance: [9.999996227075555e-10, 0.0, 0.0, 0.0, 0.0, 0.0, 0.0, 1853758.566528049, 0.0, 0.0, 0.0, 0.0, 0.0, 0.0, 5.324697466353202e-07, 9.087552492390468e-44, 4.6201143716665496e-45, 0.0, 0.0, 0.0, 9.08755249239047e-44, 3.974050557566517e-07, 9.592823446059601e-35, 0.0, 0.0, 0.0, 4.62011437166655e-45, -9.592823446059603e-35, 3.974050557566517e-07, 0.0, 0.0, 0.0, 0.0, 0.0, 0.0, 9.96889395251733e-10]
---
header: 
  seq: 8225
  stamp: 
    secs: 1518210285
    nsecs:  12488365
  frame_id: "swarmone/odom"
child_frame_id: "swarmone/base_link"
pose: 
  pose: 
    position: 
      x: 0.678766279265
      y: 8.25407351508
      z: 0.0
    orientation: 
      x: 0.0
      y: 0.0
      z: 0.692537170279
      w: 0.721382192587
  covariance: [182873818150.2078, -9444586243.192732, 0.0, 0.0, 0.0, 6.991504904492899e-35, -9444586243.19281, 489042145.1010501, 0.0, 0.0, 0.0, -3.087445184356328e-36, 0.0, 0.0, 5.932315720841741e-07, 9.377071505393603e-41, 4.792680203571006e-33, 0.0, 0.0, 0.0, 9.377071505393605e-41, 4.947297538745046e-07, 5.384064881233705e-32, 0.0, 0.0, 0.0, 4.792680203571007e-33, -5.384064881233705e-32, 4.947297538745046e-07, 0.0, 6.9915049044929e-35, -3.0874451843563285e-36, 0.0, 0.0, 0.0, 9.594426878226647e-07]
twist: 
  twist: 
    linear: 
      x: -1.09094184451e-27
      y: 0.0
      z: 0.0
    angular: 
      x: 0.0
      y: 0.0
      z: 9.33180961475e-05
  covariance: [9.999996264134297e-10, 0.0, 0.0, 0.0, 0.0, 0.0, 0.0, 1854438.1560635406, 0.0, 0.0, 0.0, 0.0, 0.0, 0.0, 5.324698730358873e-07, 8.604313007049718e-44, 3.51230666020423e-45, 0.0, 0.0, 0.0, 8.604313007049718e-44, 3.974058893706176e-07, 4.8134299435169136e-35, 0.0, 0.0, 0.0, 3.5123066602042305e-45, -4.8134299435169136e-35, 3.974058893706176e-07, 0.0, 0.0, 0.0, 0.0, 0.0, 0.0, 9.96889395251778e-10]
---
header: 
  seq: 8226
  stamp: 
    secs: 1518210285
    nsecs: 111994028
  frame_id: "swarmone/odom"
child_frame_id: "swarmone/base_link"
pose: 
  pose: 
    position: 
      x: 0.678766279265
      y: 8.25407351508
      z: 0.0
    orientation: 
      x: 0.0
      y: 0.0
      z: 0.688921673113
      w: 0.724835794036
  covariance: [182985949571.03732, -9449735278.795563, 0.0, 0.0, 0.0, 6.431945328056354e-35, -9449735278.795637, 489275670.9749339, 0.0, 0.0, 0.0, -3.0528032769735894e-36, 0.0, 0.0, 5.908507184515235e-07, 1.4162781087812244e-40, 4.429286742297506e-33, 0.0, 0.0, 0.0, 1.416278108781224e-40, 4.928969267912425e-07, 6.9623744230575785e-31, 0.0, 0.0, 0.0, 4.429286742297506e-33, -6.9623744230575785e-31, 4.928969267912425e-07, 0.0, 6.431945328056354e-35, -3.0528032769735894e-36, 0.0, 0.0, 0.0, 9.451375730749402e-07]
twist: 
  twist: 
    linear: 
      x: -1.02440235183e-27
      y: 0.0
      z: 0.0
    angular: 
      x: 0.0
      y: 0.0
      z: 0.000126297436711
  covariance: [9.99999622531172e-10, 0.0, 0.0, 0.0, 0.0, 0.0, 0.0, 1855111.3204658616, 0.0, 0.0, 0.0, 0.0, 0.0, 0.0, 5.303758191298896e-07, 7.758772678431265e-44, 3.944429261833315e-45, 0.0, 0.0, 0.0, 7.758772678431265e-44, 3.9653801350069803e-07, 1.9443386287158074e-35, 0.0, 0.0, 0.0, 3.944429261833314e-45, -1.9443386287158074e-35, 3.9653801350069803e-07, 0.0, 0.0, 0.0, 0.0, 0.0, 0.0, 9.968425624991092e-10]
---
header: 
  seq: 8227
  stamp: 
    secs: 1518210285
    nsecs: 212352037
  frame_id: "swarmone/odom"
child_frame_id: "swarmone/base_link"
pose: 
  pose: 
    position: 
      x: 0.678766279265
      y: 8.25407351508
      z: 0.0
    orientation: 
      x: 0.0
      y: 0.0
      z: 0.688921675962
      w: 0.724835791328
  covariance: [183099045117.0586, -9455495053.775537, 0.0, 0.0, 0.0, 6.121045253391053e-35, -9455495053.775612, 489569006.1973782, 0.0, 0.0, 0.0, -3.1119303748091424e-36, 0.0, 0.0, 5.932315637524155e-07, 1.3696770834304155e-40, 4.218234168492682e-33, 0.0, 0.0, 0.0, 1.3696770834304157e-40, 4.947297688326601e-07, -6.364384560737064e-31, 0.0, 0.0, 0.0, 4.218234168492683e-33, 6.364384560737064e-31, 4.947297688326601e-07, 0.0, 6.121045253391054e-35, -3.111930374809142e-36, 0.0, 0.0, 0.0, 9.59442687822463e-07]
twist: 
  twist: 
    linear: 
      x: -9.61420098773e-28
      y: 0.0
      z: 0.0
    angular: 
      x: 0.0
      y: 0.0
      z: 0.000124424128125
  covariance: [9.999996259320427e-10, 0.0, 0.0, 0.0, 0.0, 0.0, 0.0, 1855790.4160517696, 0.0, 0.0, 0.0, 0.0, 0.0, 0.0, 5.324698565264596e-07, 7.569478801215226e-44, 3.8483252947495953e-45, 0.0, 0.0, 0.0, 7.569478801215225e-44, 3.97405779775454e-07, -2.118876260450683e-37, 0.0, 0.0, 0.0, 3.8483252947495953e-45, 2.118876260450683e-37, 3.97405779775454e-07, 0.0, 0.0, 0.0, 0.0, 0.0, 0.0, 9.968893952517722e-10]
---
header: 
  seq: 8228
  stamp: 
    secs: 1518210285
    nsecs: 312381506
  frame_id: "swarmone/odom"
child_frame_id: "swarmone/base_link"
pose: 
  pose: 
    position: 
      x: 0.678766279265
      y: 8.25407351508
      z: 0.0
    orientation: 
      x: 0.0
      y: 0.0
      z: 0.685288894265
      w: 0.728271330891
  covariance: [183211825825.08228, -9461238869.61977, 0.0, 0.0, 0.0, 5.637965789441663e-35, -9461238869.619844, 489861532.4893288, 0.0, 0.0, 0.0, -3.2393719732820365e-36, 0.0, 0.0, 5.884419359102465e-07, 1.4705135187666774e-40, 3.901427657454923e-33, 0.0, 0.0, 0.0, 1.4705135187666774e-40, 4.910510368871632e-07, -9.375779031399212e-31, 0.0, 0.0, 0.0, 3.901427657454924e-33, 9.375779031399212e-31, 4.910510368871632e-07, 0.0, 5.637965789441662e-35, -3.239371973282036e-36, 0.0, 0.0, 0.0, 9.308324583297164e-07]
twist: 
  twist: 
    linear: 
      x: -9.02490872374e-28
      y: 0.0
      z: 0.0
    angular: 
      x: 0.0
      y: 0.0
      z: 0.00012822801699
  covariance: [9.999996246282515e-10, 0.0, 0.0, 0.0, 0.0, 0.0, 0.0, 1856467.4533879594, 0.0, 0.0, 0.0, 0.0, 0.0, 0.0, 5.282631310821424e-07, 6.664570287976497e-44, 4.0566728585976163e-45, 0.0, 0.0, 0.0, 6.664570287976499e-44, 3.9566900221939675e-07, 8.793280349394451e-35, 0.0, 0.0, 0.0, 4.056672858597618e-45, -8.793280349394451e-35, 3.9566900221939675e-07, 0.0, 0.0, 0.0, 0.0, 0.0, 0.0, 9.967942979776224e-10]
---
header: 
  seq: 8229
  stamp: 
    secs: 1518210285
    nsecs: 412129879
  frame_id: "swarmone/odom"
child_frame_id: "swarmone/base_link"
pose: 
  pose: 
    position: 
      x: 0.678766279265
      y: 8.25407351508
      z: 0.0
    orientation: 
      x: 0.0
      y: 0.0
      z: 0.68892161246
      w: 0.724835851684
  covariance: [183324281892.79733, -9467530097.27743, 0.0, 0.0, 0.0, 5.224926868531278e-35, -9467530097.2775, 490210760.10315174, 0.0, 0.0, 0.0, -2.8310873443885887e-36, 0.0, 0.0, 5.884419160231127e-07, 8.633375222918463e-41, 3.6519994301237945e-33, 0.0, 0.0, 0.0, 8.633375222918466e-41, 4.910509360758556e-07, -1.0715598117253523e-31, 0.0, 0.0, 0.0, 3.651999430123795e-33, 1.0715598117253523e-31, 4.910509360758556e-07, 0.0, 5.224926868531277e-35, -2.8310873443885884e-36, 0.0, 0.0, 0.0, 9.308324583292461e-07]
twist: 
  twist: 
    linear: 
      x: -8.47319531767e-28
      y: 0.0
      z: 0.0
    angular: 
      x: 0.0
      y: 0.0
      z: 9.61710126636e-05
  covariance: [9.99999623505625e-10, 0.0, 0.0, 0.0, 0.0, 0.0, 0.0, 1857142.752116911, 0.0, 0.0, 0.0, 0.0, 0.0, 0.0, 5.282630918922606e-07, 6.241863406248489e-44, 3.173486411242087e-45, 0.0, 0.0, 0.0, 6.241863406248492e-44, 3.956687452190492e-07, -4.0355518440410147e-35, 0.0, 0.0, 0.0, 3.173486411242089e-45, 4.0355518440410147e-35, 3.956687452190492e-07, 0.0, 0.0, 0.0, 0.0, 0.0, 0.0, 9.967942979776077e-10]
---
header: 
  seq: 8230
  stamp: 
    secs: 1518210285
    nsecs: 511763811
  frame_id: "swarmone/odom"
child_frame_id: "swarmone/base_link"
pose: 
  pose: 
    position: 
      x: 0.678766279265
      y: 8.25407351508
      z: 0.0
    orientation: 
      x: 0.0
      y: 0.0
      z: 0.688921679418
      w: 0.724835788043
  covariance: [183436726631.49252, -9473256885.60266, 0.0, 0.0, 0.0, 5.051526275373275e-35, -9473256885.60273, 490502423.39113766, 0.0, 0.0, 0.0, -2.5681915168528022e-36, 0.0, 0.0, 5.955847535046219e-07, 1.14744969069782e-40, 3.482642430351708e-33, 0.0, 0.0, 0.0, 1.1474496906978198e-40, 4.965490764458295e-07, 1.8066426198674077e-31, 0.0, 0.0, 0.0, 3.482642430351707e-33, -1.8066426198674077e-31, 4.965490764458295e-07, 0.0, 5.051526275373274e-35, -2.568191516852802e-36, 0.0, 0.0, 0.0, 9.73747802567357e-07]
twist: 
  twist: 
    linear: 
      x: -7.95577187551e-28
      y: 0.0
      z: 0.0
    angular: 
      x: 0.0
      y: 0.0
      z: 0.000122605578029
  covariance: [9.999996230465296e-10, 0.0, 0.0, 0.0, 0.0, 0.0, 0.0, 1857817.439539409, 0.0, 0.0, 0.0, 0.0, 0.0, 0.0, 5.345450887640129e-07, 6.399366658333376e-44, 3.25343951505639e-45, 0.0, 0.0, 0.0, 6.399366658333376e-44, 3.98269627974785e-07, 1.9551913411896135e-35, 0.0, 0.0, 0.0, 3.253439515056391e-45, -1.955191341189614e-35, 3.98269627974785e-07, 0.0, 0.0, 0.0, 0.0, 0.0, 0.0, 9.969348590145141e-10]
---
header: 
  seq: 8231
  stamp: 
    secs: 1518210285
    nsecs: 612215042
  frame_id: "swarmone/odom"
child_frame_id: "swarmone/base_link"
pose: 
  pose: 
    position: 
      x: 0.678766279265
      y: 8.25407351508
      z: 0.0
    orientation: 
      x: 0.0
      y: 0.0
      z: 0.688921713981
      w: 0.724835755193
  covariance: [183550149379.36395, -9479033461.057852, 0.0, 0.0, 0.0, 5.328893883824993e-35, -9479033461.057924, 490796621.16490763, 0.0, 0.0, 0.0, -2.7092024253815945e-36, 0.0, 0.0, 6.177015601828209e-07, 1.3040286143266073e-40, 3.450501158966499e-33, 0.0, 0.0, 0.0, 1.3040286143266067e-40, 5.140482034046233e-07, -3.0022058123526366e-31, 0.0, 0.0, 0.0, 3.4505011589664973e-33, 3.0022058123526366e-31, 5.140482034046233e-07, 0.0, 5.328893883824991e-35, -2.7092024253815945e-36, 0.0, 0.0, 0.0, 1.1167989500297356e-06]
twist: 
  twist: 
    linear: 
      x: -7.46621092203e-28
      y: 0.0
      z: 0.0
    angular: 
      x: 0.0
      y: 0.0
      z: 0.000106970986718
  covariance: [9.99999626300433e-10, 0.0, 0.0, 0.0, 0.0, 0.0, 0.0, 1858497.8268376929, 0.0, 0.0, 0.0, 0.0, 0.0, 0.0, 5.543282254448833e-07, 7.872635624636068e-44, 4.002449687179121e-45, 0.0, 0.0, 0.0, 7.872635624636066e-44, 4.0678089456841465e-07, -1.7929396377286643e-35, 0.0, 0.0, 0.0, 4.002449687179121e-45, 1.7929396377286643e-35, 4.0678089456841465e-07, 0.0, 0.0, 0.0, 0.0, 0.0, 0.0, 9.973257240047588e-10]
---
header: 
  seq: 8232
  stamp: 
    secs: 1518210285
    nsecs: 711736441
  frame_id: "swarmone/odom"
child_frame_id: "swarmone/base_link"
pose: 
  pose: 
    position: 
      x: 0.678766279265
      y: 8.25407351508
      z: 0.0
    orientation: 
      x: 0.0
      y: 0.0
      z: 0.68892166905
      w: 0.724835797898
  covariance: [183662577319.97986, -9484759353.939213, 0.0, 0.0, 0.0, 4.6008565256968345e-35, -9484759353.939285, 491088236.8165963, 0.0, 0.0, 0.0, -2.3390654396757943e-36, 0.0, 0.0, 5.884418999226539e-07, 9.495175403165726e-41, 3.0143905829691102e-33, 0.0, 0.0, 0.0, 9.495175403165726e-41, 4.910509269907931e-07, -2.3327255356793905e-31, 0.0, 0.0, 0.0, 3.0143905829691102e-33, 2.3327255356793905e-31, 4.910509269907931e-07, 0.0, 4.600856525696834e-35, -2.3390654396757937e-36, 0.0, 0.0, 0.0, 9.308324583288702e-07]
twist: 
  twist: 
    linear: 
      x: -7.01075943672e-28
      y: 0.0
      z: 0.0
    angular: 
      x: 0.0
      y: 0.0
      z: 0.000128228016636
  covariance: [9.999996225944268e-10, 0.0, 0.0, 0.0, 0.0, 0.0, 0.0, 1859172.079892401, 0.0, 0.0, 0.0, 0.0, 0.0, 0.0, 5.282630601902455e-07, 5.152684037562825e-44, 2.619625970301367e-45, 0.0, 0.0, 0.0, 5.152684037562823e-44, 3.956685377929861e-07, -3.223795188469657e-37, 0.0, 0.0, 0.0, 2.6196259703013658e-45, 3.2237951884697106e-37, 3.956685377929861e-07, 0.0, 0.0, 0.0, 0.0, 0.0, 0.0, 9.967942979775957e-10]
---
header: 
  seq: 8233
  stamp: 
    secs: 1518210285
    nsecs: 812508345
  frame_id: "swarmone/odom"
child_frame_id: "swarmone/base_link"
pose: 
  pose: 
    position: 
      x: 0.678766279265
      y: 8.25407351508
      z: 0.0
    orientation: 
      x: 0.0
      y: 0.0
      z: 0.685288890788
      w: 0.728271334163
  covariance: [183776473827.36588, -9490560121.437538, 0.0, 0.0, 0.0, 4.057714793038882e-35, -9490560121.437609, 491383669.94002295, 0.0, 0.0, 0.0, -2.3327629385163568e-36, 0.0, 0.0, 5.860046379848714e-07, 1.057384157450281e-40, 2.849068740007501e-33, 0.0, 0.0, 0.0, 1.057384157450281e-40, 4.891917053272738e-07, -5.824457660369174e-32, 0.0, 0.0, 0.0, 2.849068740007501e-33, 5.824457660369174e-32, 4.891917053272738e-07, 0.0, 4.057714793038881e-35, -2.332762938516357e-36, 0.0, 0.0, 0.0, 9.165273435848425e-07]
twist: 
  twist: 
    linear: 
      x: -6.57805723527e-28
      y: 0.0
      z: 0.0
    angular: 
      x: 0.0
      y: 0.0
      z: 0.000130218535184
  covariance: [9.999996275628185e-10, 0.0, 0.0, 0.0, 0.0, 0.0, 0.0, 1859854.9712100464, 0.0, 0.0, 0.0, 0.0, 0.0, 0.0, 5.261313780172503e-07, 4.746577886361575e-44, 2.889194855273182e-45, 0.0, 0.0, 0.0, 4.746577886361574e-44, 3.947976766063237e-07, -1.2451911767082807e-34, 0.0, 0.0, 0.0, 2.889194855273183e-45, 1.2451911767082807e-34, 3.947976766063237e-07, 0.0, 0.0, 0.0, 0.0, 0.0, 0.0, 9.967445350100644e-10]
---
header: 
  seq: 8234
  stamp: 
    secs: 1518210285
    nsecs: 912262201
  frame_id: "swarmone/odom"
child_frame_id: "swarmone/base_link"
pose: 
  pose: 
    position: 
      x: 0.678766279265
      y: 8.25407351508
      z: 0.0
    orientation: 
      x: 0.0
      y: 0.0
      z: 0.69253722367
      w: 0.721382141331
  covariance: [183889212145.1677, -9496867173.755423, 0.0, 0.0, 0.0, 3.8292667064964233e-35, -9496867173.755493, 491733780.04315996, 0.0, 0.0, 0.0, -1.8137627994039657e-36, 0.0, 0.0, 5.908507358829074e-07, 6.882292966402479e-41, 2.6773903584992274e-33, 0.0, 0.0, 0.0, 6.882292966402479e-41, 4.928969803894516e-07, -5.302751185002588e-31, 0.0, 0.0, 0.0, 2.6773903584992274e-33, 5.302751185002588e-31, 4.928969803894516e-07, 0.0, 3.829266706496423e-35, -1.813762799403966e-36, 0.0, 0.0, 0.0, 9.451375730753557e-07]
twist: 
  twist: 
    linear: 
      x: -6.17590004388e-28
      y: 0.0
      z: 0.0
    angular: 
      x: 0.0
      y: 0.0
      z: 0.000126297436927
  covariance: [9.999996235278734e-10, 0.0, 0.0, 0.0, 0.0, 0.0, 0.0, 1860531.1283001641, 0.0, 0.0, 0.0, 0.0, 0.0, 0.0, 5.303758535671149e-07, 4.692011875338083e-44, 1.9153712594187903e-45, 0.0, 0.0, 0.0, 4.692011875338083e-44, 3.965382405669391e-07, -8.63909265115083e-35, 0.0, 0.0, 0.0, 1.9153712594187897e-45, 8.63909265115083e-35, 3.965382405669391e-07, 0.0, 0.0, 0.0, 0.0, 0.0, 0.0, 9.968425624991216e-10]
---
header: 
  seq: 8235
  stamp: 
    secs: 1518210286
    nsecs:  12481689
  frame_id: "swarmone/odom"
child_frame_id: "swarmone/base_link"
pose: 
  pose: 
    position: 
      x: 0.678766279265
      y: 8.25407351508
      z: 0.0
    orientation: 
      x: 0.0
      y: 0.0
      z: 0.677972123072
      w: 0.735087614055
  covariance: [184002647434.82254, -9502076444.57056, 0.0, 0.0, 0.0, 3.827885167754444e-35, -9502076444.570633, 491970056.7449873, 0.0, 0.0, 0.0, -2.6107337308110058e-36, 0.0, 0.0, 6.024839303969517e-07, 1.7714723601850772e-40, 2.592478548616586e-33, 0.0, 0.0, 0.0, 1.7714723601850768e-40, 5.019298424971453e-07, -6.0094314569375566e-31, 0.0, 0.0, 0.0, 2.592478548616586e-33, 6.0094314569375566e-31, 5.019298424971453e-07, 0.0, 3.8278851677544433e-35, -2.610733730811006e-36, 0.0, 0.0, 0.0, 1.0166631468066382e-06]
twist: 
  twist: 
    linear: 
      x: -5.79667868638e-28
      y: 0.0
      z: 0.0
    angular: 
      x: 0.0
      y: 0.0
      z: 0.000146819356267
