header: 
  seq: 10109
  stamp: 
    secs: 1518208910
    nsecs:  34875870
  frame_id: "swarmone/map"
child_frame_id: "swarmone/base_link"
pose: 
  pose: 
    position: 
      x: 0.60258314057
      y: 7.1474169991
      z: 0.0
    orientation: 
      x: 0.0
      y: 0.0
      z: 0.696135219929
      w: 0.717910687742
  covariance: [5226834433647.487, -286500386023.7676, 0.0, 0.0, 0.0, 1.350046498641455e-23, -286500386023.768, 15717857422.410639, 0.0, 0.0, 0.0, -8.217824191288734e-25, 0.0, 0.0, 4.999749597302141e-07, 3.4027116957497704e-29, 1.4081163045474673e-25, 0.0, 0.0, 0.0, 3.4027116957497693e-29, 4.999749597371893e-07, 6.483522274129714e-35, 0.0, 0.0, 0.0, 1.4081163045474664e-25, -6.483522312404171e-35, 4.999749597371893e-07, 0.0, 1.3500464986414552e-23, -8.217824191288735e-25, 0.0, 0.0, 0.0, 9.999979969380159e-10]
twist: 
  twist: 
    linear: 
      x: -8.48392752108e-10
      y: 0.0
      z: 0.0
    angular: 
      x: 0.0
      y: 0.0
      z: 0.0499999989993
  covariance: [0.011030348553455766, 0.0, 0.0, 0.0, 0.0, 0.0, 0.0, 34440183.04114422, 0.0, 0.0, 0.0, 0.0, 0.0, 0.0, 4.999974957111522e-07, 4.834577139291245e-36, 2.9406218746797156e-37, 0.0, 0.0, 0.0, 4.834577139291245e-36, 4.999749597065877e-07, 9.427772646155285e-39, 0.0, 0.0, 0.0, 2.9406218746797165e-37, -9.427828551352024e-39, 4.999749597065877e-07, 0.0, 0.0, 0.0, 0.0, 0.0, 0.0, 9.999998998432762e-10]
---
header: 
  seq: 10110
  stamp: 
    secs: 1518208910
    nsecs: 134292364
  frame_id: "swarmone/map"
child_frame_id: "swarmone/base_link"
pose: 
  pose: 
    position: 
      x: 0.602583140565
      y: 7.14741699896
      z: 0.0
    orientation: 
      x: 0.0
      y: 0.0
      z: 0.685288694274
      w: 0.728271519078
  covariance: [5229416623578.246, -286610720483.7656, 0.0, 0.0, 0.0, 1.9143814814739782e-23, -286610720483.76605, 15722204786.394583, 0.0, 0.0, 0.0, -5.897328251750555e-25, 0.0, 0.0, 4.999748523895118e-07, 3.192496162475657e-29, 2.096527276595863e-25, 0.0, 0.0, 0.0, 3.192496162475657e-29, 4.9997485239957e-07, -6.539123662654682e-35, 0.0, 0.0, 0.0, 2.0965272765958614e-25, 6.539123609417047e-35, 4.9997485239957e-07, 0.0, 1.914381481473978e-23, -5.897328251750557e-25, 0.0, 0.0, 0.0, 9.999979883305311e-10]
twist: 
  twist: 
    linear: 
      x: -1.27978142277e-09
      y: 0.0
      z: 0.0
    angular: 
      x: 0.0
      y: 0.0
      z: 0.0400000010048
  covariance: [0.01097880279816464, 0.0, 0.0, 0.0, 0.0, 0.0, 0.0, 34450344.55777347, 0.0, 0.0, 0.0, 0.0, 0.0, 0.0, 4.999974849773301e-07, 6.46715103610268e-36, 1.9905527972464626e-37, 0.0, 0.0, 0.0, 6.467151036102683e-36, 4.999748523659669e-07, 8.244029897254942e-40, 0.0, 0.0, 0.0, 1.9905527972464643e-37, -8.244307894350215e-40, 4.999748523659669e-07, 0.0, 0.0, 0.0, 0.0, 0.0, 0.0, 9.999998994130893e-10]
---
header: 
  seq: 10111
  stamp: 
    secs: 1518208910
    nsecs: 234771013
  frame_id: "swarmone/map"
child_frame_id: "swarmone/base_link"
pose: 
  pose: 
    position: 
      x: 0.602583140596
      y: 7.14741699952
      z: 0.0
    orientation: 
      x: 0.0
      y: 0.0
      z: 0.688921440796
      w: 0.724836014841
  covariance: [5232023848963.817, -286761315085.2466, 0.0, 0.0, 0.0, -5.361844196864693e-23, -286761315085.247, 15730877983.746798, 0.0, 0.0, 0.0, 3.2637900418048168e-24, 0.0, 0.0, 4.999751181279755e-07, -1.38167517676282e-28, -5.681643410379592e-25, 0.0, 0.0, 0.0, -1.3816751767628196e-28, 4.999751181346802e-07, 6.401073123892176e-35, 0.0, 0.0, 0.0, -5.681643410379592e-25, -6.401073727115752e-35, 4.999751181346802e-07, 0.0, -5.361844196864693e-23, 3.263790041804816e-24, 0.0, 0.0, 0.0, 9.999980095982546e-10]
twist: 
  twist: 
    linear: 
      x: 3.54465234701e-09
      y: 0.0
      z: 0.0
    angular: 
      x: 0.0
      y: 0.0
      z: 0.0400000000002
  covariance: [0.011107221738913903, 0.0, 0.0, 0.0, 0.0, 0.0, 0.0, 34460616.669624195, 0.0, 0.0, 0.0, 0.0, 0.0, 0.0, 4.999975115553985e-07, -1.7937168535066813e-35, -1.0909333934917465e-36, 0.0, 0.0, 0.0, -1.7937168535066813e-35, 4.99975118104388e-07, 6.290261894543152e-39, 0.0, 0.0, 0.0, -1.0909333934917459e-36, -6.290699455276795e-39, 4.99975118104388e-07, 0.0, 0.0, 0.0, 0.0, 0.0, 0.0, 9.999999004763882e-10]
---
header: 
  seq: 10112
  stamp: 
    secs: 1518208910
    nsecs: 335240126
  frame_id: "swarmone/map"
child_frame_id: "swarmone/base_link"
pose: 
  pose: 
    position: 
      x: 0.602583140575
      y: 7.14741699909
      z: 0.0
    orientation: 
      x: 0.0
      y: 0.0
      z: 0.692536994269
      w: 0.721382361559
  covariance: [5234633322769.795, -286898951841.02734, 0.0, 0.0, 0.0, 2.6216196566502562e-23, -286898951841.0278, 15738128162.144844, 0.0, 0.0, 0.0, -1.3328159893575777e-24, 0.0, 0.0, 4.999751158187721e-07, 5.70628249804816e-29, 2.80819168300823e-25, 0.0, 0.0, 0.0, 5.706282498048162e-29, 4.99975115825392e-07, 1.105324260777379e-38, 0.0, 0.0, 0.0, 2.8081916830082295e-25, -1.1054461053132708e-38, 4.99975115825392e-07, 0.0, 2.6216196566502562e-23, -1.3328159893575777e-24, 0.0, 0.0, 0.0, 9.999980094083635e-10]
twist: 
  twist: 
    linear: 
      x: -1.74522074628e-09
      y: 0.0
      z: 0.0
    angular: 
      x: 0.0
      y: 0.0
      z: 0.0499999990049
  covariance: [0.011106152360345558, 0.0, 0.0, 0.0, 0.0, 0.0, 0.0, 34470889.8479254, 0.0, 0.0, 0.0, 0.0, 0.0, 0.0, 4.999975113250424e-07, 8.780557486528501e-36, 4.460500412976357e-37, 0.0, 0.0, 0.0, 8.780557486528502e-36, 4.999751157952051e-07, 2.7863657475120103e-39, 0.0, 0.0, 0.0, 4.4605004129763556e-37, -2.7864029059369052e-39, 4.999751157952051e-07, 0.0, 0.0, 0.0, 0.0, 0.0, 0.0, 9.999999004669414e-10]
---
header: 
  seq: 10113
  stamp: 
    secs: 1518208910
    nsecs: 434677362
  frame_id: "swarmone/map"
child_frame_id: "swarmone/base_link"
pose: 
  pose: 
    position: 
      x: 0.602583140569
      y: 7.14741699893
      z: 0.0
    orientation: 
      x: 0.0
      y: 0.0
      z: 0.685288686946
      w: 0.728271525974
  covariance: [5237218204152.056, -287022336546.0509, 0.0, 0.0, 0.0, 2.5702845803303494e-23, -287022336546.05133, 15743894109.5095, 0.0, 0.0, 0.0, -1.0491450093119065e-24, 0.0, 0.0, 4.99974857635448e-07, 5.679529954826871e-29, 2.815264744305588e-25, 0.0, 0.0, 0.0, 5.67952995482687e-29, 4.999748576454965e-07, 1.3072284595882174e-34, 0.0, 0.0, 0.0, 2.8152647443055866e-25, -1.3072284719607535e-34, 4.999748576454965e-07, 0.0, 2.5702845803303494e-23, -1.0491450093119068e-24, 0.0, 0.0, 0.0, 9.999979887501723e-10]
twist: 
  twist: 
    linear: 
      x: -1.72933388392e-09
      y: 0.0
      z: 0.0
    angular: 
      x: 0.0
      y: 0.0
      z: 0.0400000010049
  covariance: [0.010981357035886617, 0.0, 0.0, 0.0, 0.0, 0.0, 0.0, 34481059.5249432, 0.0, 0.0, 0.0, 0.0, 0.0, 0.0, 4.999974855020319e-07, 8.676067992480381e-36, 3.537988234731543e-37, 0.0, 0.0, 0.0, 8.67606799248038e-36, 4.99974857611903e-07, -1.1727500549260468e-38, 0.0, 0.0, 0.0, 3.5379882347315425e-37, 1.172747311519262e-38, 4.99974857611903e-07, 0.0, 0.0, 0.0, 0.0, 0.0, 0.0, 9.999998994340716e-10]
---
header: 
  seq: 10114
  stamp: 
    secs: 1518208910
    nsecs: 535221100
  frame_id: "swarmone/map"
child_frame_id: "swarmone/base_link"
pose: 
  pose: 
    position: 
      x: 0.602583140576
      y: 7.14741699908
      z: 0.0
    orientation: 
      x: 0.0
      y: 0.0
      z: 0.692536987101
      w: 0.721382368441
  covariance: [5239830228647.094, -287173200643.9626, 0.0, 0.0, 0.0, -3.661524380581143e-23, -287173200643.9631, 15752582378.315243, 0.0, 0.0, 0.0, 2.228694160531791e-24, 0.0, 0.0, 4.999751178000905e-07, -2.3710669923731628e-29, -9.750944138067352e-26, 0.0, 0.0, 0.0, -2.3710669923731625e-29, 4.999751178157123e-07, -1.2804707496278625e-34, 0.0, 0.0, 0.0, -9.75094413806735e-26, 1.2804707477692632e-34, 4.999751178157123e-07, 0.0, -3.6615243805811435e-23, 2.2286941605317915e-24, 0.0, 0.0, 0.0, 9.99998011160583e-10]
twist: 
  twist: 
    linear: 
      x: 4.70104268217e-10
      y: 0.0
      z: 0.0
    angular: 
      x: 0.0
      y: 0.0
      z: 0.0300000009973
  covariance: [0.011106822843425068, 0.0, 0.0, 0.0, 0.0, 0.0, 0.0, 34491344.39984825, 0.0, 0.0, 0.0, 0.0, 0.0, 0.0, 4.99997511468018e-07, -1.9947738700988666e-35, -1.2141835232294273e-36, 0.0, 0.0, 0.0, -1.994773870098866e-35, 4.999751177753298e-07, 1.0849492532254629e-39, 0.0, 0.0, 0.0, -1.214183523229427e-36, -1.0849492532392527e-39, 4.999751177753298e-07, 0.0, 0.0, 0.0, 0.0, 0.0, 0.0, 9.999999005408026e-10]
---
header: 
  seq: 10115
  stamp: 
    secs: 1518208910
    nsecs: 634648323
  frame_id: "swarmone/map"
child_frame_id: "swarmone/base_link"
pose: 
  pose: 
    position: 
      x: 0.602583140565
      y: 7.14741699882
      z: 0.0
    orientation: 
      x: 0.0
      y: 0.0
      z: 0.681638784295
      w: 0.731688846263
  covariance: [5242416899728.609, -287296668396.37897, 0.0, 0.0, 0.0, 2.9611227498358495e-23, -287296668396.37946, 15758352132.58943, 0.0, 0.0, 0.0, -1.2086837178660513e-24, 0.0, 0.0, 4.999748545614463e-07, 3.524019191969679e-29, 2.9059337169576475e-25, 0.0, 0.0, 0.0, 3.524019191969681e-29, 4.999748545655227e-07, -4.1406671331174474e-39, 0.0, 0.0, 0.0, 2.905933716957648e-25, 4.139887337587339e-39, 4.999748545655227e-07, 0.0, 2.961122749835848e-23, -1.2086837178660508e-24, 0.0, 0.0, 0.0, 9.99997988557135e-10]
twist: 
  twist: 
    linear: 
      x: -1.72340615526e-09
      y: 0.0
      z: 0.0
    angular: 
      x: 0.0
      y: 0.0
      z: 0.0399999989931
  covariance: [0.010979840347643472, 0.0, 0.0, 0.0, 0.0, 0.0, 0.0, 34501517.074687675, 0.0, 0.0, 0.0, 0.0, 0.0, 0.0, 4.999974851886375e-07, 1.1513631972962963e-35, 4.703227891878375e-37, 0.0, 0.0, 0.0, 1.151363197296296e-35, 4.999748545377142e-07, 2.520749775400117e-39, 0.0, 0.0, 0.0, 4.703227891878378e-37, -2.520941330420521e-39, 4.999748545377142e-07, 0.0, 0.0, 0.0, 0.0, 0.0, 0.0, 9.999998994239434e-10]
---
header: 
  seq: 10116
  stamp: 
    secs: 1518208910
    nsecs: 735118866
  frame_id: "swarmone/map"
child_frame_id: "swarmone/base_link"
pose: 
  pose: 
    position: 
      x: 0.602583140561
      y: 7.14741699878
      z: 0.0
    orientation: 
      x: 0.0
      y: 0.0
      z: 0.685288664322
      w: 0.728271547262
  covariance: [5245027371026.242, -287460554475.75885, 0.0, 0.0, 0.0, 1.342752098791193e-23, -287460554475.75934, 15768468236.143703, 0.0, 0.0, 0.0, -9.521991395148217e-25, 0.0, 0.0, 4.999751160146035e-07, 3.942817885586742e-29, 1.3927457695471655e-25, 0.0, 0.0, 0.0, 3.942817885586742e-29, 4.999751160214844e-07, 6.401562252576875e-35, 0.0, 0.0, 0.0, 1.3927457695471652e-25, -6.401562296717922e-35, 4.999751160214844e-07, 0.0, 1.3427520987911932e-23, -9.521991395148215e-25, 0.0, 0.0, 0.0, 9.999980094395645e-10]
twist: 
  twist: 
    linear: 
      x: -8.39039449001e-10
      y: 0.0
      z: 0.0
    angular: 
      x: 0.0
      y: 0.0
      z: 0.0300000009955
  covariance: [0.011106206914927426, 0.0, 0.0, 0.0, 0.0, 0.0, 0.0, 34511798.52603369, 0.0, 0.0, 0.0, 0.0, 0.0, 0.0, 4.999975113428227e-07, 4.737517993520701e-36, 3.3568966200489437e-37, 0.0, 0.0, 0.0, 4.7375179935207015e-36, 4.999751159909766e-07, 7.393133620466798e-39, 0.0, 0.0, 0.0, 3.356896620048944e-37, -7.39313362031533e-39, 4.999751159909766e-07, 0.0, 0.0, 0.0, 0.0, 0.0, 0.0, 9.999999004683586e-10]
---
header: 
  seq: 10117
  stamp: 
    secs: 1518208910
    nsecs: 834653854
  frame_id: "swarmone/map"
child_frame_id: "swarmone/base_link"
pose: 
  pose: 
    position: 
      x: 0.602583140514
      y: 7.14741699796
      z: 0.0
    orientation: 
      x: 0.0
      y: 0.0
      z: 0.685288670842
      w: 0.728271541127
  covariance: [5247616264319.511, -287610089241.3881, 0.0, 0.0, 0.0, 9.012932121023304e-23, -287610089241.3886, 15777080328.324297, 0.0, 0.0, 0.0, -5.486252735858879e-24, 0.0, 0.0, 4.999748823282435e-07, 1.7819721699812114e-28, 9.852722086097037e-25, 0.0, 0.0, 0.0, 1.7819721699812107e-28, 4.999748823315181e-07, 2.6092568843833216e-34, 0.0, 0.0, 0.0, 9.852722086097037e-25, -2.6092570251092365e-34, 4.999748823315181e-07, 0.0, 9.012932121023304e-23, -5.4862527358588796e-24, 0.0, 0.0, 0.0, 9.999979907254386e-10]
twist: 
  twist: 
    linear: 
      x: -6.08588310369e-09
      y: 0.0
      z: 0.0
    angular: 
      x: 0.0
      y: 0.0
      z: 0.0299999999999
  covariance: [0.010993150913587057, 0.0, 0.0, 0.0, 0.0, 0.0, 0.0, 34521986.253228426, 0.0, 0.0, 0.0, 0.0, 0.0, 0.0, 4.999974879718206e-07, 3.028633800585469e-35, 1.8424863140786078e-36, 0.0, 0.0, 0.0, 3.028633800585467e-35, 4.999748823046982e-07, 2.877193970893296e-39, 0.0, 0.0, 0.0, 1.842486314078607e-36, -2.878318461676742e-39, 4.999748823046982e-07, 0.0, 0.0, 0.0, 0.0, 0.0, 0.0, 9.999998995328355e-10]
---
header: 
  seq: 10118
  stamp: 
    secs: 1518208910
    nsecs: 934872389
  frame_id: "swarmone/map"
child_frame_id: "swarmone/base_link"
pose: 
  pose: 
    position: 
      x: 0.602583140522
      y: 7.14741699815
      z: 0.0
    orientation: 
      x: 0.0
      y: 0.0
      z: 0.685288670843
      w: 0.728271541127
  covariance: [5250223968616.606, -287760709691.2785, 0.0, 0.0, 0.0, 7.073881512071801e-23, -287760709691.27893, 15785754930.115593, 0.0, 0.0, 0.0, -4.305776811029737e-24, 0.0, 0.0, 4.999750358838024e-07, 3.277182637206228e-29, 1.8010526972563952e-25, 0.0, 0.0, 0.0, 3.2771826372062274e-29, 4.999750358951464e-07, -1.932906967345647e-34, 0.0, 0.0, 0.0, 1.8010526972563945e-25, 1.9329069626163664e-34, 4.999750358951464e-07, 0.0, 7.073881512071799e-23, -4.3057768110297384e-24, 0.0, 0.0, 0.0, 9.999980047238724e-10]
twist: 
  twist: 
    linear: 
      x: -7.89407526385e-10
      y: 0.0
      z: 0.0
    angular: 
      x: 0.0
      y: 0.0
      z: 0.0399999990016
  covariance: [0.011066884269477571, 0.0, 0.0, 0.0, 0.0, 0.0, 0.0, 34532245.968986094, 0.0, 0.0, 0.0, 0.0, 0.0, 0.0, 4.999975032732673e-07, 4.1345932908228123e-35, 2.516476890149242e-36, 0.0, 0.0, 0.0, 4.1345932908228123e-35, 4.999750358590273e-07, 3.195046252763817e-39, 0.0, 0.0, 0.0, 2.516476890149243e-36, -3.196143719486873e-39, 4.999750358590273e-07, 0.0, 0.0, 0.0, 0.0, 0.0, 0.0, 9.999999002180622e-10]
---
header: 
  seq: 10119
  stamp: 
    secs: 1518208911
    nsecs:  35348892
  frame_id: "swarmone/map"
child_frame_id: "swarmone/base_link"
pose: 
  pose: 
    position: 
      x: 0.602583140496
      y: 7.14741699769
      z: 0.0
    orientation: 
      x: 0.0
      y: 0.0
      z: 0.68528867157
      w: 0.728271540442
  covariance: [5252839424523.204, -287911782644.2906, 0.0, 0.0, 0.0, 5.1795446081579865e-23, -287911782644.2909, 15794455865.37641, 0.0, 0.0, 0.0, -3.1528258100943077e-24, 0.0, 0.0, 4.999751176493043e-07, 1.3498650926123332e-28, 5.550934356153892e-25, 0.0, 0.0, 0.0, 1.349865092612333e-28, 4.999751176559157e-07, -6.40099661078511e-35, 0.0, 0.0, 0.0, 5.55093435615389e-25, 6.400996036286197e-35, 4.999751176559157e-07, 0.0, 5.1795446081579865e-23, -3.152825810094307e-24, 0.0, 0.0, 0.0, 9.999980095547937e-10]
twist: 
  twist: 
    linear: 
      x: -3.41486781285e-09
      y: 0.0
      z: 0.0
    angular: 
      x: 0.0
      y: 0.0
      z: 0.0399999999999
  covariance: [0.01110703309342501, 0.0, 0.0, 0.0, 0.0, 0.0, 0.0, 34542534.13431037, 0.0, 0.0, 0.0, 0.0, 0.0, 0.0, 4.99997511508133e-07, 1.7527339079052417e-35, 1.066051217081145e-36, 0.0, 0.0, 0.0, 1.7527339079052412e-35, 4.999751176257373e-07, -4.557741684561156e-39, 0.0, 0.0, 0.0, 1.0660512170811457e-36, 4.5573609063289515e-39, 4.999751176257373e-07, 0.0, 0.0, 0.0, 0.0, 0.0, 0.0, 9.999999004742628e-10]
---
header: 
  seq: 10120
  stamp: 
    secs: 1518208911
    nsecs: 134832859
  frame_id: "swarmone/map"
child_frame_id: "swarmone/base_link"
pose: 
  pose: 
    position: 
      x: 0.602583140495
      y: 7.14741699768
      z: 0.0
    orientation: 
      x: 0.0
      y: 0.0
      z: 0.688921440724
      w: 0.72483601491
  covariance: [5255430070000.273, -288061424488.79675, 0.0, 0.0, 0.0, 2.0561647657966825e-23, -288061424488.79706, 15803074505.091099, 0.0, 0.0, 0.0, -1.2516009619763582e-24, 0.0, 0.0, 4.999748690680317e-07, 5.0186448466017093e-29, 2.084316957921085e-25, 0.0, 0.0, 0.0, 5.0186448466017104e-29, 4.999748690753246e-07, -6.529527443508173e-35, 0.0, 0.0, 0.0, 2.0843169579210845e-25, 6.529527367212884e-35, 4.999748690753246e-07, 0.0, 2.0561647657966827e-23, -1.2516009619763586e-24, 0.0, 0.0, 0.0, 9.99997989701599e-10]
twist: 
  twist: 
    linear: 
      x: -1.20563669262e-09
      y: 0.0
      z: 0.0
    angular: 
      x: 0.0
      y: 0.0
      z: 0.0300000010054
  covariance: [0.01098679425988838, 0.0, 0.0, 0.0, 0.0, 0.0, 0.0, 34552722.68315462, 0.0, 0.0, 0.0, 0.0, 0.0, 0.0, 4.999974866412883e-07, 7.906432433174332e-36, 4.809462305847316e-37, 0.0, 0.0, 0.0, 7.906432433174334e-36, 4.999748690443503e-07, -2.7210018734387302e-40, 0.0, 0.0, 0.0, 4.8094623058473175e-37, 2.720046249294704e-40, 4.999748690443503e-07, 0.0, 0.0, 0.0, 0.0, 0.0, 0.0, 9.999998994813096e-10]
---
header: 
  seq: 10121
  stamp: 
    secs: 1518208911
    nsecs: 235266924
  frame_id: "swarmone/map"
child_frame_id: "swarmone/base_link"
pose: 
  pose: 
    position: 
      x: 0.602583140482
      y: 7.14741699744
      z: 0.0
    orientation: 
      x: 0.0
      y: 0.0
      z: 0.688921447285
      w: 0.724836008674
  covariance: [5258047954462.849, -288199510005.38635, 0.0, 0.0, 0.0, 3.149349945160549e-23, -288199510005.3867, 15810348576.018814, 0.0, 0.0, 0.0, -1.6011177815041161e-24, 0.0, 0.0, 4.999751071875085e-07, 5.200562028813936e-29, 3.410177486453763e-25, 0.0, 0.0, 0.0, 5.200562028813938e-29, 4.999751071906978e-07, -9.61040340591462e-35, 0.0, 0.0, 0.0, 3.4101774864537623e-25, 9.61040327037007e-35, 4.999751071906978e-07, 0.0, 3.149349945160549e-23, -1.6011177815041163e-24, 0.0, 0.0, 0.0, 9.999980087127536e-10]
twist: 
  twist: 
    linear: 
      x: -2.0809167775e-09
      y: 0.0
      z: 0.0
    angular: 
      x: 0.0
      y: 0.0
      z: 0.0399999990042
  covariance: [0.0111019155201028, 0.0, 0.0, 0.0, 0.0, 0.0, 0.0, 34563010.567366965, 0.0, 0.0, 0.0, 0.0, 0.0, 0.0, 4.999975104623605e-07, 1.0520018720902351e-35, 5.345277521642111e-37, 0.0, 0.0, 0.0, 1.0520018720902354e-35, 4.999751071639626e-07, -1.0265035846383923e-38, 0.0, 0.0, 0.0, 5.3452775216421145e-37, 1.0264901302665907e-38, 4.999751071639626e-07, 0.0, 0.0, 0.0, 0.0, 0.0, 0.0, 9.999999004322081e-10]
---
header: 
  seq: 10122
  stamp: 
    secs: 1518208911
    nsecs: 334752083
  frame_id: "swarmone/map"
child_frame_id: "swarmone/base_link"
pose: 
  pose: 
    position: 
      x: 0.602583140482
      y: 7.14741699743
      z: 0.0
    orientation: 
      x: 0.0
      y: 0.0
      z: 0.681638777659
      w: 0.731688852445
  covariance: [5260642132220.919, -288336343452.7505, 0.0, 0.0, 0.0, 1.2219054939409513e-23, -288336343452.7509, 15817556609.647507, 0.0, 0.0, 0.0, -6.212098345823253e-25, 0.0, 0.0, 4.99974869693324e-07, 2.659734381852603e-29, 1.3218124358672646e-25, 0.0, 0.0, 0.0, 2.659734381852605e-29, 4.999748697000768e-07, -8.480936017358695e-39, 0.0, 0.0, 0.0, 1.3218124358672646e-25, 8.480656186979665e-39, 4.999748697000768e-07, 0.0, 1.2219054939409512e-23, -6.212098345823252e-25, 0.0, 0.0, 0.0, 9.99997989719972e-10]
twist: 
  twist: 
    linear: 
      x: -7.59257835058e-10
      y: 0.0
      z: 0.0
    angular: 
      x: 0.0
      y: 0.0
      z: 0.0399999999993
  covariance: [0.01098710233330141, 0.0, 0.0, 0.0, 0.0, 0.0, 0.0, 34573203.26420636, 0.0, 0.0, 0.0, 0.0, 0.0, 0.0, 4.99997486707435e-07, 4.418381226593654e-36, 2.244610836309926e-37, 0.0, 0.0, 0.0, 4.418381226593655e-36, 4.999748696697581e-07, -1.3996323806524355e-39, 0.0, 0.0, 0.0, 2.2446108363099268e-37, 1.3996320341631557e-39, 4.999748696697581e-07, 0.0, 0.0, 0.0, 0.0, 0.0, 0.0, 9.999998994825144e-10]
---
header: 
  seq: 10123
  stamp: 
    secs: 1518208911
    nsecs: 435211420
  frame_id: "swarmone/map"
child_frame_id: "swarmone/base_link"
pose: 
  pose: 
    position: 
      x: 0.60258314048
      y: 7.14741699741
      z: 0.0
    orientation: 
      x: 0.0
      y: 0.0
      z: 0.68892143358
      w: 0.7248360217
  covariance: [5263259561396.018, -288500677490.36884, 0.0, 0.0, 0.0, 5.9502812593599594e-24, -288500677490.36926, 15827701255.693405, 0.0, 0.0, 0.0, -4.219586143226636e-25, 0.0, 0.0, 4.999751132388105e-07, 1.747223928822586e-29, 6.172510419623233e-26, 0.0, 0.0, 0.0, 1.7472239288225862e-29, 4.999751132456928e-07, -4.915165771445579e-39, 0.0, 0.0, 0.0, 6.172510419623235e-26, 4.915079090027235e-39, 4.999751132456928e-07, 0.0, 5.9502812593599594e-24, -4.219586143226636e-25, 0.0, 0.0, 0.0, 9.999980092175222e-10]
twist: 
  twist: 
    linear: 
      x: -3.25900703993e-10
      y: 0.0
      z: 0.0
    angular: 
      x: 0.0
      y: 0.0
      z: 0.0400000000005
  covariance: [0.011104853481364875, 0.0, 0.0, 0.0, 0.0, 0.0, 0.0, 34583497.80317522, 0.0, 0.0, 0.0, 0.0, 0.0, 0.0, 4.999975110651862e-07, 2.329711711482605e-36, 1.6509625314458968e-37, 0.0, 0.0, 0.0, 2.3297117114826062e-36, 4.999751132151837e-07, 2.3383283154611615e-39, 0.0, 0.0, 0.0, 1.6509625314458976e-37, -2.3383283154708715e-39, 4.999751132151837e-07, 0.0, 0.0, 0.0, 0.0, 0.0, 0.0, 9.999999004572562e-10]
---
header: 
  seq: 10124
  stamp: 
    secs: 1518208911
    nsecs: 534627199
  frame_id: "swarmone/map"
child_frame_id: "swarmone/base_link"
pose: 
  pose: 
    position: 
      x: 0.602583140449
      y: 7.14741699681
      z: 0.0
    orientation: 
      x: 0.0
      y: 0.0
      z: 0.692536994193
      w: 0.721382361632
  covariance: [5265853982903.261, -288637527862.3984, 0.0, 0.0, 0.0, 7.568142762367326e-23, -288637527862.3988, 15834910379.531284, 0.0, 0.0, 0.0, -3.847596078410346e-24, 0.0, 0.0, 4.999748515572605e-07, 1.4660699269376664e-28, 7.291217491361334e-25, 0.0, 0.0, 0.0, 1.4660699269376675e-28, 4.999748515649966e-07, 2.6157598162452896e-34, 0.0, 0.0, 0.0, 7.291217491361333e-25, -2.6157599006763638e-34, 4.999748515649966e-07, 0.0, 7.568142762367326e-23, -3.847596078410347e-24, 0.0, 0.0, 0.0, 9.99997988327489e-10]
twist: 
  twist: 
    linear: 
      x: -4.27380688527e-09
      y: 0.0
      z: 0.0
    angular: 
      x: 0.0
      y: 0.0
      z: 0.0400000000002
  covariance: [0.010978392942347558, 0.0, 0.0, 0.0, 0.0, 0.0, 0.0, 34593687.415462606, 0.0, 0.0, 0.0, 0.0, 0.0, 0.0, 4.999974848870694e-07, 3.0183140042050996e-35, 1.533485423000521e-36, 0.0, 0.0, 0.0, 3.0183140042051e-35, 4.999748515334964e-07, 2.6691606338651527e-39, 0.0, 0.0, 0.0, 1.533485423000521e-36, -2.670045109477322e-39, 4.999748515334964e-07, 0.0, 0.0, 0.0, 0.0, 0.0, 0.0, 9.999998994123653e-10]
---
header: 
  seq: 10125
  stamp: 
    secs: 1518208911
    nsecs: 635093689
  frame_id: "swarmone/map"
child_frame_id: "swarmone/base_link"
pose: 
  pose: 
    position: 
      x: 0.602583140413
      y: 7.14741699598
      z: 0.0
    orientation: 
      x: 0.0
      y: 0.0
      z: 0.685288686068
      w: 0.7282715268
  covariance: [5268478064947.81, -288762791624.44763, 0.0, 0.0, 0.0, 1.1568751221838264e-22, -288762791624.448, 15840764417.30836, 0.0, 0.0, 0.0, -4.722173418914972e-24, 0.0, 0.0, 4.999751150106647e-07, 1.955305531041337e-28, 1.1979806197064764e-24, 0.0, 0.0, 0.0, 1.955305531041338e-28, 4.999751150175687e-07, -1.600833688205563e-34, 0.0, 0.0, 0.0, 1.1979806197064766e-24, 1.6008335014514994e-34, 4.999751150175687e-07, 0.0, 1.1568751221838268e-22, -4.722173418914973e-24, 0.0, 0.0, 0.0, 9.99998009359257e-10]
twist: 
  twist: 
    linear: 
      x: -7.31452224744e-09
      y: 0.0
      z: 0.0
    angular: 
      x: 0.0
      y: 0.0
      z: 0.0399999999992
  covariance: [0.0111057097102532, 0.0, 0.0, 0.0, 0.0, 0.0, 0.0, 34603986.7533999, 0.0, 0.0, 0.0, 0.0, 0.0, 0.0, 4.999975112424081e-07, 4.0347693808100456e-35, 1.6457372618096967e-36, 0.0, 0.0, 0.0, 4.0347693808100483e-35, 4.999751149870378e-07, 4.737351654731439e-39, 0.0, 0.0, 0.0, 1.645737261809698e-36, -4.738731000971423e-39, 4.999751149870378e-07, 0.0, 0.0, 0.0, 0.0, 0.0, 0.0, 9.999999004643432e-10]
---
header: 
  seq: 10126
  stamp: 
    secs: 1518208911
    nsecs: 734522104
  frame_id: "swarmone/map"
child_frame_id: "swarmone/base_link"
pose: 
  pose: 
    position: 
      x: 0.602583140437
      y: 7.14741699642
      z: 0.0
    orientation: 
      x: 0.0
      y: 0.0
      z: 0.681638770309
      w: 0.731688859292
  covariance: [5271073421316.056, -288912704176.8464, 0.0, 0.0, 0.0, -8.321030283956501e-24, -288912704176.8468, 15849398558.57146, 0.0, 0.0, 0.0, 5.065111364707506e-25, 0.0, 0.0, 4.999748551891169e-07, -2.097021192669327e-29, -8.714024190663398e-26, 0.0, 0.0, 0.0, -2.0970211926693268e-29, 4.999748551961489e-07, 6.538409410232551e-35, 0.0, 0.0, 0.0, -8.714024190663404e-26, -6.538409424768982e-35, 4.999748551961489e-07, 0.0, -8.3210302839565e-24, 5.065111364707507e-25, 0.0, 0.0, 0.0, 9.999979885755365e-10]
twist: 
  twist: 
    linear: 
      x: 6.16784650221e-10
      y: 0.0
      z: 0.0
    angular: 
      x: 0.0
      y: 0.0
      z: 0.0399999999995
  covariance: [0.010980144039735275, 0.0, 0.0, 0.0, 0.0, 0.0, 0.0, 34614181.68542859, 0.0, 0.0, 0.0, 0.0, 0.0, 0.0, 4.999974852548696e-07, -2.520174930832298e-36, -1.532678336550936e-37, 0.0, 0.0, 0.0, -2.520174930832298e-36, 4.999748551654908e-07, -6.085123608548871e-39, 0.0, 0.0, 0.0, -1.5326783365509371e-37, 6.08512360848472e-39, 4.999748551654908e-07, 0.0, 0.0, 0.0, 0.0, 0.0, 0.0, 9.99999899425149e-10]
---
header: 
  seq: 10127
  stamp: 
    secs: 1518208911
    nsecs: 835008621
  frame_id: "swarmone/map"
child_frame_id: "swarmone/base_link"
pose: 
  pose: 
    position: 
      x: 0.602583140419
      y: 7.14741699614
      z: 0.0
    orientation: 
      x: 0.0
      y: 0.0
      z: 0.688921433584
      w: 0.724836021697
  covariance: [5273695706456.934, -289077344537.69775, 0.0, 0.0, 0.0, 2.500370692578161e-23, -289077344537.69806, 15859562228.073177, 0.0, 0.0, 0.0, -1.7731178659987726e-24, 0.0, 0.0, 4.999751201289504e-07, 7.591482760175496e-29, 2.6811398276155223e-25, 0.0, 0.0, 0.0, 7.591482760175498e-29, 4.999751201355518e-07, -5.205773925588713e-39, 0.0, 0.0, 0.0, 2.6811398276155223e-25, 5.204207182140075e-39, 4.999751201355518e-07, 0.0, 2.5003706925781604e-23, -1.773117865998773e-24, 0.0, 0.0, 0.0, 9.99998009753149e-10]
twist: 
  twist: 
    linear: 
      x: -1.59334284792e-09
      y: 0.0
      z: 0.0
    angular: 
      x: 0.0
      y: 0.0
      z: 0.0400000000005
  covariance: [0.011108217455958698, 0.0, 0.0, 0.0, 0.0, 0.0, 0.0, 34624487.14461294, 0.0, 0.0, 0.0, 0.0, 0.0, 0.0, 4.999975117561485e-07, 8.62889262761652e-36, 6.1142067061891256e-37, 0.0, 0.0, 0.0, 8.628892627616524e-36, 4.999751201053836e-07, -5.640716160723227e-39, 0.0, 0.0, 0.0, 6.114206706189128e-37, 5.6406437889727675e-39, 4.999751201053836e-07, 0.0, 0.0, 0.0, 0.0, 0.0, 0.0, 9.999999004841807e-10]
---
header: 
  seq: 10128
  stamp: 
    secs: 1518208911
    nsecs: 934484720
  frame_id: "swarmone/map"
child_frame_id: "swarmone/base_link"
pose: 
  pose: 
    position: 
      x: 0.602583140385
      y: 7.14741699549
      z: 0.0
    orientation: 
      x: 0.0
      y: 0.0
      z: 0.68892144801
      w: 0.724836007985
  covariance: [5276295814881.944, -289214496374.3604, 0.0, 0.0, 0.0, 7.871919196622717e-23, -289214496374.3607, 15866787306.759962, 0.0, 0.0, 0.0, -4.0020423879107094e-24, 0.0, 0.0, 4.999748673506702e-07, 1.6942114021089076e-28, 8.420528590756447e-25, 0.0, 0.0, 0.0, 1.6942114021089069e-28, 4.999748673575185e-07, 1.306228080007911e-34, 0.0, 0.0, 0.0, 8.42052859075644e-25, -1.3062281919143107e-34, 4.999748673575185e-07, 0.0, 7.871919196622718e-23, -4.00204238791071e-24, 0.0, 0.0, 0.0, 9.999979895378314e-10]
twist: 
  twist: 
    linear: 
      x: -5.09494320523e-09
      y: 0.0
      z: 0.0
    angular: 
      x: 0.0
      y: 0.0
      z: 0.0399999999999
  covariance: [0.010985965292279123, 0.0, 0.0, 0.0, 0.0, 0.0, 0.0, 34634690.99424316, 0.0, 0.0, 0.0, 0.0, 0.0, 0.0, 4.999974864724976e-07, 2.7575850834040223e-35, 1.4009176361919126e-36, 0.0, 0.0, 0.0, 2.7575850834040245e-35, 4.999748673270835e-07, 3.779471074020337e-39, 0.0, 0.0, 0.0, 1.400917636191913e-36, -3.7803116561119716e-39, 4.999748673270835e-07, 0.0, 0.0, 0.0, 0.0, 0.0, 0.0, 9.999998994733598e-10]
---
header: 
  seq: 10129
  stamp: 
    secs: 1518208912
    nsecs:  34955978
  frame_id: "swarmone/map"
child_frame_id: "swarmone/base_link"
pose: 
  pose: 
    position: 
      x: 0.602583140377
      y: 7.14741699532
      z: 0.0
    orientation: 
      x: 0.0
      y: 0.0
      z: 0.685288678819
      w: 0.728271533621
  covariance: [5278922974458.954, -289353073671.2236, 0.0, 0.0, 0.0, 4.5168596327100295e-23, -289353073671.2239, 15874087406.522497, 0.0, 0.0, 0.0, -2.2963453398977024e-24, 0.0, 0.0, 4.999751162975138e-07, 9.72140456418956e-29, 4.784037023119232e-25, 0.0, 0.0, 0.0, 9.72140456418956e-29, 4.99975116304227e-07, 4.105615688065799e-39, 0.0, 0.0, 0.0, 4.784037023119232e-25, -4.1091800759710784e-39, 4.99975116304227e-07, 0.0, 4.516859632710029e-23, -2.2963453398977017e-24, 0.0, 0.0, 0.0, 9.999980094518302e-10]
twist: 
  twist: 
    linear: 
      x: -2.87814384695e-09
      y: 0.0
      z: 0.0
    angular: 
      x: 0.0
      y: 0.0
      z: 0.0399999999996
  covariance: [0.011106343577146505, 0.0, 0.0, 0.0, 0.0, 0.0, 0.0, 34644998.9579164, 0.0, 0.0, 0.0, 0.0, 0.0, 0.0, 4.999975113723149e-07, 1.561777172804447e-35, 7.933852901779204e-37, 0.0, 0.0, 0.0, 1.5617771728044462e-35, 4.999751162739262e-07, -5.057733145978633e-41, 0.0, 0.0, 0.0, 7.933852901779206e-37, 5.034085268703167e-41, 4.999751162739262e-07, 0.0, 0.0, 0.0, 0.0, 0.0, 0.0, 9.99999900469067e-10]
---
header: 
  seq: 10130
  stamp: 
    secs: 1518208912
    nsecs: 134386539
  frame_id: "swarmone/map"
child_frame_id: "swarmone/base_link"
pose: 
  pose: 
    position: 
      x: 0.602583140386
      y: 7.14741699548
      z: 0.0
    orientation: 
      x: 0.0
      y: 0.0
      z: 0.68892144072
      w: 0.724836014914
  covariance: [5281522497938.022, -289503231702.2352, 0.0, 0.0, 0.0, -1.708049041793157e-24, -289503231702.2355, 15882735993.14664, 0.0, 0.0, 0.0, 1.03970892130319e-25, 0.0, 0.0, 4.999748554056219e-07, -4.0407724352846316e-30, -1.6791036434990914e-26, 0.0, 0.0, 0.0, -4.040772435284633e-30, 4.99974855413181e-07, 4.576132135516416e-34, 0.0, 0.0, 0.0, -1.6791036434990914e-26, -4.576132135570391e-34, 4.99974855413181e-07, 0.0, -1.7080490417931576e-24, 1.03970892130319e-25, 0.0, 0.0, 0.0, 9.999979886246609e-10]
twist: 
  twist: 
    linear: 
      x: 1.92808055451e-10
      y: 0.0
      z: 0.0
    angular: 
      x: 0.0
      y: 0.0
      z: 0.0400000000002
  covariance: [0.01098022973442307, 0.0, 0.0, 0.0, 0.0, 0.0, 0.0, 34655202.16344881, 0.0, 0.0, 0.0, 0.0, 0.0, 0.0, 4.999974852730727e-07, -8.732501978230019e-38, -5.288791658122338e-39, 0.0, 0.0, 0.0, -8.732501978230015e-38, 4.999748553818897e-07, -9.130948509637363e-39, 0.0, 0.0, 0.0, -5.288791658122334e-39, 9.130948509633361e-39, 4.999748553818897e-07, 0.0, 0.0, 0.0, 0.0, 0.0, 0.0, 9.999998994273195e-10]
---
header: 
  seq: 10131
  stamp: 
    secs: 1518208912
    nsecs: 234827518
  frame_id: "swarmone/map"
child_frame_id: "swarmone/base_link"
pose: 
  pose: 
    position: 
      x: 0.602583140363
      y: 7.14741699504
      z: 0.0
    orientation: 
      x: 0.0
      y: 0.0
      z: 0.68892144801
      w: 0.724836007985
  covariance: [5284150944353.044, -289641877575.825, 0.0, 0.0, 0.0, 4.5261058467764475e-23, -289641877575.8252, 15890039739.891996, 0.0, 0.0, 0.0, -2.3010469401948472e-24, 0.0, 0.0, 4.999751087957127e-07, 9.741155434261712e-29, 4.795194406849758e-25, 0.0, 0.0, 0.0, 9.741155434261716e-29, 4.999751088024301e-07, 6.406656819620693e-35, 0.0, 0.0, 0.0, 4.795194406849758e-25, -6.406657177579537e-35, 4.999751088024301e-07, 0.0, 4.526105846776448e-23, -2.3010469401948472e-24, 0.0, 0.0, 0.0, 9.999980088517386e-10]
twist: 
  twist: 
    linear: 
      x: -2.88959884111e-09
      y: 0.0
      z: 0.0
    angular: 
      x: 0.0
      y: 0.0
      z: 0.0399999999999
  covariance: [0.01110267250666903, 0.0, 0.0, 0.0, 0.0, 0.0, 0.0, 34665511.08814754, 0.0, 0.0, 0.0, 0.0, 0.0, 0.0, 4.999975106219809e-07, 1.5627099642976998e-35, 7.938832749255277e-37, 0.0, 0.0, 0.0, 1.5627099642976984e-35, 4.999751087721252e-07, 8.013309809141936e-39, 0.0, 0.0, 0.0, 7.938832749255269e-37, -8.013639399270311e-39, 4.999751087721252e-07, 0.0, 0.0, 0.0, 0.0, 0.0, 0.0, 9.999999004390623e-10]
---
header: 
  seq: 10132
  stamp: 
    secs: 1518208912
    nsecs: 335246801
  frame_id: "swarmone/map"
child_frame_id: "swarmone/base_link"
pose: 
  pose: 
    position: 
      x: 0.602583140365
      y: 7.14741699507
      z: 0.0
    orientation: 
      x: 0.0
      y: 0.0
      z: 0.68892144801
      w: 0.724836007985
  covariance: [5286779867802.815, -289780547108.3802, 0.0, 0.0, 0.0, 1.2930112766660025e-23, -289780547108.3803, 15897344658.509476, 0.0, 0.0, 0.0, -6.573587206002922e-25, 0.0, 0.0, 4.999751030989316e-07, 2.608493729275857e-29, 1.284357193077946e-25, 0.0, 0.0, 0.0, 2.608493729275857e-29, 4.999751031061901e-07, 6.409534613116813e-35, 0.0, 0.0, 0.0, 1.284357193077946e-25, -6.409534640033054e-35, 4.999751031061901e-07, 0.0, 1.2930112766660025e-23, -6.573587206002922e-25, 0.0, 0.0, 0.0, 9.999980084272454e-10]
twist: 
  twist: 
    linear: 
      x: -6.91066537368e-10
      y: 0.0
      z: 0.0
    angular: 
      x: 0.0
      y: 0.0
      z: 0.0399999999999
  covariance: [0.011099922186416753, 0.0, 0.0, 0.0, 0.0, 0.0, 0.0, 34675819.82957443, 0.0, 0.0, 0.0, 0.0, 0.0, 0.0, 4.999975100487001e-07, 5.2706293583772076e-36, 2.6778741552124695e-37, 0.0, 0.0, 0.0, 5.270629358377207e-36, 4.999751030752322e-07, 9.29754297524883e-39, 0.0, 0.0, 0.0, 2.6778741552124712e-37, -9.297666207682507e-39, 4.999751030752322e-07, 0.0, 0.0, 0.0, 0.0, 0.0, 0.0, 9.999999004175517e-10]
---
header: 
  seq: 10133
  stamp: 
    secs: 1518208912
    nsecs: 434724092
  frame_id: "swarmone/map"
child_frame_id: "swarmone/base_link"
pose: 
  pose: 
    position: 
      x: 0.602583140354
      y: 7.14741699487
      z: 0.0
    orientation: 
      x: 0.0
      y: 0.0
      z: 0.685288678891
      w: 0.728271533553
  covariance: [5289385160727.843, -289917968903.8102, 0.0, 0.0, 0.0, 2.4513531046178965e-23, -289917968903.8103, 15904583785.983967, 0.0, 0.0, 0.0, -1.2462542237530086e-24, 0.0, 0.0, 4.999748677593402e-07, 5.397236161366814e-29, 2.682477542953281e-25, 0.0, 0.0, 0.0, 5.397236161366815e-29, 4.999748677659987e-07, 6.530216194793526e-35, 0.0, 0.0, 0.0, 2.6824775429532813e-25, -6.530216306540905e-35, 4.999748677659987e-07, 0.0, 2.4513531046178968e-23, -1.2462542237530088e-24, 0.0, 0.0, 0.0, 9.999979895600191e-10]
twist: 
  twist: 
    linear: 
      x: -1.57693490563e-09
      y: 0.0
      z: 0.0
    angular: 
      x: 0.0
      y: 0.0
      z: 0.0399999999996
  covariance: [0.010986200694842777, 0.0, 0.0, 0.0, 0.0, 0.0, 0.0, 34686033.883816026, 0.0, 0.0, 0.0, 0.0, 0.0, 0.0, 4.999974865146299e-07, 8.594017117674088e-36, 4.365776873100971e-37, 0.0, 0.0, 0.0, 8.594017117674089e-36, 4.999748677357952e-07, -3.2125944762723357e-39, 0.0, 0.0, 0.0, 4.365776873100973e-37, 3.212485356603465e-39, 4.999748677357952e-07, 0.0, 0.0, 0.0, 0.0, 0.0, 0.0, 9.999998994745642e-10]
---
header: 
  seq: 10134
  stamp: 
    secs: 1518208912
    nsecs: 535217047
  frame_id: "swarmone/map"
child_frame_id: "swarmone/base_link"
pose: 
  pose: 
    position: 
      x: 0.602583140367
      y: 7.14741699508
      z: 0.0
    orientation: 
      x: 0.0
      y: 0.0
      z: 0.692536987092
      w: 0.721382368449
  covariance: [5292016624858.07, -290069969911.77875, 0.0, 0.0, 0.0, -1.5131383050251953e-23, -290069969911.7789, 15913338390.441101, 0.0, 0.0, 0.0, 9.21057816632269e-25, 0.0, 0.0, 4.999751215643325e-07, -3.813741120030635e-29, -1.5680486691501625e-25, 0.0, 0.0, 0.0, -3.8137411200306346e-29, 4.99975121571219e-07, 3.199788775004852e-34, 0.0, 0.0, 0.0, -1.568048669150163e-25, -3.1997887791166493e-34, 4.99975121571219e-07, 0.0, -1.5131383050251953e-23, 9.210578166322687e-25, 0.0, 0.0, 0.0, 9.999980098835002e-10]
twist: 
  twist: 
    linear: 
      x: 1.04869988108e-09
      y: 0.0
      z: 0.0
    angular: 
      x: 0.0
      y: 0.0
      z: 0.0400000000005
  covariance: [0.011108941916546013, 0.0, 0.0, 0.0, 0.0, 0.0, 0.0, 34696354.25993473, 0.0, 0.0, 0.0, 0.0, 0.0, 0.0, 4.9999751189791e-07, -4.8228691372618514e-36, -2.9332627298140493e-37, 0.0, 0.0, 0.0, -4.822869137261853e-36, 4.999751215407055e-07, 1.9497966372026445e-39, 0.0, 0.0, 0.0, -2.9332627298140493e-37, -1.9496866493136995e-39, 4.999751215407055e-07, 0.0, 0.0, 0.0, 0.0, 0.0, 0.0, 9.999999004905554e-10]
---
header: 
  seq: 10135
  stamp: 
    secs: 1518208912
    nsecs: 634629726
  frame_id: "swarmone/map"
child_frame_id: "swarmone/base_link"
pose: 
  pose: 
    position: 
      x: 0.602583140347
      y: 7.14741699466
      z: 0.0
    orientation: 
      x: 0.0
      y: 0.0
      z: 0.688921455301
      w: 0.724836001056
  covariance: [5294623480456.127, -290194411349.4341, 0.0, 0.0, 0.0, 4.056081429587395e-23, -290194411349.4342, 15919153998.369143, 0.0, 0.0, 0.0, -1.6556248058972058e-24, 0.0, 0.0, 4.999748511547138e-07, 6.781372710735099e-29, 4.198708076723738e-25, 0.0, 0.0, 0.0, 6.781372710735103e-29, 4.999748511618528e-07, -9.80850601651764e-35, 0.0, 0.0, 0.0, 4.198708076723739e-25, 9.808505800497411e-35, 4.999748511618528e-07, 0.0, 4.056081429587397e-23, -1.6556248058972054e-24, 0.0, 0.0, 0.0, 9.999979882581e-10]
twist: 
  twist: 
    linear: 
      x: -2.4778829047e-09
      y: 0.0
      z: 0.0
    angular: 
      x: 0.0
      y: 0.0
      z: 0.0399999999995
  covariance: [0.010978236722660897, 0.0, 0.0, 0.0, 0.0, 0.0, 0.0, 34706565.70858333, 0.0, 0.0, 0.0, 0.0, 0.0, 0.0, 4.999974848507484e-07, 1.5024510459021482e-35, 6.128569115287113e-37, 0.0, 0.0, 0.0, 1.5024510459021474e-35, 4.999748511310688e-07, -6.371328847986443e-39, 0.0, 0.0, 0.0, 6.128569115287108e-37, 6.37107270724828e-39, 4.999748511310688e-07, 0.0, 0.0, 0.0, 0.0, 0.0, 0.0, 9.999998994092295e-10]
---
header: 
  seq: 10136
  stamp: 
    secs: 1518208912
    nsecs: 735110044
  frame_id: "swarmone/map"
child_frame_id: "swarmone/base_link"
pose: 
  pose: 
    position: 
      x: 0.602583140357
      y: 7.14741699486
      z: 0.0
    orientation: 
      x: 0.0
      y: 0.0
      z: 0.685288678818
      w: 0.728271533622
  covariance: [5297258166835.41, -290333379361.0296, 0.0, 0.0, 0.0, -7.918154451709796e-24, -290333379361.02985, 15926474371.225798, 0.0, 0.0, 0.0, 4.025550466350273e-25, 0.0, 0.0, 4.999751185412683e-07, -1.7040870688988959e-29, -8.385297280158467e-26, 0.0, 0.0, 0.0, -1.7040870688988959e-29, 4.999751185479804e-07, 1.280328572141802e-34, 0.0, 0.0, 0.0, -8.38529728015847e-26, -1.2803285732905331e-34, 4.999751185479804e-07, 0.0, -7.918154451709794e-24, 4.025550466350273e-25, 0.0, 0.0, 0.0, 9.99998009631315e-10]
twist: 
  twist: 
    linear: 
      x: 5.95396713875e-10
      y: 0.0
      z: 0.0
    angular: 
      x: 0.0
      y: 0.0
      z: 0.0300000009948
  covariance: [0.011107456263458456, 0.0, 0.0, 0.0, 0.0, 0.0, 0.0, 34716888.85840781, 0.0, 0.0, 0.0, 0.0, 0.0, 0.0, 4.999975115967365e-07, -2.310341774205593e-36, -1.1734611758300647e-37, 0.0, 0.0, 0.0, -2.3103417742055934e-36, 4.999751185176807e-07, -5.335786849229497e-41, 0.0, 0.0, 0.0, -1.1734611758300647e-37, 5.335786844952646e-41, 4.999751185176807e-07, 0.0, 0.0, 0.0, 0.0, 0.0, 0.0, 9.999999004780416e-10]
---
header: 
  seq: 10137
  stamp: 
    secs: 1518208912
    nsecs: 834606171
  frame_id: "swarmone/map"
child_frame_id: "swarmone/base_link"
pose: 
  pose: 
    position: 
      x: 0.602583140356
      y: 7.14741699484
      z: 0.0
    orientation: 
      x: 0.0
      y: 0.0
      z: 0.681638769572
      w: 0.731688859978
  covariance: [5299866621405.919, -290484047363.73975, 0.0, 0.0, 0.0, -1.0952546886698272e-24, -290484047363.74, 15935151946.981777, 0.0, 0.0, 0.0, 6.666890635974204e-26, 0.0, 0.0, 4.999748723558544e-07, -2.0934592195615337e-30, -1.1579571334433367e-26, 0.0, 0.0, 0.0, -2.0934592195615337e-30, 4.999748723593772e-07, -2.6115144208058256e-34, 0.0, 0.0, 0.0, -1.157957133443336e-26, 2.6115144207865295e-34, 4.999748723593772e-07, 0.0, -1.095254688669827e-24, 6.666890635974203e-26, 0.0, 0.0, 0.0, 9.999979899434725e-10]
twist: 
  twist: 
    linear: 
      x: 1.36465708477e-10
      y: 0.0
      z: 0.0
    angular: 
      x: 0.0
      y: 0.0
      z: 0.0299999999996
  covariance: [0.010988372228466768, 0.0, 0.0, 0.0, 0.0, 0.0, 0.0, 34727112.91113829, 0.0, 0.0, 0.0, 0.0, 0.0, 0.0, 4.999974869725057e-07, -5.781004007588219e-38, -3.5054729587350434e-39, 0.0, 0.0, 0.0, -5.781004007588219e-38, 4.999748723322478e-07, 1.0990500288675374e-39, 0.0, 0.0, 0.0, -3.5054729587350453e-39, -1.0990500288675372e-39, 4.999748723322478e-07, 0.0, 0.0, 0.0, 0.0, 0.0, 0.0, 9.999998994935943e-10]
---
header: 
  seq: 10138
  stamp: 
    secs: 1518208912
    nsecs: 935115337
  frame_id: "swarmone/map"
child_frame_id: "swarmone/base_link"
pose: 
  pose: 
    position: 
      x: 0.602583140332
      y: 7.14741699446
      z: 0.0
    orientation: 
      x: 0.0
      y: 0.0
      z: 0.692536979197
      w: 0.721382376029
  covariance: [5302500940064.832, -290649442039.98737, 0.0, 0.0, 0.0, 4.01431754754682e-23, -290649442039.9877, 15945362079.555773, 0.0, 0.0, 0.0, -2.8467263847412304e-24, 0.0, 0.0, 4.999751255774871e-07, 8.840514559148329e-29, 4.157957618999155e-25, 0.0, 0.0, 0.0, 8.84051455914833e-29, 4.999751255809788e-07, -2.559113747304049e-34, 0.0, 0.0, 0.0, 4.157957618999155e-25, 2.5591137191376923e-34, 4.999751255809788e-07, 0.0, 4.0143175475468193e-23, -2.84672638474123e-24, 0.0, 0.0, 0.0, 9.999980102045217e-10]
twist: 
  twist: 
    linear: 
      x: -2.50453454203e-09
      y: 0.0
      z: 0.0
    angular: 
      x: 0.0
      y: 0.0
      z: 0.0399999990059
  covariance: [0.011110891161167664, 0.0, 0.0, 0.0, 0.0, 0.0, 0.0, 34737443.10006437, 0.0, 0.0, 0.0, 0.0, 0.0, 0.0, 4.999975122993079e-07, 1.418293096832462e-35, 1.0052005009360142e-36, 0.0, 0.0, 0.0, 1.4182930968324607e-35, 4.999751255538602e-07, -2.4871628177358966e-39, 0.0, 0.0, 0.0, 1.005200500936014e-36, 2.4868498620872446e-39, 4.999751255538602e-07, 0.0, 0.0, 0.0, 0.0, 0.0, 0.0, 9.999999005066068e-10]
---
header: 
  seq: 10139
  stamp: 
    secs: 1518208913
    nsecs:  34662962
  frame_id: "swarmone/map"
child_frame_id: "swarmone/base_link"
pose: 
  pose: 
    position: 
      x: 0.602583140311
      y: 7.14741699398
      z: 0.0
    orientation: 
      x: 0.0
      y: 0.0
      z: 0.688921455291
      w: 0.724836001065
  covariance: [5305115466762.174, -290774251146.5536, 0.0, 0.0, 0.0, 6.56002899465267e-23, -290774251146.5539, 15951194923.482239, 0.0, 0.0, 0.0, -2.677701182472398e-24, 0.0, 0.0, 4.999748854093723e-07, 1.1335711892834125e-28, 7.009004597991143e-25, 0.0, 0.0, 0.0, 1.133571189283413e-28, 4.999748854162169e-07, 1.6847865561747782e-39, 0.0, 0.0, 0.0, 7.009004597991137e-25, -1.6911947359756384e-39, 4.999748854162169e-07, 0.0, 6.560028994652671e-23, -2.6777011824723985e-24, 0.0, 0.0, 0.0, 9.999979909824002e-10]
twist: 
  twist: 
    linear: 
      x: -4.2430006657e-09
      y: 0.0
      z: 0.0
    angular: 
      x: 0.0
      y: 0.0
      z: 0.0399999999996
  covariance: [0.010994629724315613, 0.0, 0.0, 0.0, 0.0, 0.0, 0.0, 34747676.482154876, 0.0, 0.0, 0.0, 0.0, 0.0, 0.0, 4.999974882787418e-07, 2.296008344051805e-35, 9.365541663408513e-37, 0.0, 0.0, 0.0, 2.2960083440518034e-35, 4.999748853857855e-07, -3.840857838218048e-39, 0.0, 0.0, 0.0, 9.365541663408507e-37, 3.840409554380775e-39, 4.999748853857855e-07, 0.0, 0.0, 0.0, 0.0, 0.0, 0.0, 9.999998995455886e-10]
---
header: 
  seq: 10140
  stamp: 
    secs: 1518208913
    nsecs: 135113239
  frame_id: "swarmone/map"
child_frame_id: "swarmone/base_link"
pose: 
  pose: 
    position: 
      x: 0.602583140326
      y: 7.14741699426
      z: 0.0
    orientation: 
      x: 0.0
      y: 0.0
      z: 0.68528867882
      w: 0.72827153362
  covariance: [5307753535323.544, -290913398662.22095, 0.0, 0.0, 0.0, -1.0885624099540653e-23, -290913398662.2212, 15958524803.955353, 0.0, 0.0, 0.0, 5.534173270386153e-25, 0.0, 0.0, 4.999751097542427e-07, -1.838615662746024e-29, -9.050544505481179e-26, 0.0, 0.0, 0.0, -1.838615662746023e-29, 4.999751097629572e-07, -6.405720105481077e-35, 0.0, 0.0, 0.0, -9.050544505481175e-26, 6.405720092108335e-35, 4.999751097629572e-07, 0.0, -1.0885624099540656e-23, 5.534173270386153e-25, 0.0, 0.0, 0.0, 9.999980090598707e-10]
twist: 
  twist: 
    linear: 
      x: 5.96483795074e-10
      y: 0.0
      z: 0.0
    angular: 
      x: 0.0
      y: 0.0
      z: 0.0399999999994
  covariance: [0.011103099808986789, 0.0, 0.0, 0.0, 0.0, 0.0, 0.0, 34758004.692920655, 0.0, 0.0, 0.0, 0.0, 0.0, 0.0, 4.999975107050998e-07, -4.16584859934241e-36, -2.116724367951853e-37, 0.0, 0.0, 0.0, -4.165848599342409e-36, 4.999751097302793e-07, 7.207050028420013e-39, 0.0, 0.0, 0.0, -2.1167243679518524e-37, -7.207050028398629e-39, 4.999751097302793e-07, 0.0, 0.0, 0.0, 0.0, 0.0, 0.0, 9.999999004482782e-10]
---
header: 
  seq: 10141
  stamp: 
    secs: 1518208913
    nsecs: 234636545
  frame_id: "swarmone/map"
child_frame_id: "swarmone/base_link"
pose: 
  pose: 
    position: 
      x: 0.602583140314
      y: 7.14741699405
      z: 0.0
    orientation: 
      x: 0.0
      y: 0.0
      z: 0.68528867157
      w: 0.728271540442
  covariance: [5310366832747.986, -291064347596.32007, 0.0, 0.0, 0.0, 1.91622829199578e-23, -291064347596.32025, 15967218639.346771, 0.0, 0.0, 0.0, -1.166421283822687e-24, 0.0, 0.0, 4.999748792184857e-07, 4.8831400602358984e-29, 2.0272212907001717e-25, 0.0, 0.0, 0.0, 4.8831400602358996e-29, 4.999748792254132e-07, 6.524199503715986e-35, 0.0, 0.0, 0.0, 2.0272212907001724e-25, -6.524199582538764e-35, 4.999748792254132e-07, 0.0, 1.91622829199578e-23, -1.1664212838226874e-24, 0.0, 0.0, 0.0, 9.999979904924322e-10]
twist: 
  twist: 
    linear: 
      x: -1.17452159471e-09
      y: 0.0
      z: 0.0
    angular: 
      x: 0.0
      y: 0.0
      z: 0.0399999999999
  covariance: [0.010991658508996738, 0.0, 0.0, 0.0, 0.0, 0.0, 0.0, 34768239.61144353, 0.0, 0.0, 0.0, 0.0, 0.0, 0.0, 4.999974876589113e-07, 7.044082006172127e-36, 4.2844804273099365e-37, 0.0, 0.0, 0.0, 7.04408200617213e-36, 4.999748791948791e-07, -3.435195370716885e-40, 0.0, 0.0, 0.0, 4.284480427309939e-37, 3.4349944284279914e-40, 4.999748791948791e-07, 0.0, 0.0, 0.0, 0.0, 0.0, 0.0, 9.999998995210422e-10]
---
header: 
  seq: 10142
  stamp: 
    secs: 1518208913
    nsecs: 334548712
  frame_id: "swarmone/map"
child_frame_id: "swarmone/base_link"
pose: 
  pose: 
    position: 
      x: 0.602583140311
      y: 7.14741699399
      z: 0.0
    orientation: 
      x: 0.0
      y: 0.0
      z: 0.688921440755
      w: 0.72483601488
  covariance: [5312991375168.519, -291215948177.46967, 0.0, 0.0, 0.0, 1.2237287989720165e-23, -291215948177.4698, 15975950141.249233, 0.0, 0.0, 0.0, -7.4489232169930405e-25, 0.0, 0.0, 4.999749770468353e-07, 3.1534361652719316e-29, 1.304060196468671e-25, 0.0, 0.0, 0.0, 3.153436165271933e-29, 4.999749770536166e-07, -4.543257601006753e-39, 0.0, 0.0, 0.0, 1.3040601964686718e-25, 4.5429288800176205e-39, 4.999749770536166e-07, 0.0, 1.2237287989720163e-23, -7.4489232169930405e-25, 0.0, 0.0, 0.0, 9.99997998312752e-10]
twist: 
  twist: 
    linear: 
      x: -7.38970649882e-10
      y: 0.0
      z: 0.0
    angular: 
      x: 0.0
      y: 0.0
      z: 0.0400000000002
  covariance: [0.011038675438359161, 0.0, 0.0, 0.0, 0.0, 0.0, 0.0, 34778516.5409664, 0.0, 0.0, 0.0, 0.0, 0.0, 0.0, 4.999974974443823e-07, 4.471811157113321e-36, 2.720030100209654e-37, 0.0, 0.0, 0.0, 4.47181115711332e-36, 4.999749770232484e-07, 4.951729764946867e-39, 0.0, 0.0, 0.0, 2.720030100209653e-37, -4.951729940941983e-39, 4.999749770232484e-07, 0.0, 0.0, 0.0, 0.0, 0.0, 0.0, 9.99999899912109e-10]
---
header: 
  seq: 10143
  stamp: 
    secs: 1518208913
    nsecs: 434344769
  frame_id: "swarmone/map"
child_frame_id: "swarmone/base_link"
pose: 
  pose: 
    position: 
      x: 0.602583140306
      y: 7.14741699391
      z: 0.0
    orientation: 
      x: 0.0
      y: 0.0
      z: 0.68892144801
      w: 0.724836007985
  covariance: [5315615367702.162, -291354356377.34534, 0.0, 0.0, 0.0, 1.2100716083551804e-23, -291354356377.3454, 15983241233.410221, 0.0, 0.0, 0.0, -6.151940187051291e-25, 0.0, 0.0, 4.999749479856032e-07, 2.6339382222741585e-29, 1.3049295513126825e-25, 0.0, 0.0, 0.0, 2.63393822227416e-29, 4.999749479923138e-07, -6.489424940069089e-35, 0.0, 0.0, 0.0, 1.3049295513126832e-25, 6.489424916107303e-35, 4.999749479923138e-07, 0.0, 1.2100716083551804e-23, -6.15194018705129e-25, 0.0, 0.0, 0.0, 9.999979959828297e-10]
twist: 
  twist: 
    linear: 
      x: -7.4442268863e-10
      y: 0.0
      z: 0.0
    angular: 
      x: 0.0
      y: 0.0
      z: 0.0399999999999
  covariance: [0.011024652391305189, 0.0, 0.0, 0.0, 0.0, 0.0, 0.0, 34788783.54887558, 0.0, 0.0, 0.0, 0.0, 0.0, 0.0, 4.999974945382787e-07, 4.3663085872849984e-36, 2.2182043670457896e-37, 0.0, 0.0, 0.0, 4.3663085872849964e-36, 4.999749479620368e-07, 1.1558642392726587e-38, 0.0, 0.0, 0.0, 2.2182043670457896e-37, -1.1558642392833509e-38, 4.999749479620368e-07, 0.0, 0.0, 0.0, 0.0, 0.0, 0.0, 9.999998997956595e-10]
---
header: 
  seq: 10144
  stamp: 
    secs: 1518208913
    nsecs: 535108089
  frame_id: "swarmone/map"
child_frame_id: "swarmone/base_link"
pose: 
  pose: 
    position: 
      x: 0.602583140312
      y: 7.14741699402
      z: 0.0
    orientation: 
      x: 0.0
      y: 0.0
      z: 0.69253699429
      w: 0.721382361539
  covariance: [5318265843577.1, -291494160038.3001, 0.0, 0.0, 0.0, -7.791493906357534e-24, -291494160038.3001, 15990605763.964016, 0.0, 0.0, 0.0, 3.961149739207639e-25, 0.0, 0.0, 4.999751883733944e-07, -1.658295283669965e-29, -8.137157212286594e-26, 0.0, 0.0, 0.0, -1.6582952836699653e-29, 4.99975188380161e-07, 8.833584370229088e-39, 0.0, 0.0, 0.0, -8.137157212286592e-26, -8.83369315377309e-39, 4.99975188380161e-07, 0.0, -7.791493906357534e-24, 3.9611497392076406e-25, 0.0, 0.0, 0.0, 9.99998015222552e-10]
twist: 
  twist: 
    linear: 
      x: 5.65149756611e-10
      y: 0.0
      z: 0.0
    angular: 
      x: 0.0
      y: 0.0
      z: 0.0400000000002
  covariance: [0.011141696254818418, 0.0, 0.0, 0.0, 0.0, 0.0, 0.0, 34799152.118719056, 0.0, 0.0, 0.0, 0.0, 0.0, 0.0, 4.999975185807808e-07, -2.3589935741703304e-36, -1.1982459748181777e-37, 0.0, 0.0, 0.0, -2.3589935741703307e-36, 4.999751883497866e-07, 1.0034780898332146e-40, 0.0, 0.0, 0.0, -1.1982459748181777e-37, -1.0034780898332146e-40, 4.999751883497866e-07, 0.0, 0.0, 0.0, 0.0, 0.0, 0.0, 9.999999007575577e-10]
---
header: 
  seq: 10145
  stamp: 
    secs: 1518208913
    nsecs: 634568691
  frame_id: "swarmone/map"
child_frame_id: "swarmone/base_link"
pose: 
  pose: 
    position: 
      x: 0.602583140308
      y: 7.14741699394
      z: 0.0
    orientation: 
      x: 0.0
      y: 0.0
      z: 0.688921455297
      w: 0.724836001059
  covariance: [5320884288145.136, -291619151216.8257, 0.0, 0.0, 0.0, 6.049819267104129e-24, -291619151216.8256, 15996446941.378508, 0.0, 0.0, 0.0, -2.469433477462976e-25, 0.0, 0.0, 4.999748632725129e-07, 1.0114605454456603e-29, 6.259486655394145e-26, 0.0, 0.0, 0.0, 1.0114605454456602e-29, 4.999748632796452e-07, 1.306610626281256e-34, 0.0, 0.0, 0.0, 6.259486655394145e-26, -1.3066106267850621e-34, 4.999748632796452e-07, 0.0, 6.049819267104128e-24, -2.4694334774629757e-25, 0.0, 0.0, 0.0, 9.999979892274257e-10]
twist: 
  twist: 
    linear: 
      x: -3.27682640789e-10
      y: 0.0
      z: 0.0
    angular: 
      x: 0.0
      y: 0.0
      z: 0.0399999999995
  covariance: [0.010984032289211841, 0.0, 0.0, 0.0, 0.0, 0.0, 0.0, 34809388.6586626, 0.0, 0.0, 0.0, 0.0, 0.0, 0.0, 4.999974860627813e-07, 2.468133202491314e-36, 1.0068178137428804e-37, 0.0, 0.0, 0.0, 2.468133202491314e-36, 4.999748632488681e-07, -1.609591387065263e-39, 0.0, 0.0, 0.0, 1.0068178137428797e-37, 1.609591387065263e-39, 4.999748632488681e-07, 0.0, 0.0, 0.0, 0.0, 0.0, 0.0, 9.99999899457696e-10]
---
header: 
  seq: 10146
  stamp: 
    secs: 1518208913
    nsecs: 735087872
  frame_id: "swarmone/map"
child_frame_id: "swarmone/base_link"
pose: 
  pose: 
    position: 
      x: 0.602583140312
      y: 7.14741699402
      z: 0.0
    orientation: 
      x: 0.0
      y: 0.0
      z: 0.68892144801
      w: 0.724836007985
  covariance: [5323530434581.42, -291758720240.6507, 0.0, 0.0, 0.0, -7.267421961754953e-24, -291758720240.65063, 16003798804.456, 0.0, 0.0, 0.0, 3.694716466488038e-25, 0.0, 0.0, 4.999751282664672e-07, -1.6000820611382828e-29, -7.870447541655632e-26, 0.0, 0.0, 0.0, -1.600082061138283e-29, 4.999751282729852e-07, 6.397418277757049e-35, 0.0, 0.0, 0.0, -7.870447541655635e-26, -6.397418284403541e-35, 4.999751282729852e-07, 0.0, -7.267421961754956e-24, 3.694716466488038e-25, 0.0, 0.0, 0.0, 9.999980103989373e-10]
twist: 
  twist: 
    linear: 
      x: 5.42009810149e-10
      y: 0.0
      z: 0.0
    angular: 
      x: 0.0
      y: 0.0
      z: 0.0399999999999
  covariance: [0.011112227196992891, 0.0, 0.0, 0.0, 0.0, 0.0, 0.0, 34819736.18751111, 0.0, 0.0, 0.0, 0.0, 0.0, 0.0, 4.999975125706867e-07, -2.1536344705377213e-36, -1.0938580511635665e-37, 0.0, 0.0, 0.0, -2.1536344705377236e-36, 4.999751282429211e-07, -7.170972746179022e-39, 0.0, 0.0, 0.0, -1.0938580511635675e-37, 7.170972746179022e-39, 4.999751282429211e-07, 0.0, 0.0, 0.0, 0.0, 0.0, 0.0, 9.99999900516518e-10]
---
header: 
  seq: 10147
  stamp: 
    secs: 1518208913
    nsecs: 834580183
  frame_id: "swarmone/map"
child_frame_id: "swarmone/base_link"
pose: 
  pose: 
    position: 
      x: 0.602583140305
      y: 7.14741699387
      z: 0.0
    orientation: 
      x: 0.0
      y: 0.0
      z: 0.681638777658
      w: 0.731688852446
  covariance: [5326150584272.805, -291896916700.70166, 0.0, 0.0, 0.0, 1.2611854114257982e-23, -291896916700.70166, 16011078299.249577, 0.0, 0.0, 0.0, -6.411793762877531e-25, 0.0, 0.0, 4.999748714462518e-07, 2.714324728152215e-29, 1.3488491816613984e-25, 0.0, 0.0, 0.0, 2.714324728152214e-29, 4.999748714530979e-07, -5.599720851755728e-39, 0.0, 0.0, 0.0, 1.3488491816613982e-25, 5.5994294163864265e-39, 4.999748714530979e-07, 0.0, 1.2611854114257978e-23, -6.411793762877528e-25, 0.0, 0.0, 0.0, 9.999979898654491e-10]
twist: 
  twist: 
    linear: 
      x: -7.85578884182e-10
      y: 0.0
      z: 0.0
    angular: 
      x: 0.0
      y: 0.0
      z: 0.0399999999992
  covariance: [0.010987948331201414, 0.0, 0.0, 0.0, 0.0, 0.0, 0.0, 34829980.02872809, 0.0, 0.0, 0.0, 0.0, 0.0, 0.0, 4.999974868821407e-07, 4.566544634398915e-36, 2.319894301209706e-37, 0.0, 0.0, 0.0, 4.566544634398918e-36, 4.999748714226651e-07, -4.0233240673552776e-39, 0.0, 0.0, 0.0, 2.3198943012097067e-37, 4.0233239414874817e-39, 4.999748714226651e-07, 0.0, 0.0, 0.0, 0.0, 0.0, 0.0, 9.999998994897404e-10]
---
header: 
  seq: 10148
  stamp: 
    secs: 1518208913
    nsecs: 935097456
  frame_id: "swarmone/map"
child_frame_id: "swarmone/base_link"
pose: 
  pose: 
    position: 
      x: 0.602583140311
      y: 7.14741699398
      z: 0.0
    orientation: 
      x: 0.0
      y: 0.0
      z: 0.685288664326
      w: 0.728271547259
  covariance: [5328795550356.174, -292062972640.8143, 0.0, 0.0, 0.0, -7.781891931325317e-24, -292062972640.81433, 16021328682.562624, 0.0, 0.0, 0.0, 5.518465603149508e-25, 0.0, 0.0, 4.999751274775498e-07, -2.2362309999241425e-29, -7.895555112130388e-26, 0.0, 0.0, 0.0, -2.236230999924142e-29, 4.999751274846034e-07, -6.397162768632491e-35, 0.0, 0.0, 0.0, -7.895555112130389e-26, 6.397162754433306e-35, 4.999751274846034e-07, 0.0, -7.781891931325321e-24, 5.518465603149509e-25, 0.0, 0.0, 0.0, 9.999980103668992e-10]
twist: 
  twist: 
    linear: 
      x: 5.25727673985e-10
      y: 0.0
      z: 0.0
    angular: 
      x: 0.0
      y: 0.0
      z: 0.0400000000002
  covariance: [0.011111822048374591, 0.0, 0.0, 0.0, 0.0, 0.0, 0.0, 34840331.44123114, 0.0, 0.0, 0.0, 0.0, 0.0, 0.0, 4.999975124881943e-07, -2.5414753679904677e-36, -1.800818558504588e-37, 0.0, 0.0, 0.0, -2.5414753679904667e-36, 4.999751274538855e-07, -1.3622915822209843e-38, 0.0, 0.0, 0.0, -1.8008185585045882e-37, 1.3622915822209843e-38, 4.999751274538855e-07, 0.0, 0.0, 0.0, 0.0, 0.0, 0.0, 9.9999990051463e-10]
---
header: 
  seq: 10149
  stamp: 
    secs: 1518208914
    nsecs:  34622669
  frame_id: "swarmone/map"
child_frame_id: "swarmone/base_link"
pose: 
  pose: 
    position: 
      x: 0.602583140266
      y: 7.14741699322
      z: 0.0
    orientation: 
      x: 0.0
      y: 0.0
      z: 0.68528867157
      w: 0.728271540442
  covariance: [5331417173269.714, -292214401856.0059, 0.0, 0.0, 0.0, 8.050047470204428e-23, -292214401856.00604, 16030050139.443903, 0.0, 0.0, 0.0, -4.9001211598759505e-24, 0.0, 0.0, 4.999748796999332e-07, 2.051407970276961e-28, 8.516191925422077e-25, 0.0, 0.0, 0.0, 2.051407970276961e-28, 4.999748797068603e-07, 6.524612699452964e-35, 0.0, 0.0, 0.0, 8.516191925422083e-25, -6.524614099630937e-35, 4.999748797068603e-07, 0.0, 8.050047470204427e-23, -4.9001211598759505e-24, 0.0, 0.0, 0.0, 9.999979905309445e-10]
twist: 
  twist: 
    linear: 
      x: -5.17611237855e-09
      y: 0.0
      z: 0.0
    angular: 
      x: 0.0
      y: 0.0
      z: 0.0399999999999
  covariance: [0.010991896931736328, 0.0, 0.0, 0.0, 0.0, 0.0, 0.0, 34850582.71049315, 0.0, 0.0, 0.0, 0.0, 0.0, 0.0, 4.999974877070662e-07, 2.8396856660985554e-35, 1.7272623153731293e-36, 0.0, 0.0, 0.0, 2.8396856660985527e-35, 4.999748796763267e-07, 2.8864071707376455e-39, 0.0, 0.0, 0.0, 1.7272623153731293e-36, -2.8872710921639988e-39, 4.999748796763267e-07, 0.0, 0.0, 0.0, 0.0, 0.0, 0.0, 9.99999899522968e-10]
---
header: 
  seq: 10150
  stamp: 
    secs: 1518208914
    nsecs: 135111809
  frame_id: "swarmone/map"
child_frame_id: "swarmone/base_link"
pose: 
  pose: 
    position: 
      x: 0.602583140277
      y: 7.14741699342
      z: 0.0
    orientation: 
      x: 0.0
      y: 0.0
      z: 0.68528867157
      w: 0.728271540442
  covariance: [5334065232954.49, -292367360213.54834, 0.0, 0.0, 0.0, 5.5972264634391144e-24, -292367360213.54846, 16038859801.4723, 0.0, 0.0, 0.0, -3.407072164388985e-25, 0.0, 0.0, 4.999751208309123e-07, 1.475696976528499e-29, 6.06760644030524e-26, 0.0, 0.0, 0.0, 1.4756969765284984e-29, 4.99975120837427e-07, -6.399141905773439e-35, 0.0, 0.0, 0.0, 6.067606440305239e-26, 6.399141898574596e-35, 4.99975120837427e-07, 0.0, 5.597226463439116e-24, -3.407072164388985e-25, 0.0, 0.0, 0.0, 9.999980098041399e-10]
twist: 
  twist: 
    linear: 
      x: -3.25072823931e-10
      y: 0.0
      z: 0.0
    angular: 
      x: 0.0
      y: 0.0
      z: 0.0399999999999
  covariance: [0.011108590018686089, 0.0, 0.0, 0.0, 0.0, 0.0, 0.0, 34860935.30580465, 0.0, 0.0, 0.0, 0.0, 0.0, 0.0, 4.999975118269795e-07, 2.0649666381820327e-36, 1.2560358251177288e-37, 0.0, 0.0, 0.0, 2.0649666381820334e-36, 4.999751208073662e-07, -6.017685194151047e-39, 0.0, 0.0, 0.0, 1.25603582511773e-37, 6.017685194107129e-39, 4.999751208073662e-07, 0.0, 0.0, 0.0, 0.0, 0.0, 0.0, 9.999999004867782e-10]
---
header: 
  seq: 10151
  stamp: 
    secs: 1518208914
    nsecs: 234603167
  frame_id: "swarmone/map"
child_frame_id: "swarmone/base_link"
pose: 
  pose: 
    position: 
      x: 0.60258314026
      y: 7.14741699313
      z: 0.0
    orientation: 
      x: 0.0
      y: 0.0
      z: 0.681638770304
      w: 0.731688859296
  covariance: [5336688034853.233, -292518861648.5268, 0.0, 0.0, 0.0, 3.344986027443371e-23, -292518861648.52686, 16047585682.54739, 0.0, 0.0, 0.0, -2.0361158668678502e-24, 0.0, 0.0, 4.999748710975249e-07, 8.430888758945061e-29, 3.501186175547902e-25, 0.0, 0.0, 0.0, 8.430888758945061e-29, 4.999748711045485e-07, 6.528932314505018e-35, 0.0, 0.0, 0.0, 3.501186175547901e-25, -6.528932535542578e-35, 4.999748711045485e-07, 0.0, 3.344986027443371e-23, -2.0361158668678495e-24, 0.0, 0.0, 0.0, 9.999979898480856e-10]
twist: 
  twist: 
    linear: 
      x: -2.08413667323e-09
      y: 0.0
      z: 0.0
    angular: 
      x: 0.0
      y: 0.0
      z: 0.0300000010047
