header: 
  seq: 8144
  stamp: 
    secs: 1518208713
    nsecs: 534440756
  frame_id: "swarmone/map"
child_frame_id: "swarmone/base_link"
pose: 
  pose: 
    position: 
      x: 0.351457308414
      y: 4.04588516546
      z: 0.0
    orientation: 
      x: 0.0
      y: 0.0
      z: 0.681638770311
      w: 0.73168885929
  covariance: [1774577166313.2178, -120125212718.37027, 0.0, 0.0, 0.0, -2.095522458023497e-23, -120125212718.37001, 8159552094.9246855, 0.0, 0.0, 0.0, 1.2755574446753713e-24, 0.0, 0.0, 4.999748470876249e-07, -4.909021811422998e-29, -2.0405683972662525e-25, 0.0, 0.0, 0.0, -4.9090218114229986e-29, 4.999748470952728e-07, -1.0781674458065999e-38, 0.0, 0.0, 0.0, -2.0405683972662522e-25, 1.0780877854109055e-38, 4.999748470952728e-07, 0.0, -2.095522458023498e-23, 1.2755574446753712e-24, 0.0, 0.0, 0.0, 9.999979879646311e-10]
twist: 
  twist: 
    linear: 
      x: 1.1223936401e-09
      y: 0.0
      z: 0.0
    angular: 
      x: 0.0
      y: 0.0
      z: 0.0399999999995
  covariance: [0.010976270987567628, 0.0, 0.0, 0.0, 0.0, 0.0, 0.0, 18008138.767629668, 0.0, 0.0, 0.0, 0.0, 0.0, 0.0, 4.999974844405505e-07, -8.752891985978465e-36, -5.324732627076091e-37, 0.0, 0.0, 0.0, -8.752891985978462e-36, 4.999748470638767e-07, 1.3917624048051996e-39, 0.0, 0.0, 0.0, -5.324732627076093e-37, -1.3917592051411779e-39, 4.999748470638767e-07, 0.0, 0.0, 0.0, 0.0, 0.0, 0.0, 9.999998993942701e-10]
---
header: 
  seq: 8145
  stamp: 
    secs: 1518208713
    nsecs: 635108471
  frame_id: "swarmone/map"
child_frame_id: "swarmone/base_link"
pose: 
  pose: 
    position: 
      x: 0.351457308431
      y: 4.0458851657
      z: 0.0
    orientation: 
      x: 0.0
      y: 0.0
      z: 0.68892143361
      w: 0.724836021672
  covariance: [1775676600585.565, -120201835389.4998, 0.0, 0.0, 0.0, -3.277650102710145e-23, -120201835389.49956, 8164890504.757783, 0.0, 0.0, 0.0, 2.3243177603085844e-24, 0.0, 0.0, 4.999751647556442e-07, -9.62428134050921e-29, -3.393008909937574e-25, 0.0, 0.0, 0.0, -9.624281340509211e-29, 4.999751647624984e-07, -1.9132698349027027e-34, 0.0, 0.0, 0.0, -3.3930089099375743e-25, 1.9132698099944813e-34, 4.999751647624984e-07, 0.0, -3.277650102710145e-23, 2.324317760308584e-24, 0.0, 0.0, 0.0, 9.999980133384742e-10]
twist: 
  twist: 
    linear: 
      x: 2.00505228123e-09
      y: 0.0
      z: 0.0
    angular: 
      x: 0.0
      y: 0.0
      z: 0.0499999990071
  covariance: [0.011130093660753128, 0.0, 0.0, 0.0, 0.0, 0.0, 0.0, 18014817.129656617, 0.0, 0.0, 0.0, 0.0, 0.0, 0.0, 4.999975162179303e-07, -1.1738919238185594e-35, -8.318268228775809e-37, 0.0, 0.0, 0.0, -1.17389192381856e-35, 4.999751647320172e-07, -1.1938915053268132e-38, 0.0, 0.0, 0.0, -8.318268228775814e-37, 1.1938749651046628e-38, 4.999751647320172e-07, 0.0, 0.0, 0.0, 0.0, 0.0, 0.0, 9.999999006633056e-10]
---
header: 
  seq: 8146
  stamp: 
    secs: 1518208713
    nsecs: 734579802
  frame_id: "swarmone/map"
child_frame_id: "swarmone/base_link"
pose: 
  pose: 
    position: 
      x: 0.351457308438
      y: 4.04588516584
      z: 0.0
    orientation: 
      x: 0.0
      y: 0.0
      z: 0.68528867962
      w: 0.728271532867
  covariance: [1776764827747.0447, -120266752735.50424, 0.0, 0.0, 0.0, -2.481441089174752e-23, -120266752735.504, 8168678540.625591, 0.0, 0.0, 0.0, 1.2615490057178756e-24, 0.0, 0.0, 4.999748661996302e-07, -6.751624707137121e-29, -2.687326550633875e-25, 0.0, 0.0, 0.0, -6.751624707137119e-29, 4.999748662097738e-07, 1.483119834258809e-38, 0.0, 0.0, 0.0, -2.687326550633873e-25, -1.4832572675004557e-38, 4.999748662097738e-07, 0.0, -2.4814410891747522e-23, 1.261549005717876e-24, 0.0, 0.0, 0.0, 9.999979894405002e-10]
twist: 
  twist: 
    linear: 
      x: 1.56655812459e-09
      y: 0.0
      z: 0.0
    angular: 
      x: 0.0
      y: 0.0
      z: 0.0400000010048
  covariance: [0.010985444499596377, 0.0, 0.0, 0.0, 0.0, 0.0, 0.0, 18021417.74436607, 0.0, 0.0, 0.0, 0.0, 0.0, 0.0, 4.999974863579935e-07, -8.87936399431053e-36, -4.510201763695508e-37, 0.0, 0.0, 0.0, -8.879363994310524e-36, 4.999748661760641e-07, 4.9434984190844104e-39, 0.0, 0.0, 0.0, -4.510201763695505e-37, -4.943636254245379e-39, 4.999748661760641e-07, 0.0, 0.0, 0.0, 0.0, 0.0, 0.0, 9.999998994685408e-10]
---
header: 
  seq: 8147
  stamp: 
    secs: 1518208713
    nsecs: 835000992
  frame_id: "swarmone/map"
child_frame_id: "swarmone/base_link"
pose: 
  pose: 
    position: 
      x: 0.35145730844
      y: 4.04588516588
      z: 0.0
    orientation: 
      x: 0.0
      y: 0.0
      z: 0.688921440792
      w: 0.724836014845
  covariance: [1777863373178.355, -120337793365.71736, 0.0, 0.0, 0.0, -1.2053473198662533e-23, -120337793365.71713, 8173256749.444005, 0.0, 0.0, 0.0, 7.3370250762874635e-25, 0.0, 0.0, 4.999751038376348e-07, -3.071665139531991e-29, -1.2638343708383842e-25, 0.0, 0.0, 0.0, -3.0716651395319907e-29, 4.9997510384444e-07, 2.140428584388271e-39, 0.0, 0.0, 0.0, -1.263834370838384e-25, -2.1407404845846694e-39, 4.9997510384444e-07, 0.0, -1.2053473198662535e-23, 7.337025076287464e-25, 0.0, 0.0, 0.0, 9.9999800846031e-10]
twist: 
  twist: 
    linear: 
      x: 6.93381669705e-10
      y: 0.0
      z: 0.0
    angular: 
      x: 0.0
      y: 0.0
      z: 0.0400000000002
  covariance: [0.011100272802958932, 0.0, 0.0, 0.0, 0.0, 0.0, 0.0, 18028083.02414645, 0.0, 0.0, 0.0, 0.0, 0.0, 0.0, 4.999975101254685e-07, -4.540927740692412e-36, -2.7621170883813008e-37, 0.0, 0.0, 0.0, -4.540927740692416e-36, 4.999751038140275e-07, -3.715406456792091e-39, 0.0, 0.0, 0.0, -2.762117088381301e-37, 3.715406200223895e-39, 4.999751038140275e-07, 0.0, 0.0, 0.0, 0.0, 0.0, 0.0, 9.999999004194428e-10]
---
header: 
  seq: 8148
  stamp: 
    secs: 1518208713
    nsecs: 934535265
  frame_id: "swarmone/map"
child_frame_id: "swarmone/base_link"
pose: 
  pose: 
    position: 
      x: 0.351457308448
      y: 4.04588516602
      z: 0.0
    orientation: 
      x: 0.0
      y: 0.0
      z: 0.685288678886
      w: 0.728271533558
  covariance: [1778953360739.816, -120402810765.08438, 0.0, 0.0, 0.0, -5.491819806884604e-23, -120402810765.08417, 8177050387.166629, 0.0, 0.0, 0.0, 2.791942536567448e-24, 0.0, 0.0, 4.999748746294948e-07, -4.986901337629528e-29, -2.477964468873011e-25, 0.0, 0.0, 0.0, -4.9869013376295285e-29, 4.999748746427648e-07, -1.9581441852255243e-34, 0.0, 0.0, 0.0, -2.4779644688730116e-25, 1.9581441753877253e-34, 4.999748746427648e-07, 0.0, -5.491819806884606e-23, 2.791942536567447e-24, 0.0, 0.0, 0.0, 9.999979908366328e-10]
twist: 
  twist: 
    linear: 
      x: 1.14352641523e-09
      y: 0.0
      z: 0.0
    angular: 
      x: 0.0
      y: 0.0
      z: 0.0399999999987
  covariance: [0.010989262784069522, 0.0, 0.0, 0.0, 0.0, 0.0, 0.0, 18034691.057907846, 0.0, 0.0, 0.0, 0.0, 0.0, 0.0, 4.999974871601591e-07, -3.7973134889405164e-35, -1.929981692288347e-36, 0.0, 0.0, 0.0, -3.797313488940515e-35, 4.999748746049664e-07, -4.464945233165759e-39, 0.0, 0.0, 0.0, -1.9299816922883476e-36, 4.4636737055670874e-39, 4.999748746049664e-07, 0.0, 0.0, 0.0, 0.0, 0.0, 0.0, 9.999998995321099e-10]
---
header: 
  seq: 8149
  stamp: 
    secs: 1518208714
    nsecs:  35068512
  frame_id: "swarmone/map"
child_frame_id: "swarmone/base_link"
pose: 
  pose: 
    position: 
      x: 0.351457308474
      y: 4.04588516645
      z: 0.0
    orientation: 
      x: 0.0
      y: 0.0
      z: 0.68528867157
      w: 0.728271540442
  covariance: [1780054214765.7634, -120473996301.96309, 0.0, 0.0, 0.0, -5.120465887049588e-23, -120473996301.96289, 8181637683.399851, 0.0, 0.0, 0.0, 3.116861939385838e-24, 0.0, 0.0, 4.999751316941015e-07, -1.3344702214830054e-28, -5.484543737892494e-25, 0.0, 0.0, 0.0, -1.3344702214830052e-28, 4.999751317007052e-07, 6.393134968370745e-35, 0.0, 0.0, 0.0, -5.484543737892492e-25, -6.393135529210129e-35, 4.999751317007052e-07, 0.0, -5.1204658870495876e-23, 3.116861939385838e-24, 0.0, 0.0, 0.0, 9.999980106782843e-10]
twist: 
  twist: 
    linear: 
      x: 3.33785243123e-09
      y: 0.0
      z: 0.0
    angular: 
      x: 0.0
      y: 0.0
      z: 0.0399999999999
  covariance: [0.011113892801090269, 0.0, 0.0, 0.0, 0.0, 0.0, 0.0, 18041367.052013025, 0.0, 0.0, 0.0, 0.0, 0.0, 0.0, 4.999975129129001e-07, -1.7349188847073447e-35, -1.0549351476361237e-36, 0.0, 0.0, 0.0, -1.7349188847073444e-35, 4.999751316705345e-07, -5.130761869267021e-39, 0.0, 0.0, 0.0, -1.054935147636124e-36, 5.130412731585263e-39, 4.999751316705345e-07, 0.0, 0.0, 0.0, 0.0, 0.0, 0.0, 9.99999900530438e-10]
---
header: 
  seq: 8150
  stamp: 
    secs: 1518208714
    nsecs: 134572506
  frame_id: "swarmone/map"
child_frame_id: "swarmone/base_link"
pose: 
  pose: 
    position: 
      x: 0.351457308486
      y: 4.04588516664
      z: 0.0
    orientation: 
      x: 0.0
      y: 0.0
      z: 0.68528867157
      w: 0.728271540442
  covariance: [1781144334422.8887, -120544486436.35765, 0.0, 0.0, 0.0, -3.853873258564293e-23, -120544486436.35745, 8186180093.883997, 0.0, 0.0, 0.0, 2.3458797419071166e-24, 0.0, 0.0, 4.999748743966524e-07, -9.931061684538875e-29, -4.123636443790798e-25, 0.0, 0.0, 0.0, -9.931061684538877e-29, 4.999748744034894e-07, 6.526937482883817e-35, 0.0, 0.0, 0.0, -4.1236364437907977e-25, -6.526937794978201e-35, 4.999748744034894e-07, 0.0, -3.853873258564293e-23, 2.3458797419071166e-24, 0.0, 0.0, 0.0, 9.999979901014603e-10]
twist: 
  twist: 
    linear: 
      x: 2.44741498147e-09
      y: 0.0
      z: 0.0
    angular: 
      x: 0.0
      y: 0.0
      z: 0.0399999999999
  covariance: [0.010989354691511872, 0.0, 0.0, 0.0, 0.0, 0.0, 0.0, 18047976.319825366, 0.0, 0.0, 0.0, 0.0, 0.0, 0.0, 4.999974871772417e-07, -1.3732508735023785e-35, -8.352796831007632e-37, 0.0, 0.0, 0.0, -1.3732508735023785e-35, 4.999748743730657e-07, 6.171331102180782e-39, 0.0, 0.0, 0.0, -8.352796831007632e-37, -6.171571996518946e-39, 4.999748743730657e-07, 0.0, 0.0, 0.0, 0.0, 0.0, 0.0, 9.999998995015414e-10]
---
header: 
  seq: 8151
  stamp: 
    secs: 1518208714
    nsecs: 235003471
  frame_id: "swarmone/map"
child_frame_id: "swarmone/base_link"
pose: 
  pose: 
    position: 
      x: 0.351457308478
      y: 4.04588516651
      z: 0.0
    orientation: 
      x: 0.0
      y: 0.0
      z: 0.68528867157
      w: 0.728271540442
  covariance: [1782245150573.075, -120615666936.8441, 0.0, 0.0, 0.0, 1.4929274253294695e-24, -120615666936.84389, 8190766917.327175, 0.0, 0.0, 0.0, -9.087552743618182e-26, 0.0, 0.0, 4.999751062609355e-07, 3.803620002394824e-30, 1.5648444925527738e-26, 0.0, 0.0, 0.0, 3.803620002394824e-30, 4.999751062677394e-07, -6.407873535550875e-35, 0.0, 0.0, 0.0, 1.5648444925527735e-26, 6.407873535072617e-35, 4.999751062677394e-07, 0.0, 1.4929274253294697e-24, -9.087552743618184e-26, 0.0, 0.0, 0.0, 9.999980086541563e-10]
twist: 
  twist: 
    linear: 
      x: -1.85136162632e-10
      y: 0.0
      z: 0.0
    angular: 
      x: 0.0
      y: 0.0
      z: 0.0399999999999
  covariance: [0.011101451033166163, 0.0, 0.0, 0.0, 0.0, 0.0, 0.0, 18054648.795647897, 0.0, 0.0, 0.0, 0.0, 0.0, 0.0, 4.999975103678485e-07, 8.146567919869822e-38, 4.934448881794429e-39, 0.0, 0.0, 0.0, 8.146567919869819e-38, 4.999751062373282e-07, 1.1218258736445425e-39, 0.0, 0.0, 0.0, 4.93444888179443e-39, -1.121825873658003e-39, 4.999751062373282e-07, 0.0, 0.0, 0.0, 0.0, 0.0, 0.0, 9.999999004291355e-10]
---
header: 
  seq: 8152
  stamp: 
    secs: 1518208714
    nsecs: 334648132
  frame_id: "swarmone/map"
child_frame_id: "swarmone/base_link"
pose: 
  pose: 
    position: 
      x: 0.351457308482
      y: 4.04588516657
      z: 0.0
    orientation: 
      x: 0.0
      y: 0.0
      z: 0.68528867157
      w: 0.728271540442
  covariance: [1783337885552.9255, -120686322864.48245, 0.0, 0.0, 0.0, -1.6881642959182982e-23, -120686322864.48225, 8195319809.900597, 0.0, 0.0, 0.0, 1.02757420389539e-24, 0.0, 0.0, 4.999749016530462e-07, -1.7306034176371193e-29, -7.178437568800227e-26, 0.0, 0.0, 0.0, -1.7306034176371196e-29, 4.999749016666293e-07, 6.511383692528092e-35, 0.0, 0.0, 0.0, -7.178437568800229e-26, -6.511383702428813e-35, 4.999749016666293e-07, 0.0, -1.6881642959182988e-23, 1.0275742038953903e-24, 0.0, 0.0, 0.0, 9.999979930759214e-10]
twist: 
  twist: 
    linear: 
      x: 2.72530004629e-10
      y: 0.0
      z: 0.0
    angular: 
      x: 0.0
      y: 0.0
      z: 0.0399999999996
  covariance: [0.011002204255913793, 0.0, 0.0, 0.0, 0.0, 0.0, 0.0, 18061270.655749537, 0.0, 0.0, 0.0, 0.0, 0.0, 0.0, 4.999974898610983e-07, -1.350633519688313e-35, -8.220014878141534e-37, 0.0, 0.0, 0.0, -1.3506335196883134e-35, 4.999749016284837e-07, -2.8048259118543722e-39, 0.0, 0.0, 0.0, -8.220014878141536e-37, 2.8048259118540296e-39, 4.999749016284837e-07, 0.0, 0.0, 0.0, 0.0, 0.0, 0.0, 9.999998996434089e-10]
---
header: 
  seq: 8153
  stamp: 
    secs: 1518208714
    nsecs: 435123205
  frame_id: "swarmone/map"
child_frame_id: "swarmone/base_link"
pose: 
  pose: 
    position: 
      x: 0.351457308495
      y: 4.0458851668
      z: 0.0
    orientation: 
      x: 0.0
      y: 0.0
      z: 0.681638770232
      w: 0.731688859363
  covariance: [1784440269162.7139, -120757602123.0196, 0.0, 0.0, 0.0, -2.6181416113771196e-23, -120757602123.01942, 8199912848.389863, 0.0, 0.0, 0.0, 1.5936807008434633e-24, 0.0, 0.0, 4.999751171365567e-07, -6.598910405099302e-29, -2.7136723085245754e-25, 0.0, 0.0, 0.0, -6.598910405099304e-29, 4.99975117143446e-07, 1.9205298736825885e-34, 0.0, 0.0, 0.0, -2.713672308524575e-25, -1.9205298873813602e-34, 4.99975117143446e-07, 0.0, -2.6181416113771193e-23, 1.5936807008434633e-24, 0.0, 0.0, 0.0, 9.99998009529312e-10]
twist: 
  twist: 
    linear: 
      x: 1.59723586782e-09
      y: 0.0
      z: 0.0
    angular: 
      x: 0.0
      y: 0.0
      z: 0.0399999999995
  covariance: [0.011106766569984623, 0.0, 0.0, 0.0, 0.0, 0.0, 0.0, 18067949.339880925, 0.0, 0.0, 0.0, 0.0, 0.0, 0.0, 4.999975114550412e-07, -9.458982293194603e-36, -5.753540053549039e-37, 0.0, 0.0, 0.0, -9.45898229319461e-36, 4.9997511711293e-07, -2.975975972381737e-39, 0.0, 0.0, 0.0, -5.753540053549043e-37, 2.975825884442807e-39, 4.9997511711293e-07, 0.0, 0.0, 0.0, 0.0, 0.0, 0.0, 9.99999900472846e-10]
---
header: 
  seq: 8154
  stamp: 
    secs: 1518208714
    nsecs: 534992695
  frame_id: "swarmone/map"
child_frame_id: "swarmone/base_link"
pose: 
  pose: 
    position: 
      x: 0.351457308502
      y: 4.0458851669
      z: 0.0
    orientation: 
      x: 0.0
      y: 0.0
      z: 0.685288664279
      w: 0.728271547303
  covariance: [1785535826059.49, -120833940431.11932, 0.0, 0.0, 0.0, -5.970211816033981e-23, -120833940431.11917, 8205230429.835275, 0.0, 0.0, 0.0, 4.233642901294659e-24, 0.0, 0.0, 4.999749580590518e-07, -7.072576544535114e-29, -2.514175843759702e-25, 0.0, 0.0, 0.0, -7.072576544535114e-29, 4.99974958072631e-07, -1.2967698177930751e-34, 0.0, 0.0, 0.0, -2.514175843759702e-25, 1.2967698042860393e-34, 4.99974958072631e-07, 0.0, -5.970211816033981e-23, 4.233642901294659e-24, 0.0, 0.0, 0.0, 9.999979975962934e-10]
twist: 
  twist: 
    linear: 
      x: 1.16011364746e-09
      y: 0.0
      z: 0.0
    angular: 
      x: 0.0
      y: 0.0
      z: 0.0400000000006
  covariance: [0.011029348614831336, 0.0, 0.0, 0.0, 0.0, 0.0, 0.0, 18074589.401630152, 0.0, 0.0, 0.0, 0.0, 0.0, 0.0, 4.999974955027784e-07, -4.0961953849059203e-35, -2.9043777739522897e-36, 0.0, 0.0, 0.0, -4.09619538490592e-35, 4.999749580344845e-07, 5.041050262373367e-39, 0.0, 0.0, 0.0, -2.90437777395229e-36, -5.042326063271291e-39, 4.999749580344845e-07, 0.0, 0.0, 0.0, 0.0, 0.0, 0.0, 9.99999899869334e-10]
---
header: 
  seq: 8155
  stamp: 
    secs: 1518208714
    nsecs: 634451389
  frame_id: "swarmone/map"
child_frame_id: "swarmone/base_link"
pose: 
  pose: 
    position: 
      x: 0.351457308514
      y: 4.04588516708
      z: 0.0
    orientation: 
      x: 0.0
      y: 0.0
      z: 0.68528867157
      w: 0.728271540442
  covariance: [1786628130524.643, -120904566561.63254, 0.0, 0.0, 0.0, -7.456426442364182e-23, -120904566561.63237, 8209781291.389422, 0.0, 0.0, 0.0, 4.5386898202743056e-24, 0.0, 0.0, 4.999748555890001e-07, -8.142161558694557e-29, -3.383481733063843e-25, 0.0, 0.0, 0.0, -8.142161558694556e-29, 4.99974855602248e-07, -6.538610183942847e-35, 0.0, 0.0, 0.0, -3.383481733063843e-25, 6.538609971752972e-35, 4.99974855602248e-07, 0.0, -7.456426442364182e-23, 4.5386898202743056e-24, 0.0, 0.0, 0.0, 9.999979893087824e-10]
twist: 
  twist: 
    linear: 
      x: 1.60161434795e-09
      y: 0.0
      z: 0.0
    angular: 
      x: 0.0
      y: 0.0
      z: 0.0399999999996
  covariance: [0.010980132870182647, 0.0, 0.0, 0.0, 0.0, 0.0, 0.0, 18081203.767295618, 0.0, 0.0, 0.0, 0.0, 0.0, 0.0, 4.999974852558103e-07, -5.01459693027859e-35, -3.051585967859729e-36, 0.0, 0.0, 0.0, -5.014596930278592e-35, 4.999748555644744e-07, 7.548511396213085e-39, 0.0, 0.0, 0.0, -3.05158596785973e-36, -7.550413125837797e-39, 4.999748555644744e-07, 0.0, 0.0, 0.0, 0.0, 0.0, 0.0, 9.999998994557642e-10]
---
header: 
  seq: 8156
  stamp: 
    secs: 1518208714
    nsecs: 735249281
  frame_id: "swarmone/map"
child_frame_id: "swarmone/base_link"
pose: 
  pose: 
    position: 
      x: 0.351457308523
      y: 4.04588516724
      z: 0.0
    orientation: 
      x: 0.0
      y: 0.0
      z: 0.677971827981
      w: 0.735087886218
  covariance: [1787735687508.6106, -120976178253.79561, 0.0, 0.0, 0.0, -2.5837765966140263e-23, -120976178253.79544, 8214395632.289761, 0.0, 0.0, 0.0, 1.5727627285971153e-24, 0.0, 0.0, 4.99975196883411e-07, -6.584325819548303e-29, -2.69902946133669e-25, 0.0, 0.0, 0.0, -6.584325819548307e-29, 4.999751968901653e-07, 2.0890836014682567e-39, 0.0, 0.0, 0.0, -2.69902946133669e-25, -2.0904471390810763e-39, 4.999751968901653e-07, 0.0, -2.5837765966140263e-23, 1.5727627285971153e-24, 0.0, 0.0, 0.0, 9.999980159032912e-10]
twist: 
  twist: 
    linear: 
      x: 1.60148229637e-09
      y: 0.0
      z: 0.0
    angular: 
      x: 0.0
      y: 0.0
      z: 0.0399999999992
  covariance: [0.011145874974555133, 0.0, 0.0, 0.0, 0.0, 0.0, 0.0, 18087908.840671387, 0.0, 0.0, 0.0, 0.0, 0.0, 0.0, 4.999975194319569e-07, -9.123517876897216e-36, -5.549366948421829e-37, 0.0, 0.0, 0.0, -9.123517876897214e-36, 4.999751968598032e-07, -7.905513556912125e-39, 0.0, 0.0, 0.0, -5.549366948421829e-37, 7.905349026030916e-39, 4.999751968598032e-07, 0.0, 0.0, 0.0, 0.0, 0.0, 0.0, 9.99999900791595e-10]
---
header: 
  seq: 8157
  stamp: 
    secs: 1518208714
    nsecs: 834715128
  frame_id: "swarmone/map"
child_frame_id: "swarmone/base_link"
pose: 
  pose: 
    position: 
      x: 0.351457308536
      y: 4.0458851674
      z: 0.0
    orientation: 
      x: 0.0
      y: 0.0
      z: 0.68892142615
      w: 0.724836028762
  covariance: [1788827596097.596, -121057752269.78693, 0.0, 0.0, 0.0, -7.960729498609296e-23, -121057752269.78674, 8220447014.466191, 0.0, 0.0, 0.0, 6.445845169694007e-24, 0.0, 0.0, 4.999748565748968e-07, -1.0900360433229347e-28, -3.409843750711722e-25, 0.0, 0.0, 0.0, -1.090036043322935e-28, 4.999748565884632e-07, -7.438460361600773e-39, 0.0, 0.0, 0.0, -3.4098437507117228e-25, 7.435642724397044e-39, 4.999748565884632e-07, 0.0, -7.960729498609296e-23, 6.445845169694007e-24, 0.0, 0.0, 0.0, 9.999979894666935e-10]
twist: 
  twist: 
    linear: 
      x: 1.59789021317e-09
      y: 0.0
      z: 0.0
    angular: 
      x: 0.0
      y: 0.0
      z: 0.0400000000026
  covariance: [0.010980622447591595, 0.0, 0.0, 0.0, 0.0, 0.0, 0.0, 18094526.931191448, 0.0, 0.0, 0.0, 0.0, 0.0, 0.0, 4.999974853523385e-07, -5.434108429483533e-35, -4.399660642885476e-36, 0.0, 0.0, 0.0, -5.434108429483533e-35, 4.999748565503365e-07, 3.131352378424395e-38, 0.0, 0.0, 0.0, -4.399660642885477e-36, -3.1316154945577456e-38, 4.999748565503365e-07, 0.0, 0.0, 0.0, 0.0, 0.0, 0.0, 9.99999899462994e-10]
---
header: 
  seq: 8158
  stamp: 
    secs: 1518208714
    nsecs: 935172558
  frame_id: "swarmone/map"
child_frame_id: "swarmone/base_link"
pose: 
  pose: 
    position: 
      x: 0.351457308504
      y: 4.04588516681
      z: 0.0
    orientation: 
      x: 0.0
      y: 0.0
      z: 0.68528867882
      w: 0.72827153362
  covariance: [1789933114800.514, -121123687437.97684, 0.0, 0.0, 0.0, 5.449289417191086e-23, -121123687437.97665, 8224293852.000011, 0.0, 0.0, 0.0, -2.770385774845739e-24, 0.0, 0.0, 4.999751128720554e-07, 1.1728039903181166e-28, 5.772314500129023e-25, 0.0, 0.0, 0.0, 1.1728039903181164e-28, 4.999751128787705e-07, -1.2690439104716078e-38, 0.0, 0.0, 0.0, 5.772314500129025e-25, 1.2684917810832493e-38, 4.999751128787705e-07, 0.0, 5.449289417191086e-23, -2.7703857748457392e-24, 0.0, 0.0, 0.0, 9.999980091778175e-10]
twist: 
  twist: 
    linear: 
      x: -3.65327930553e-09
      y: 0.0
      z: 0.0
    angular: 
      x: 0.0
      y: 0.0
      z: 0.0399999999996
  covariance: [0.011104680295674508, 0.0, 0.0, 0.0, 0.0, 0.0, 0.0, 18101212.63630702, 0.0, 0.0, 0.0, 0.0, 0.0, 0.0, 4.999975110296987e-07, 1.8023793382775844e-35, 9.164982412497163e-37, 0.0, 0.0, 0.0, 1.8023793382775838e-35, 4.999751128484678e-07, 2.9850572137033895e-39, 0.0, 0.0, 0.0, 9.16498241249716e-37, -2.9853217308959145e-39, 4.999751128484678e-07, 0.0, 0.0, 0.0, 0.0, 0.0, 0.0, 9.999999004553665e-10]
---
header: 
  seq: 8159
  stamp: 
    secs: 1518208715
    nsecs:  34683228
  frame_id: "swarmone/map"
child_frame_id: "swarmone/base_link"
pose: 
  pose: 
    position: 
      x: 0.351457308541
      y: 4.04588516742
      z: 0.0
    orientation: 
      x: 0.0
      y: 0.0
      z: 0.68528867157
      w: 0.728271540442
  covariance: [1791028140906.891, -121194486821.91336, 0.0, 0.0, 0.0, -4.7135332860796304e-23, -121194486821.91321, 8228855731.049735, 0.0, 0.0, 0.0, 2.8691600975566395e-24, 0.0, 0.0, 4.999748759744791e-07, -1.188010408195669e-28, -4.9326268602333595e-25, 0.0, 0.0, 0.0, -1.1880104081956687e-28, 4.999748759815e-07, -4.280196229184854e-39, 0.0, 0.0, 0.0, -4.932626860233358e-25, 4.2757396587067116e-39, 4.999748759815e-07, 0.0, -4.713533286079631e-23, 2.8691600975566402e-24, 0.0, 0.0, 0.0, 9.999979902382042e-10]
twist: 
  twist: 
    linear: 
      x: 2.95655707192e-09
      y: 0.0
      z: 0.0
    angular: 
      x: 0.0
      y: 0.0
      z: 0.0399999999999
  covariance: [0.010990096746230499, 0.0, 0.0, 0.0, 0.0, 0.0, 0.0, 18107836.95550337, 0.0, 0.0, 0.0, 0.0, 0.0, 0.0, 4.999974873338386e-07, -1.7015575624971596e-35, -1.0349843032171824e-36, 0.0, 0.0, 0.0, -1.70155756249716e-35, 4.99974875950853e-07, 9.131951361540477e-39, 0.0, 0.0, 0.0, -1.034984303217183e-36, -9.132347023911049e-39, 4.99974875950853e-07, 0.0, 0.0, 0.0, 0.0, 0.0, 0.0, 9.999998995082833e-10]
---
header: 
  seq: 8160
  stamp: 
    secs: 1518208715
    nsecs: 134493828
  frame_id: "swarmone/map"
child_frame_id: "swarmone/base_link"
pose: 
  pose: 
    position: 
      x: 0.351457308531
      y: 4.04588516727
      z: 0.0
    orientation: 
      x: 0.0
      y: 0.0
      z: 0.688921440748
      w: 0.724836014887
  covariance: [1792127005288.7031, -121265533109.16586, 0.0, 0.0, 0.0, 9.616969015501584e-25, -121265533109.16571, 8233433447.039583, 0.0, 0.0, 0.0, -5.853916632882386e-26, 0.0, 0.0, 4.99974951582675e-07, 2.4771564510622743e-30, 1.0254325641531467e-26, 0.0, 0.0, 0.0, 2.477156451062274e-30, 4.999749515894701e-07, 6.487478867666107e-35, 0.0, 0.0, 0.0, 1.0254325641531466e-26, -6.487478867868952e-35, 4.999749515894701e-07, 0.0, 9.616969015501586e-25, -5.853916632882387e-26, 0.0, 0.0, 0.0, 9.999979962757982e-10]
twist: 
  twist: 
    linear: 
      x: -1.21873921188e-10
      y: 0.0
      z: 0.0
    angular: 
      x: 0.0
      y: 0.0
      z: 0.0400000000002
  covariance: [0.011026381456621458, 0.0, 0.0, 0.0, 0.0, 0.0, 0.0, 18114482.86403445, 0.0, 0.0, 0.0, 0.0, 0.0, 0.0, 4.999974948974406e-07, 5.009995765481761e-38, 3.033784980455543e-39, 0.0, 0.0, 0.0, 5.009995765481762e-38, 4.999749515590881e-07, -6.001089189511834e-39, 0.0, 0.0, 0.0, 3.033784980455544e-39, 6.001089189490449e-39, 4.999749515590881e-07, 0.0, 0.0, 0.0, 0.0, 0.0, 0.0, 9.999998998102605e-10]
---
header: 
  seq: 8161
  stamp: 
    secs: 1518208715
    nsecs: 234963179
  frame_id: "swarmone/map"
child_frame_id: "swarmone/base_link"
pose: 
  pose: 
    position: 
      x: 0.351457308555
      y: 4.0458851677
      z: 0.0
    orientation: 
      x: 0.0
      y: 0.0
      z: 0.685288678819
      w: 0.728271533621
  covariance: [1793234284748.1736, -121331567410.85628, 0.0, 0.0, 0.0, -6.359295556750991e-23, -121331567410.85612, 8237285807.792423, 0.0, 0.0, 0.0, 3.2330145676983087e-24, 0.0, 0.0, 4.999751144252583e-07, -1.065176813561102e-28, -5.242326535607057e-25, 0.0, 0.0, 0.0, -1.0651768135611018e-28, 4.999751144340381e-07, -6.405079463728848e-35, 0.0, 0.0, 0.0, -5.242326535607057e-25, 6.405079035787071e-35, 4.999751144340381e-07, 0.0, -6.359295556750989e-23, 3.233014567698309e-24, 0.0, 0.0, 0.0, 9.999980094388056e-10]
twist: 
  twist: 
    linear: 
      x: 2.95531031233e-09
      y: 0.0
      z: 0.0
    angular: 
      x: 0.0
      y: 0.0
      z: 0.0399999999994
  covariance: [0.011105359353214814, 0.0, 0.0, 0.0, 0.0, 0.0, 0.0, 18121174.27764961, 0.0, 0.0, 0.0, 0.0, 0.0, 0.0, 4.999975111718763e-07, -2.914552485888353e-35, -1.4809366372598353e-36, 0.0, 0.0, 0.0, -2.914552485888352e-35, 4.99975114401284e-07, -8.461232962268926e-39, 0.0, 0.0, 0.0, -1.4809366372598353e-36, 8.460324089389196e-39, 4.99975114401284e-07, 0.0, 0.0, 0.0, 0.0, 0.0, 0.0, 9.999999004671772e-10]
---
header: 
  seq: 8162
  stamp: 
    secs: 1518208715
    nsecs: 334328651
  frame_id: "swarmone/map"
child_frame_id: "swarmone/base_link"
pose: 
  pose: 
    position: 
      x: 0.351457308564
      y: 4.04588516786
      z: 0.0
    orientation: 
      x: 0.0
      y: 0.0
      z: 0.681638770313
      w: 0.731688859288
  covariance: [1794329324075.458, -121402361989.43001, 0.0, 0.0, 0.0, -3.3768100854073064e-23, -121402361989.42987, 8241847052.764993, 0.0, 0.0, 0.0, 2.055485106761405e-24, 0.0, 0.0, 4.999748392063488e-07, -8.419311125521247e-29, -3.5008009747995445e-25, 0.0, 0.0, 0.0, -8.41931112552125e-29, 4.999748392134804e-07, 1.377572061807117e-39, 0.0, 0.0, 0.0, -3.5008009747995436e-25, -1.3797759794889688e-39, 4.999748392134804e-07, 0.0, -3.376810085407307e-23, 2.055485106761405e-24, 0.0, 0.0, 0.0, 9.999979873023272e-10]
twist: 
  twist: 
    linear: 
      x: 2.06401068501e-09
      y: 0.0
      z: 0.0
    angular: 
      x: 0.0
      y: 0.0
      z: 0.0399999999995
  covariance: [0.010972502440469618, 0.0, 0.0, 0.0, 0.0, 0.0, 0.0, 18127793.79188387, 0.0, 0.0, 0.0, 0.0, 0.0, 0.0, 4.999974836556625e-07, -1.252293409443612e-35, -7.61710943043255e-37, 0.0, 0.0, 0.0, -1.2522934094436113e-35, 4.99974839182704e-07, -1.3278662462024851e-39, 0.0, 0.0, 0.0, -7.617109430432546e-37, 1.3276563531480115e-39, 4.99974839182704e-07, 0.0, 0.0, 0.0, 0.0, 0.0, 0.0, 9.999998993614406e-10]
---
header: 
  seq: 8163
  stamp: 
    secs: 1518208715
    nsecs: 434799194
  frame_id: "swarmone/map"
child_frame_id: "swarmone/base_link"
pose: 
  pose: 
    position: 
      x: 0.351457308587
      y: 4.04588516818
      z: 0.0
    orientation: 
      x: 0.0
      y: 0.0
      z: 0.685288664322
      w: 0.728271547262
  covariance: [1795436355193.2808, -121479490705.42436, 0.0, 0.0, 0.0, -4.6236716577233636e-23, -121479490705.42424, 8247219030.910382, 0.0, 0.0, 0.0, 3.2788378829872823e-24, 0.0, 0.0, 4.999751160675285e-07, -1.3726778058958985e-28, -4.848779260539781e-25, 0.0, 0.0, 0.0, -1.3726778058958994e-28, 4.999751160743181e-07, -1.2804564810793459e-34, 0.0, 0.0, 0.0, -4.84877926053978e-25, 1.280456429666684e-34, 4.999751160743181e-07, 0.0, -4.6236716577233636e-23, 3.2788378829872823e-24, 0.0, 0.0, 0.0, 9.999980094386118e-10]
twist: 
  twist: 
    linear: 
      x: 2.93377720394e-09
      y: 0.0
      z: 0.0
    angular: 
      x: 0.0
      y: 0.0
      z: 0.0400000000002
  covariance: [0.01110621604641066, 0.0, 0.0, 0.0, 0.0, 0.0, 0.0, 18134488.56234531, 0.0, 0.0, 0.0, 0.0, 0.0, 0.0, 4.999975113487095e-07, -1.6073185934832684e-35, -1.1389282583119424e-36, 0.0, 0.0, 0.0, -1.6073185934832695e-35, 4.99975116043921e-07, 1.085023261420828e-40, 0.0, 0.0, 0.0, -1.1389282583119424e-36, -1.0896046462804726e-40, 4.99975116043921e-07, 0.0, 0.0, 0.0, 0.0, 0.0, 0.0, 9.999999004683586e-10]
---
header: 
  seq: 8164
  stamp: 
    secs: 1518208715
    nsecs: 534808397
  frame_id: "swarmone/map"
child_frame_id: "swarmone/base_link"
pose: 
  pose: 
    position: 
      x: 0.351457308578
      y: 4.04588516803
      z: 0.0
    orientation: 
      x: 0.0
      y: 0.0
      z: 0.688921440762
      w: 0.724836014874
  covariance: [1796539572069.5037, -121550813226.42331, 0.0, 0.0, 0.0, 1.1805977360371052e-24, -121550813226.42319, 8251814248.865089, 0.0, 0.0, 0.0, -7.186287503863088e-26, 0.0, 0.0, 4.999750011667141e-07, 2.9425124417034992e-30, 1.2156683830150875e-26, 0.0, 0.0, 0.0, 2.9425124417034995e-30, 4.99975001173757e-07, 1.9384942908185905e-34, 0.0, 0.0, 0.0, 1.2156683830150875e-26, -1.938494290847212e-34, 4.99975001173757e-07, 0.0, 1.180597736037105e-24, -7.186287503863089e-26, 0.0, 0.0, 0.0, 9.999980002578492e-10]
twist: 
  twist: 
    linear: 
      x: -1.43418829703e-10
      y: 0.0
      z: 0.0
    angular: 
      x: 0.0
      y: 0.0
      z: 0.0400000000002
  covariance: [0.011050358121592944, 0.0, 0.0, 0.0, 0.0, 0.0, 0.0, 18141154.22856618, 0.0, 0.0, 0.0, 0.0, 0.0, 0.0, 4.999974998550713e-07, 5.932596802939711e-38, 3.5921723738645667e-39, 0.0, 0.0, 0.0, 5.932596802939712e-38, 4.999750011430687e-07, 4.341170769493971e-39, 0.0, 0.0, 0.0, 3.592172373864564e-39, -4.341170769536739e-39, 4.999750011430687e-07, 0.0, 0.0, 0.0, 0.0, 0.0, 0.0, 9.999999000092216e-10]
---
header: 
  seq: 8165
  stamp: 
    secs: 1518208715
    nsecs: 634732485
  frame_id: "swarmone/map"
child_frame_id: "swarmone/base_link"
pose: 
  pose: 
    position: 
      x: 0.351457308611
      y: 4.04588516865
      z: 0.0
    orientation: 
      x: 0.0
      y: 0.0
      z: 0.69253699423
      w: 0.721382361597
  covariance: [1797643007334.5212, -121616613250.647, 0.0, 0.0, 0.0, -6.562389063480737e-23, -121616613250.64687, 8255652729.279474, 0.0, 0.0, 0.0, 3.336281975741429e-24, 0.0, 0.0, 4.99974980032192e-07, -1.4123672852786345e-28, -6.9883647110906e-25, 0.0, 0.0, 0.0, -1.4123672852786352e-28, 4.999749800389794e-07, 6.472722162798483e-35, 0.0, 0.0, 0.0, -6.988364711090598e-25, -6.472722952937339e-35, 4.999749800389794e-07, 0.0, -6.562389063480737e-23, 3.336281975741429e-24, 0.0, 0.0, 0.0, 9.999979985515596e-10]
twist: 
  twist: 
    linear: 
      x: 4.2487498931e-09
      y: 0.0
      z: 0.0
    angular: 
      x: 0.0
      y: 0.0
      z: 0.0400000000002
  covariance: [0.011040145048350013, 0.0, 0.0, 0.0, 0.0, 0.0, 0.0, 18147815.8529089, 0.0, 0.0, 0.0, 0.0, 0.0, 0.0, 4.999974977429794e-07, -2.270226837748606e-35, -1.1533056642523674e-36, 0.0, 0.0, 0.0, -2.270226837748606e-35, 4.99974980008605e-07, 7.232230359418804e-39, 0.0, 0.0, 0.0, -1.1533056642523668e-36, -7.232803387111369e-39, 4.99974980008605e-07, 0.0, 0.0, 0.0, 0.0, 0.0, 0.0, 9.999998999240493e-10]
---
header: 
  seq: 8166
  stamp: 
    secs: 1518208715
    nsecs: 735191822
  frame_id: "swarmone/map"
child_frame_id: "swarmone/base_link"
pose: 
  pose: 
    position: 
      x: 0.351457308619
      y: 4.04588516886
      z: 0.0
    orientation: 
      x: 0.0
      y: 0.0
      z: 0.681638784798
      w: 0.731688845794
  covariance: [1798753408021.1467, -121677260185.01494, 0.0, 0.0, 0.0, -1.3459984659383183e-22, -121677260185.0148, 8258753626.37815, 0.0, 0.0, 0.0, 5.4939773852996364e-24, 0.0, 0.0, 4.99975106012044e-07, -9.770926996652336e-29, -5.988902903509556e-25, 0.0, 0.0, 0.0, -9.770926996652329e-29, 4.999751060251913e-07, 6.408247989644833e-35, 0.0, 0.0, 0.0, -5.988902903509552e-25, -6.408248438945521e-35, 4.999751060251913e-07, 0.0, -1.3459984659383178e-22, 5.493977385299638e-24, 0.0, 0.0, 0.0, 9.99998009340298e-10]
twist: 
  twist: 
    linear: 
      x: 2.91365310084e-09
      y: 0.0
      z: 0.0
    angular: 
      x: 0.0
      y: 0.0
      z: 0.0399999999968
  covariance: [0.011101149906022088, 0.0, 0.0, 0.0, 0.0, 0.0, 0.0, 18154514.8044059, 0.0, 0.0, 0.0, 0.0, 0.0, 0.0, 4.999975103037721e-07, -8.729997958497411e-35, -3.562314491991741e-36, 0.0, 0.0, 0.0, -8.729997958497415e-35, 4.999751059875121e-07, -2.3268472421804734e-39, 0.0, 0.0, 0.0, -3.562314491991742e-36, 2.3228225337964196e-39, 4.999751059875121e-07, 0.0, 0.0, 0.0, 0.0, 0.0, 0.0, 9.999999004572524e-10]
---
header: 
  seq: 8167
  stamp: 
    secs: 1518208715
    nsecs: 834675550
  frame_id: "swarmone/map"
child_frame_id: "swarmone/base_link"
pose: 
  pose: 
    position: 
      x: 0.351457308663
      y: 4.04588516951
      z: 0.0
    orientation: 
      x: 0.0
      y: 0.0
      z: 0.688921433438
      w: 0.724836021835
  covariance: [1799851722717.8518, -121753772823.47179, 0.0, 0.0, 0.0, -8.646284158153931e-23, -121753772823.47165, 8264082060.686152, 0.0, 0.0, 0.0, 6.131429396055463e-24, 0.0, 0.0, 4.999748692242859e-07, -2.5669001533173158e-28, -9.156792409021463e-25, 0.0, 0.0, 0.0, -2.566900153317316e-28, 4.999748692312096e-07, 6.53072728749293e-35, 0.0, 0.0, 0.0, -9.15679240902146e-25, -6.530729139539355e-35, 4.999748692312096e-07, 0.0, -8.646284158153933e-23, 6.1314293960554625e-24, 0.0, 0.0, 0.0, 9.999979896929704e-10]
twist: 
  twist: 
    linear: 
      x: 5.52374247265e-09
      y: 0.0
      z: 0.0
    angular: 
      x: 0.0
      y: 0.0
      z: 0.0400000000005
  covariance: [0.010986882307323882, 0.0, 0.0, 0.0, 0.0, 0.0, 0.0, 18161150.323570002, 0.0, 0.0, 0.0, 0.0, 0.0, 0.0, 4.999974866592838e-07, -3.0743725095898083e-35, -2.1771694495831445e-36, 0.0, 0.0, 0.0, -3.0743725095898094e-35, 4.999748692006793e-07, 1.4170768586677769e-39, 0.0, 0.0, 0.0, -2.177169449583145e-36, -1.4184893174398032e-39, 4.999748692006793e-07, 0.0, 0.0, 0.0, 0.0, 0.0, 0.0, 9.999998994810689e-10]
---
header: 
  seq: 8168
  stamp: 
    secs: 1518208715
    nsecs: 934442997
  frame_id: "swarmone/map"
child_frame_id: "swarmone/base_link"
pose: 
  pose: 
    position: 
      x: 0.351457308646
      y: 4.04588516922
      z: 0.0
    orientation: 
      x: 0.0
      y: 0.0
      z: 0.68528867887
      w: 0.728271533573
  covariance: [1800955050730.3171, -121819558943.46764, 0.0, 0.0, 0.0, 1.5707112095628343e-24, -121819558943.46747, 8267919404.751715, 0.0, 0.0, 0.0, -7.985061918056908e-26, 0.0, 0.0, 4.999749406941238e-07, 3.341454523497649e-30, 1.6559346832286315e-26, 0.0, 0.0, 0.0, 3.3414545234976496e-30, 4.999749407010252e-07, 6.492672762403055e-35, 0.0, 0.0, 0.0, 1.6559346832286315e-26, -6.492672762844718e-35, 4.999749407010252e-07, 0.0, 1.5707112095628346e-24, -7.98506191805691e-26, 0.0, 0.0, 0.0, 9.999979954100292e-10]
twist: 
  twist: 
    linear: 
      x: -1.95468148825e-10
      y: 0.0
      z: 0.0
    angular: 
      x: 0.0
      y: 0.0
      z: 0.0300000010019
  covariance: [0.011021141343392694, 0.0, 0.0, 0.0, 0.0, 0.0, 0.0, 18167806.390196294, 0.0, 0.0, 0.0, 0.0, 0.0, 0.0, 4.999974938077498e-07, 8.337147975263532e-38, 4.2170809095745014e-39, 0.0, 0.0, 0.0, 8.337147975263529e-38, 4.99974940670517e-07, -8.229468126927009e-39, 0.0, 0.0, 0.0, 4.2170809095745027e-39, 8.229468126851871e-39, 4.99974940670517e-07, 0.0, 0.0, 0.0, 0.0, 0.0, 0.0, 9.999998997669241e-10]
---
header: 
  seq: 8169
  stamp: 
    secs: 1518208716
    nsecs:  34888268
  frame_id: "swarmone/map"
child_frame_id: "swarmone/base_link"
pose: 
  pose: 
    position: 
      x: 0.351457308672
      y: 4.04588516966
      z: 0.0
    orientation: 
      x: 0.0
      y: 0.0
      z: 0.685288670842
      w: 0.728271541127
  covariance: [1802065800077.1409, -121891356524.69995, 0.0, 0.0, 0.0, -4.658123756677586e-23, -121891356524.69978, 8272544548.683514, 0.0, 0.0, 0.0, 2.835438455585088e-24, 0.0, 0.0, 4.999751097534274e-07, -8.805458593883578e-29, -4.824689534390049e-25, 0.0, 0.0, 0.0, -8.805458593883574e-29, 4.999751097569321e-07, -1.9218094287071782e-34, 0.0, 0.0, 0.0, -4.82468953439005e-25, 1.9218093966550293e-34, 4.999751097569321e-07, 0.0, -4.6581237566775866e-23, 2.8354384555850888e-24, 0.0, 0.0, 0.0, 9.999980089387185e-10]
twist: 
  twist: 
    linear: 
      x: 2.88822446699e-09
      y: 0.0
      z: 0.0
    angular: 
      x: 0.0
      y: 0.0
      z: 0.0399999990043
  covariance: [0.011103140012593568, 0.0, 0.0, 0.0, 0.0, 0.0, 0.0, 18174509.32111914, 0.0, 0.0, 0.0, 0.0, 0.0, 0.0, 4.999975107165761e-07, -1.6596610012991353e-35, -1.009679100727951e-36, 0.0, 0.0, 0.0, -1.659661001299136e-35, 4.999751097298005e-07, -9.306769122041499e-40, 0.0, 0.0, 0.0, -1.009679100727951e-36, 9.303072111814034e-40, 4.999751097298005e-07, 0.0, 0.0, 0.0, 0.0, 0.0, 0.0, 9.999999004433161e-10]
---
header: 
  seq: 8170
  stamp: 
    secs: 1518208716
    nsecs: 134853601
  frame_id: "swarmone/map"
child_frame_id: "swarmone/base_link"
pose: 
  pose: 
    position: 
      x: 0.351457308682
      y: 4.04588516981
      z: 0.0
    orientation: 
      x: 0.0
      y: 0.0
      z: 0.681638770269
      w: 0.731688859329
  covariance: [1803171785755.505, -121962844818.01544, 0.0, 0.0, 0.0, -3.2792327590325754e-23, -121962844818.01526, 8277149688.839785, 0.0, 0.0, 0.0, 1.99609146866722e-24, 0.0, 0.0, 4.999749902492054e-07, -8.265252796360137e-29, -3.4161880555786447e-25, 0.0, 0.0, 0.0, -8.265252796360137e-29, 4.999749902561639e-07, -1.9401434930189093e-34, 0.0, 0.0, 0.0, -3.4161880555786438e-25, 1.940143471828924e-34, 4.999749902561639e-07, 0.0, -3.279232759032575e-23, 1.99609146866722e-24, 0.0, 0.0, 0.0, 9.999979993792996e-10]
twist: 
  twist: 
    linear: 
      x: 2.00393809913e-09
      y: 0.0
      z: 0.0
    angular: 
      x: 0.0
      y: 0.0
      z: 0.0399999999995
  covariance: [0.011045086721046805, 0.0, 0.0, 0.0, 0.0, 0.0, 0.0, 18181181.86151157, 0.0, 0.0, 0.0, 0.0, 0.0, 0.0, 4.999974987636841e-07, -1.2006574519314631e-35, -7.303216452668801e-37, 0.0, 0.0, 0.0, -1.2006574519314627e-35, 4.999749902255791e-07, 2.0575375590479132e-39, 0.0, 0.0, 0.0, -7.3032164526687986e-37, -2.0577997088977245e-39, 4.999749902255791e-07, 0.0, 0.0, 0.0, 0.0, 0.0, 0.0, 9.999998999653416e-10]
---
header: 
  seq: 8171
  stamp: 
    secs: 1518208716
    nsecs: 234309435
  frame_id: "swarmone/map"
child_frame_id: "swarmone/base_link"
pose: 
  pose: 
    position: 
      x: 0.351457308704
      y: 4.04588517013
      z: 0.0
    orientation: 
      x: 0.0
      y: 0.0
      z: 0.68163876295
      w: 0.731688866148
  covariance: [1804271947646.1833, -122039480347.96126, 0.0, 0.0, 0.0, -1.328103403905261e-22, -122039480347.96106, 8282486266.741372, 0.0, 0.0, 0.0, 9.417970712892191e-24, 0.0, 0.0, 4.999748548067272e-07, -1.6822168776938244e-28, -6.004526863792531e-25, 0.0, 0.0, 0.0, -1.682216877693824e-28, 4.999748548199903e-07, 1.307320796564283e-34, 0.0, 0.0, 0.0, -6.00452686379253e-25, -1.3073208734337435e-34, 4.999748548199903e-07, 0.0, -1.3281034039052608e-22, 9.417970712892191e-24, 0.0, 0.0, 0.0, 9.99997989251887e-10]
twist: 
  twist: 
    linear: 
      x: 2.87810845644e-09
      y: 0.0
      z: 0.0
    angular: 
      x: 0.0
      y: 0.0
      z: 0.0399999999996
  covariance: [0.01097975951785175, 0.0, 0.0, 0.0, 0.0, 0.0, 0.0, 18187822.013986107, 0.0, 0.0, 0.0, 0.0, 0.0, 0.0, 4.999974851774078e-07, -8.834382273562124e-35, -6.263843569304032e-36, 0.0, 0.0, 0.0, -8.834382273562127e-35, 4.99974854782199e-07, -1.7833120969183965e-39, 0.0, 0.0, 0.0, -6.263843569304035e-36, 1.7758824492973573e-39, 4.99974854782199e-07, 0.0, 0.0, 0.0, 0.0, 0.0, 0.0, 9.99999899452872e-10]
---
header: 
  seq: 8172
  stamp: 
    secs: 1518208716
    nsecs: 334681749
  frame_id: "swarmone/map"
child_frame_id: "swarmone/base_link"
pose: 
  pose: 
    position: 
      x: 0.351457308711
      y: 4.04588517023
      z: 0.0
    orientation: 
      x: 0.0
      y: 0.0
      z: 0.677971820719
      w: 0.735087892915
  covariance: [1805382791392.5251, -122116861186.98344, 0.0, 0.0, 0.0, -2.5449402973396197e-23, -122116861186.98323, 8287874829.999995, 0.0, 0.0, 0.0, 1.804723901606446e-24, 0.0, 0.0, 4.999750917140509e-07, -7.555450361474915e-29, -2.6714510236920404e-25, 0.0, 0.0, 0.0, -7.555450361474915e-29, 4.999750917208539e-07, -1.2830813537505633e-34, 0.0, 0.0, 0.0, -2.671451023692041e-25, 1.2830813382381593e-34, 4.999750917208539e-07, 0.0, -2.5449402973396197e-23, 1.8047239016064455e-24, 0.0, 0.0, 0.0, 9.999980074905122e-10]
twist: 
  twist: 
    linear: 
      x: 1.55643029212e-09
      y: 0.0
      z: 0.0
    angular: 
      x: 0.0
      y: 0.0
      z: 0.0399999999996
  covariance: [0.011094320033303835, 0.0, 0.0, 0.0, 0.0, 0.0, 0.0, 18194524.994135633, 0.0, 0.0, 0.0, 0.0, 0.0, 0.0, 4.999975089128607e-07, -9.164142050431464e-36, -6.4938696292914906e-37, 0.0, 0.0, 0.0, -9.164142050431464e-36, 4.999750916904435e-07, 1.3368012516574446e-38, 0.0, 0.0, 0.0, -6.493869629291486e-37, -1.3368033670054437e-38, 4.999750916904435e-07, 0.0, 0.0, 0.0, 0.0, 0.0, 0.0, 9.999999003709527e-10]
---
header: 
  seq: 8173
  stamp: 
    secs: 1518208716
    nsecs: 434558153
  frame_id: "swarmone/map"
child_frame_id: "swarmone/base_link"
pose: 
  pose: 
    position: 
      x: 0.351457308706
      y: 4.04588517014
      z: 0.0
    orientation: 
      x: 0.0
      y: 0.0
      z: 0.681638755624
      w: 0.731688872972
  covariance: [1806487849791.0393, -122199397628.4347, 0.0, 0.0, 0.0, 1.6083840827122522e-24, -122199397628.43445, 8293995836.585033, 0.0, 0.0, 0.0, -1.3023441394011704e-25, 0.0, 0.0, 4.999749678182438e-07, 5.22126275250185e-30, 1.626060765014828e-26, 0.0, 0.0, 0.0, 5.22126275250185e-30, 4.99974967825463e-07, 1.295975900043481e-34, 0.0, 0.0, 0.0, 1.626060765014828e-26, -1.295975900111323e-34, 4.99974967825463e-07, 0.0, 1.608384082712252e-24, -1.3023441394011704e-25, 0.0, 0.0, 0.0, 9.999979976007505e-10]
twist: 
  twist: 
    linear: 
      x: -1.89267956917e-10
      y: 0.0
      z: 0.0
    angular: 
      x: 0.0
      y: 0.0
      z: 0.0400000000002
  covariance: [0.011034221325774867, 0.0, 0.0, 0.0, 0.0, 0.0, 0.0, 18201196.491297655, 0.0, 0.0, 0.0, 0.0, 0.0, 0.0, 4.99997496518375e-07, 8.381112395807017e-38, 6.75217327066558e-39, 0.0, 0.0, 0.0, 8.381112395807018e-38, 4.999749677945622e-07, 8.194924720845122e-39, 0.0, 0.0, 0.0, 6.752173270665581e-39, -8.194924720802355e-39, 4.999749677945622e-07, 0.0, 0.0, 0.0, 0.0, 0.0, 0.0, 9.999998998762704e-10]
---
header: 
  seq: 8174
  stamp: 
    secs: 1518208716
    nsecs: 534948587
  frame_id: "swarmone/map"
child_frame_id: "swarmone/base_link"
pose: 
  pose: 
    position: 
      x: 0.351457308731
      y: 4.04588517051
      z: 0.0
    orientation: 
      x: 0.0
      y: 0.0
      z: 0.68892143357
      w: 0.72483602171
  covariance: [1807599984958.7727, -122276871316.30505, 0.0, 0.0, 0.0, -4.031832321518821e-23, -122276871316.30484, 8299391074.113976, 0.0, 0.0, 0.0, 2.8591414040535617e-24, 0.0, 0.0, 4.999750961039123e-07, -1.1710969922258007e-28, -4.140031847340679e-25, 0.0, 0.0, 0.0, -1.1710969922258005e-28, 4.999750961108944e-07, -1.28262283970431e-34, 0.0, 0.0, 0.0, -4.140031847340678e-25, 1.282622802851598e-34, 4.999750961108944e-07, 0.0, -4.0318323215188216e-23, 2.859141404053562e-24, 0.0, 0.0, 0.0, 9.999980078520625e-10]
twist: 
  twist: 
    linear: 
      x: 2.45606364537e-09
      y: 0.0
      z: 0.0
    angular: 
      x: 0.0
      y: 0.0
      z: 0.0300000009966
  covariance: [0.01109649135158809, 0.0, 0.0, 0.0, 0.0, 0.0, 0.0, 18207903.967691023, 0.0, 0.0, 0.0, 0.0, 0.0, 0.0, 4.999975093507577e-07, -1.4647280902299285e-35, -1.0379579438015781e-36, 0.0, 0.0, 0.0, -1.4647280902299288e-35, 4.999750960802668e-07, 3.159456232293682e-39, 0.0, 0.0, 0.0, -1.0379579438015792e-36, -3.159736217323742e-39, 4.999750960802668e-07, 0.0, 0.0, 0.0, 0.0, 0.0, 0.0, 9.999999003889352e-10]
---
header: 
  seq: 8175
  stamp: 
    secs: 1518208716
    nsecs: 634684801
  frame_id: "swarmone/map"
child_frame_id: "swarmone/base_link"
pose: 
  pose: 
    position: 
      x: 0.35145730874
      y: 4.04588517069
      z: 0.0
    orientation: 
      x: 0.0
      y: 0.0
      z: 0.68163877689
      w: 0.731688853161
  covariance: [1808706761414.0237, -122342861378.21448, 0.0, 0.0, 0.0, -3.289058370278074e-23, -122342861378.21426, 8303240244.719681, 0.0, 0.0, 0.0, 1.6721459260076002e-24, 0.0, 0.0, 4.999749327926465e-07, -5.192899227319332e-29, -3.428943931050541e-25, 0.0, 0.0, 0.0, -5.192899227319333e-29, 4.999749327962296e-07, -1.299423162687741e-34, 0.0, 0.0, 0.0, -3.4289439310505415e-25, 1.2994231491755014e-34, 4.999749327962296e-07, 0.0, -3.289058370278075e-23, 1.6721459260076002e-24, 0.0, 0.0, 0.0, 9.999979947832182e-10]
twist: 
  twist: 
    linear: 
      x: 2.01330485448e-09
      y: 0.0
      z: 0.0
    angular: 
      x: 0.0
      y: 0.0
      z: 0.0399999989966
  covariance: [0.011017377425686842, 0.0, 0.0, 0.0, 0.0, 0.0, 0.0, 18214569.364669945, 0.0, 0.0, 0.0, 0.0, 0.0, 0.0, 4.999974930168365e-07, -1.20625389651038e-35, -6.129412130585994e-37, 0.0, 0.0, 0.0, -1.2062538965103795e-35, 4.999749327690204e-07, -6.406315167632297e-39, 0.0, 0.0, 0.0, -6.1294121305859945e-37, 6.40629556322547e-39, 4.999749327690204e-07, 0.0, 0.0, 0.0, 0.0, 0.0, 0.0, 9.999998997355357e-10]
---
header: 
  seq: 8176
  stamp: 
    secs: 1518208716
    nsecs: 734667063
  frame_id: "swarmone/map"
child_frame_id: "swarmone/base_link"
pose: 
  pose: 
    position: 
      x: 0.351457308775
      y: 4.0458851712
      z: 0.0
    orientation: 
      x: 0.0
      y: 0.0
      z: 0.685288664287
      w: 0.728271547295
  covariance: [1809815460951.4744, -122420093135.90475, 0.0, 0.0, 0.0, -6.612163923275978e-23, -122420093135.90457, 8308618446.966329, 0.0, 0.0, 0.0, 4.688958905066532e-24, 0.0, 0.0, 4.999749945371714e-07, -1.9630171563477711e-28, -6.967800700901214e-25, 0.0, 0.0, 0.0, -1.9630171563477714e-28, 4.99974994544027e-07, 8.959887570365612e-39, 0.0, 0.0, 0.0, -6.967800700901212e-25, -8.971058946943686e-39, 4.99974994544027e-07, 0.0, -6.612163923275976e-23, 4.688958905066533e-24, 0.0, 0.0, 0.0, 9.99997999717076e-10]
twist: 
  twist: 
    linear: 
      x: 4.19994715631e-09
      y: 0.0
      z: 0.0
    angular: 
      x: 0.0
      y: 0.0
      z: 0.0400000000002
  covariance: [0.011047147051120029, 0.0, 0.0, 0.0, 0.0, 0.0, 0.0, 18221252.83760183, 0.0, 0.0, 0.0, 0.0, 0.0, 0.0, 4.999974991931684e-07, -2.3244121507326728e-35, -1.6470491533928518e-36, 0.0, 0.0, 0.0, -2.3244121507326723e-35, 4.999749945135644e-07, -8.843082319475821e-39, 0.0, 0.0, 0.0, -1.6470491533928518e-36, 8.842266351465166e-39, 4.999749945135644e-07, 0.0, 0.0, 0.0, 0.0, 0.0, 0.0, 9.99999899982278e-10]
---
header: 
  seq: 8177
  stamp: 
    secs: 1518208716
    nsecs: 835310698
  frame_id: "swarmone/map"
child_frame_id: "swarmone/base_link"
pose: 
  pose: 
    position: 
      x: 0.351457308754
      y: 4.04588517085
      z: 0.0
    orientation: 
      x: 0.0
      y: 0.0
      z: 0.68528867157
      w: 0.728271540442
  covariance: [1810932779187.6523, -122492314026.47797, 0.0, 0.0, 0.0, 1.49022127716684e-23, -122492314026.4778, 8313270784.980413, 0.0, 0.0, 0.0, -9.071071458395506e-25, 0.0, 0.0, 4.999751589186188e-07, 3.839974538207202e-29, 1.5764710602982265e-25, 0.0, 0.0, 0.0, 3.839974538207201e-29, 4.999751589253017e-07, 1.9140816606400154e-34, 0.0, 0.0, 0.0, 1.5764710602982265e-25, -1.9140816655144893e-34, 4.999751589253017e-07, 0.0, 1.49022127716684e-23, -9.071071458395504e-25, 0.0, 0.0, 0.0, 9.999980128612211e-10]
twist: 
  twist: 
    linear: 
      x: -1.07492762131e-09
      y: 0.0
      z: 0.0
    angular: 
      x: 0.0
      y: 0.0
      z: 0.0399999999999
  covariance: [0.011127259138829886, 0.0, 0.0, 0.0, 0.0, 0.0, 0.0, 18227982.17204084, 0.0, 0.0, 0.0, 0.0, 0.0, 0.0, 4.99997515635299e-07, 4.573175199997518e-36, 2.781336265065472e-37, 0.0, 0.0, 0.0, 4.573175199997519e-36, 4.999751588950313e-07, 2.052227266014514e-39, 0.0, 0.0, 0.0, 2.781336265065471e-37, -2.0522272660572828e-39, 4.999751588950313e-07, 0.0, 0.0, 0.0, 0.0, 0.0, 0.0, 9.99999900639538e-10]
---
header: 
  seq: 8178
  stamp: 
    secs: 1518208716
    nsecs: 935187578
  frame_id: "swarmone/map"
child_frame_id: "swarmone/base_link"
pose: 
  pose: 
    position: 
      x: 0.351457308772
      y: 4.04588517115
      z: 0.0
    orientation: 
      x: 0.0
      y: 0.0
      z: 0.681638770276
      w: 0.731688859323
  covariance: [1812042130131.248, -122564018607.08743, 0.0, 0.0, 0.0, -2.6427865342622383e-23, -122564018607.08728, 8317889787.035065, 0.0, 0.0, 0.0, 1.6086819809527987e-24, 0.0, 0.0, 4.999749680453361e-07, -6.589083503761502e-29, -2.725804674671317e-25, 0.0, 0.0, 0.0, -6.589083503761501e-29, 4.999749680523972e-07, 6.479167805611394e-35, 0.0, 0.0, 0.0, -2.7258046746713165e-25, -6.479167942167586e-35, 4.999749680523972e-07, 0.0, -2.642786534262239e-23, 1.6086819809527987e-24, 0.0, 0.0, 0.0, 9.999979976084058e-10]
twist: 
  twist: 
    linear: 
      x: 1.5806233087e-09
      y: 0.0
      z: 0.0
    angular: 
      x: 0.0
      y: 0.0
      z: 0.0399999999995
  covariance: [0.011034399819045826, 0.0, 0.0, 0.0, 0.0, 0.0, 0.0, 18234661.876735963, 0.0, 0.0, 0.0, 0.0, 0.0, 0.0, 4.999974965422456e-07, -9.904247941404386e-36, -6.024567010115133e-37, 0.0, 0.0, 0.0, -9.904247941404388e-36, 4.99974968021691e-07, 3.20305670995006e-39, 0.0, 0.0, 0.0, -6.02456701011513e-37, -3.203131573438365e-39, 4.99974968021691e-07, 0.0, 0.0, 0.0, 0.0, 0.0, 0.0, 9.999998998767485e-10]
---
header: 
  seq: 8179
  stamp: 
    secs: 1518208717
    nsecs:  34727573
  frame_id: "swarmone/map"
child_frame_id: "swarmone/base_link"
pose: 
  pose: 
    position: 
      x: 0.351457308791
      y: 4.04588517143
      z: 0.0
    orientation: 
      x: 0.0
      y: 0.0
      z: 0.688921433447
      w: 0.724836021827
  covariance: [1813147550860.2432, -122641019929.5193, 0.0, 0.0, 0.0, -3.801756813630252e-23, -122641019929.51915, 8323251795.463346, 0.0, 0.0, 0.0, 2.695984635982945e-24, 0.0, 0.0, 4.9997488353807e-07, -1.1542766938064046e-28, -4.1152597915556044e-25, 0.0, 0.0, 0.0, -1.1542766938064053e-28, 4.999748835447989e-07, 6.522013230150965e-35, 0.0, 0.0, 0.0, -4.115259791555606e-25, -6.522013594522759e-35, 4.999748835447989e-07, 0.0, -3.801756813630252e-23, 2.695984635982946e-24, 0.0, 0.0, 0.0, 9.99997990827459e-10]
twist: 
  twist: 
    linear: 
      x: 2.45745761907e-09
      y: 0.0
      z: 0.0
    angular: 
      x: 0.0
      y: 0.0
      z: 0.0400000000005
  covariance: [0.01099374356370094, 0.0, 0.0, 0.0, 0.0, 0.0, 0.0, 18241320.674161647, 0.0, 0.0, 0.0, 0.0, 0.0, 0.0, 4.999974880921957e-07, -1.3242071319668368e-35, -9.383040442067285e-37, 0.0, 0.0, 0.0, -1.3242071319668368e-35, 4.999748835145038e-07, 1.0359408657849448e-38, 0.0, 0.0, 0.0, -9.383040442067286e-37, -1.0359541642856892e-38, 4.999748835145038e-07, 0.0, 0.0, 0.0, 0.0, 0.0, 0.0, 9.999998995378892e-10]
---
header: 
  seq: 8180
  stamp: 
    secs: 1518208717
    nsecs: 135336399
  frame_id: "swarmone/map"
child_frame_id: "swarmone/base_link"
pose: 
  pose: 
    position: 
      x: 0.35145730879
      y: 4.04588517142
      z: 0.0
    orientation: 
      x: 0.0
      y: 0.0
      z: 0.685288678808
      w: 0.728271533631
  covariance: [1814266751086.2603, -122707745197.98921, 0.0, 0.0, 0.0, -3.772594484103575e-23, -122707745197.98906, 8327143580.14858, 0.0, 0.0, 0.0, 1.9179163332952264e-24, 0.0, 0.0, 4.999751422658573e-07, -3.2301330349421404e-29, -1.5880091019987907e-25, 0.0, 0.0, 0.0, -3.230133034942139e-29, 4.99975142279286e-07, -1.2777677888675424e-34, 0.0, 0.0, 0.0, -1.5880091019987893e-25, 1.2777677847399593e-34, 4.99975142279286e-07, 0.0, -3.772594484103574e-23, 1.917916333295226e-24, 0.0, 0.0, 0.0, 9.99998012310723e-10]
twist: 
  twist: 
    linear: 
      x: 7.01978659161e-10
      y: 0.0
      z: 0.0
    angular: 
      x: 0.0
      y: 0.0
      z: 0.0399999999986
  covariance: [0.011118870759913795, 0.0, 0.0, 0.0, 0.0, 0.0, 0.0, 18248052.618828252, 0.0, 0.0, 0.0, 0.0, 0.0, 0.0, 4.999975139281417e-07, -2.642887098062904e-35, -1.3431516339326656e-36, 0.0, 0.0, 0.0, -2.642887098062905e-35, 4.999751422412938e-07, -6.667243531145003e-39, 0.0, 0.0, 0.0, -1.3431516339326658e-36, 6.666499935007699e-39, 4.999751422412938e-07, 0.0, 0.0, 0.0, 0.0, 0.0, 0.0, 9.999999006051563e-10]
---
header: 
  seq: 8181
  stamp: 
    secs: 1518208717
    nsecs: 234573364
  frame_id: "swarmone/map"
child_frame_id: "swarmone/base_link"
pose: 
  pose: 
    position: 
      x: 0.351457308821
      y: 4.04588517193
      z: 0.0
    orientation: 
      x: 0.0
      y: 0.0
      z: 0.68528867157
      w: 0.728271540442
  covariance: [1815370614244.6711, -122779091197.03041, 0.0, 0.0, 0.0, -5.951398587247916e-23, -122779091197.03026, 8331739261.547909, 0.0, 0.0, 0.0, 3.622655633462716e-24, 0.0, 0.0, 4.999748067312437e-07, -1.5166065171203885e-28, -6.314245587949808e-25, 0.0, 0.0, 0.0, -1.516606517120388e-28, 4.999748067382105e-07, -1.3125553009873806e-34, 0.0, 0.0, 0.0, -6.314245587949806e-25, 1.3125552284370712e-34, 4.999748067382105e-07, 0.0, -5.951398587247918e-23, 3.6226556334627155e-24, 0.0, 0.0, 0.0, 9.999979846939902e-10]
twist: 
  twist: 
    linear: 
      x: 3.77453173374e-09
      y: 0.0
      z: 0.0
    angular: 
      x: 0.0
      y: 0.0
      z: 0.0399999999999
  covariance: [0.010957057000306766, 0.0, 0.0, 0.0, 0.0, 0.0, 0.0, 18254694.391828638, 0.0, 0.0, 0.0, 0.0, 0.0, 0.0, 4.999974804086801e-07, -2.141300544911686e-35, -1.3021118232297591e-36, 0.0, 0.0, 0.0, -2.141300544911687e-35, 4.999748067076373e-07, -3.941772422719162e-39, 0.0, 0.0, 0.0, -1.302111823229759e-36, 3.9412374441412876e-39, 4.999748067076373e-07, 0.0, 0.0, 0.0, 0.0, 0.0, 0.0, 9.99999899231118e-10]
---
header: 
  seq: 8182
  stamp: 
    secs: 1518208717
    nsecs: 334512472
  frame_id: "swarmone/map"
child_frame_id: "swarmone/base_link"
pose: 
  pose: 
    position: 
      x: 0.351457308839
      y: 4.04588517223
      z: 0.0
    orientation: 
      x: 0.0
      y: 0.0
      z: 0.688921440757
      w: 0.724836014878
  covariance: [1816482830173.0823, -122850975762.5937, 0.0, 0.0, 0.0, -5.573134375267901e-23, -122850975762.59357, 8336369559.6000595, 0.0, 0.0, 0.0, 3.392403401245655e-24, 0.0, 0.0, 4.999749835248183e-07, -1.360260416799042e-28, -5.623730637047172e-25, 0.0, 0.0, 0.0, -1.360260416799042e-28, 4.999749835320479e-07, -1.9412371239571995e-34, 0.0, 0.0, 0.0, -5.623730637047169e-25, 1.941237065577062e-34, 4.999749835320479e-07, 0.0, -5.573134375267899e-23, 3.392403401245655e-24, 0.0, 0.0, 0.0, 9.99997998857139e-10]
twist: 
  twist: 
    linear: 
      x: 3.32124012321e-09
      y: 0.0
      z: 0.0
    angular: 
      x: 0.0
      y: 0.0
      z: 0.0400000000002
  covariance: [0.011041776403627164, 0.0, 0.0, 0.0, 0.0, 0.0, 0.0, 18261384.786691282, 0.0, 0.0, 0.0, 0.0, 0.0, 0.0, 4.9999749808936e-07, -2.0730019467542732e-35, -1.260972637343552e-36, 0.0, 0.0, 0.0, -2.0730019467542743e-35, 4.999749835011365e-07, 2.81718200873823e-39, 0.0, 0.0, 0.0, -1.260972637343552e-36, -2.8176371217401608e-39, 4.999749835011365e-07, 0.0, 0.0, 0.0, 0.0, 0.0, 0.0, 9.999998999390902e-10]
---
header: 
  seq: 8183
  stamp: 
    secs: 1518208717
    nsecs: 434654713
  frame_id: "swarmone/map"
child_frame_id: "swarmone/base_link"
pose: 
  pose: 
    position: 
      x: 0.351457308852
      y: 4.04588517249
      z: 0.0
    orientation: 
      x: 0.0
      y: 0.0
      z: 0.68892144801
      w: 0.724836007985
  covariance: [1817598476077.1182, -122917484004.43974, 0.0, 0.0, 0.0, -6.469658217955173e-23, -122917484004.43959, 8340248485.151332, 0.0, 0.0, 0.0, 3.2891213332100245e-24, 0.0, 0.0, 4.999750329642157e-07, -1.0571619996059674e-28, -5.219852012658383e-25, 0.0, 0.0, 0.0, -1.0571619996059674e-28, 4.999750329732427e-07, -6.446559375403093e-35, 0.0, 0.0, 0.0, -5.219852012658381e-25, 6.446558954195121e-35, 4.999750329732427e-07, 0.0, -6.469658217955172e-23, 3.289121333210024e-24, 0.0, 0.0, 0.0, 9.999980029393196e-10]
twist: 
  twist: 
    linear: 
      x: 2.87179299589e-09
      y: 0.0
      z: 0.0
    angular: 
      x: 0.0
      y: 0.0
      z: 0.0399999999998
  covariance: [0.011065669360928516, 0.0, 0.0, 0.0, 0.0, 0.0, 0.0, 18268090.419697624, 0.0, 0.0, 0.0, 0.0, 0.0, 0.0, 4.999975030227585e-07, -3.100708816599881e-35, -1.5755719698058186e-36, 0.0, 0.0, 0.0, -3.100708816599881e-35, 4.999750329402097e-07, 2.301677211520315e-38, 0.0, 0.0, 0.0, -1.575571969805818e-36, -2.3017575732495387e-38, 4.999750329402097e-07, 0.0, 0.0, 0.0, 0.0, 0.0, 0.0, 9.999999001420575e-10]
---
header: 
  seq: 8184
  stamp: 
    secs: 1518208717
    nsecs: 534687281
  frame_id: "swarmone/map"
child_frame_id: "swarmone/base_link"
pose: 
  pose: 
    position: 
      x: 0.351457308863
      y: 4.0458851727
      z: 0.0
    orientation: 
      x: 0.0
      y: 0.0
      z: 0.68892144801
      w: 0.724836007985
  covariance: [1818713446766.9114, -122983948994.08432, 0.0, 0.0, 0.0, -4.014897815382057e-23, -122983948994.08417, 8344124762.532133, 0.0, 0.0, 0.0, 2.0411497004883236e-24, 0.0, 0.0, 4.99975007006071e-07, -8.360574505636916e-29, -4.1323596708928764e-25, 0.0, 0.0, 0.0, -8.360574505636916e-29, 4.999750070131182e-07, 6.458973136363892e-35, 0.0, 0.0, 0.0, -4.132359670892876e-25, -6.458973398941537e-35, 4.999750070131182e-07, 0.0, -4.0148978153820577e-23, 2.041149700488324e-24, 0.0, 0.0, 0.0, 9.999980007249506e-10]
twist: 
  twist: 
    linear: 
      x: 2.42836837988e-09
      y: 0.0
      z: 0.0
    angular: 
      x: 0.0
      y: 0.0
      z: 0.0399999999999
  covariance: [0.0110531650725511, 0.0, 0.0, 0.0, 0.0, 0.0, 0.0, 18274790.347569168, 0.0, 0.0, 0.0, 0.0, 0.0, 0.0, 4.99997500439128e-07, -1.4792240033978193e-35, -7.51495110888067e-37, 0.0, 0.0, 0.0, -1.4792240033978184e-35, 4.999750069824255e-07, -3.95304523313991e-39, 0.0, 0.0, 0.0, -7.514951108880672e-37, 3.952810963250483e-39, 4.999750069824255e-07, 0.0, 0.0, 0.0, 0.0, 0.0, 0.0, 9.999999000325769e-10]
---
header: 
  seq: 8185
  stamp: 
    secs: 1518208717
    nsecs: 634803295
  frame_id: "swarmone/map"
child_frame_id: "swarmone/base_link"
pose: 
  pose: 
    position: 
      x: 0.351457308902
      y: 4.04588517344
      z: 0.0
    orientation: 
      x: 0.0
      y: 0.0
      z: 0.68892144801
      w: 0.724836007985
  covariance: [1819829894762.2322, -123050498907.68147, 0.0, 0.0, 0.0, -9.858363578095492e-23, -123050498907.68132, 8348005856.194402, 0.0, 0.0, 0.0, 5.011930370584098e-24, 0.0, 0.0, 4.999750277316029e-07, -2.009634230993032e-28, -9.92477076257209e-25, 0.0, 0.0, 0.0, -2.0096342309930322e-28, 4.99975027738816e-07, -6.447747381846193e-35, 0.0, 0.0, 0.0, -9.92477076257209e-25, 6.447745789106423e-35, 4.99975027738816e-07, 0.0, -9.858363578095491e-23, 5.011930370584097e-24, 0.0, 0.0, 0.0, 9.99998002393296e-10]
twist: 
  twist: 
    linear: 
      x: 5.92896828617e-09
      y: 0.0
      z: 0.0
    angular: 
      x: 0.0
      y: 0.0
      z: 0.0399999999999
  covariance: [0.011063213869685522, 0.0, 0.0, 0.0, 0.0, 0.0, 0.0, 18281497.50448652, 0.0, 0.0, 0.0, 0.0, 0.0, 0.0, 4.999975025109598e-07, -3.6481654883264107e-35, -1.8534124518886863e-36, 0.0, 0.0, 0.0, -3.648165488326413e-35, 4.999750277079211e-07, 1.719460710502601e-39, 0.0, 0.0, 0.0, -1.8534124518886863e-36, -1.7207750604790426e-39, 4.999750277079211e-07, 0.0, 0.0, 0.0, 0.0, 0.0, 0.0, 9.999999001158996e-10]
---
header: 
  seq: 8186
  stamp: 
    secs: 1518208717
    nsecs: 734910011
  frame_id: "swarmone/map"
child_frame_id: "swarmone/base_link"
pose: 
  pose: 
    position: 
      x: 0.351457308927
      y: 4.04588517393
      z: 0.0
    orientation: 
      x: 0.0
      y: 0.0
      z: 0.68892144801
      w: 0.724836007985
  covariance: [1820946786620.4502, -123117072175.26204, 0.0, 0.0, 0.0, -8.480004228365286e-23, -123117072175.26187, 8351888178.169662, 0.0, 0.0, 0.0, 4.311185154093055e-24, 0.0, 0.0, 4.999750256789687e-07, -1.825096345698168e-28, -9.014131406044748e-25, 0.0, 0.0, 0.0, -1.8250963456981675e-28, 4.99975025685731e-07, -3.707238036351791e-39, 0.0, 0.0, 0.0, -9.014131406044748e-25, 3.6939707190994696e-39, 4.99975025685731e-07, 0.0, -8.480004228365286e-23, 4.311185154093053e-24, 0.0, 0.0, 0.0, 9.99998002202981e-10]
twist: 
  twist: 
    linear: 
      x: 5.45910455915e-09
      y: 0.0
      z: 0.0
    angular: 
      x: 0.0
      y: 0.0
      z: 0.0399999999999
