header: 
  seq: 4245
  stamp: 
    secs: 1518208323
    nsecs: 634761333
  frame_id: "swarmone/map"
child_frame_id: "swarmone/base_link"
pose: 
  pose: 
    position: 
      x: 9.05809922508e-08
      y: 3.14994880181e-06
      z: 0.0
    orientation: 
      x: 0.0
      y: 0.0
      z: 0.699716071027
      w: 0.714421038287
  covariance: [68907934844.40547, -1837857192.9045677, 0.0, 0.0, 0.0, -1.1311090256900824e-22, -1837857192.904558, 49022309.39032156, 0.0, 0.0, 0.0, 3.4844265652842265e-24, 0.0, 0.0, 4.999748813972459e-07, -1.4272269154551884e-28, -1.1690798859399468e-24, 0.0, 0.0, 0.0, -1.4272269154551887e-28, 4.999748814043732e-07, -3.262252062902956e-35, 0.0, 0.0, 0.0, -1.1690798859399466e-24, 3.262250725123306e-35, 4.999748814043732e-07, 0.0, -1.1311090256900822e-22, 3.484426565284227e-24, 0.0, 0.0, 0.0, 9.999979906772576e-10]
twist: 
  twist: 
    linear: 
      x: 6.79517334235e-09
      y: 0.0
      z: 0.0
    angular: 
      x: 0.0
      y: 0.0
      z: 0.0400000000002
  covariance: [0.010992725307962987, 0.0, 0.0, 0.0, 0.0, 0.0, 0.0, 2550724.6861210195, 0.0, 0.0, 0.0, 0.0, 0.0, 0.0, 4.999974878756328e-07, -4.255062553687529e-35, -1.3098888423041892e-36, 0.0, 0.0, 0.0, -4.2550625536875275e-35, 4.99974881373601e-07, -6.462228835659241e-39, 0.0, 0.0, 0.0, -1.3098888423041894e-36, 6.461130193028247e-39, 4.99974881373601e-07, 0.0, 0.0, 0.0, 0.0, 0.0, 0.0, 9.999998995301885e-10]
---
header: 
  seq: 4246
  stamp: 
    secs: 1518208323
    nsecs: 734494686
  frame_id: "swarmone/map"
child_frame_id: "swarmone/base_link"
pose: 
  pose: 
    position: 
      x: 9.05965536991e-08
      y: 3.1506886659e-06
      z: 0.0
    orientation: 
      x: 0.0
      y: 0.0
      z: 0.696135248697
      w: 0.717910659847
  covariance: [68988924813.62538, -1839776962.3169482, 0.0, 0.0, 0.0, -1.6310778322903868e-22, -1839776962.3169382, 49067131.64383862, 0.0, 0.0, 0.0, 3.39238981401514e-24, 0.0, 0.0, 4.999749306490893e-07, -1.0993057376463469e-28, -1.3307828936903298e-24, 0.0, 0.0, 0.0, -1.099305737646347e-28, 4.999749306581264e-07, 3.2480204318628176e-35, 0.0, 0.0, 0.0, -1.3307828936903297e-24, -3.248021598969698e-35, 4.999749306581264e-07, 0.0, -1.631077832290387e-22, 3.392389814015141e-24, 0.0, 0.0, 0.0, 9.999979947504581e-10]
twist: 
  twist: 
    linear: 
      x: 7.23378830949e-09
      y: 0.0
      z: 0.0
    angular: 
      x: 0.0
      y: 0.0
      z: 0.030000001002
  covariance: [0.011016258327093955, 0.0, 0.0, 0.0, 0.0, 0.0, 0.0, 2552522.7146890736, 0.0, 0.0, 0.0, 0.0, 0.0, 0.0, 4.999974927894323e-07, -7.860523866765389e-35, -1.633953967208592e-36, 0.0, 0.0, 0.0, -7.860523866765389e-35, 4.99974930625094e-07, 7.663780745884488e-39, 0.0, 0.0, 0.0, -1.6339539672085913e-36, -7.66598756621261e-39, 4.99974930625094e-07, 0.0, 0.0, 0.0, 0.0, 0.0, 0.0, 9.99999899732659e-10]
---
header: 
  seq: 4247
  stamp: 
    secs: 1518208323
    nsecs: 835339785
  frame_id: "swarmone/map"
child_frame_id: "swarmone/base_link"
pose: 
  pose: 
    position: 
      x: 9.0622643425e-08
      y: 3.15153852908e-06
      z: 0.0
    orientation: 
      x: 0.0
      y: 0.0
      z: 0.699716070406
      w: 0.714421038895
  covariance: [69070873846.28725, -1842129480.3299582, 0.0, 0.0, 0.0, -1.3207103258947683e-22, -1842129480.3299487, 49134304.79695874, 0.0, 0.0, 0.0, 4.068517754274908e-24, 0.0, 0.0, 4.999752084420292e-07, -1.2634896198063983e-28, -1.3606723361148167e-24, 0.0, 0.0, 0.0, -1.2634896198063983e-28, 4.999752084455075e-07, 6.354871189615883e-35, 0.0, 0.0, 0.0, -1.3606723361148165e-24, -6.354872582307152e-35, 4.999752084455075e-07, 0.0, -1.320710325894768e-22, 4.068517754274907e-24, 0.0, 0.0, 0.0, 9.99998016833051e-10]
twist: 
  twist: 
    linear: 
      x: 8.10599310226e-09
      y: 0.0
      z: 0.0
    angular: 
      x: 0.0
      y: 0.0
      z: 0.0300000000002
  covariance: [0.01115159441395874, 0.0, 0.0, 0.0, 0.0, 0.0, 0.0, 2554341.645157816, 0.0, 0.0, 0.0, 0.0, 0.0, 0.0, 4.999975205874669e-07, -4.70663509236263e-35, -1.4489763220718595e-36, 0.0, 0.0, 0.0, -4.706635092362631e-35, 4.99975208418402e-07, 1.7446213829131959e-40, 0.0, 0.0, 0.0, -1.4489763220718589e-36, -1.7580217820505222e-40, 4.99975208418402e-07, 0.0, 0.0, 0.0, 0.0, 0.0, 0.0, 9.999999008380357e-10]
---
header: 
  seq: 4248
  stamp: 
    secs: 1518208323
    nsecs: 935224056
  frame_id: "swarmone/map"
child_frame_id: "swarmone/base_link"
pose: 
  pose: 
    position: 
      x: 9.06276631152e-08
      y: 3.15184246464e-06
      z: 0.0
    orientation: 
      x: 0.0
      y: 0.0
      z: 0.69971607749
      w: 0.714421031957
  covariance: [69152139810.22218, -1844055765.8074195, 0.0, 0.0, 0.0, -7.818878194872952e-23, -1844055765.8074098, 49179278.90121125, 0.0, 0.0, 0.0, 1.62623903872977e-24, 0.0, 0.0, 4.999749698976732e-07, -4.995839985313432e-29, -8.042949960620332e-25, 0.0, 0.0, 0.0, -4.9958399853134307e-29, 4.999749699013303e-07, 3.2385242668246016e-35, 0.0, 0.0, 0.0, -8.04294996062033e-25, -3.2385245919395727e-35, 4.999749699013303e-07, 0.0, -7.818878194872952e-23, 1.62623903872977e-24, 0.0, 0.0, 0.0, 9.999979977565777e-10]
twist: 
  twist: 
    linear: 
      x: 4.593980419e-09
      y: 0.0
      z: 0.0
    angular: 
      x: 0.0
      y: 0.0
      z: 0.0399999989987
  covariance: [0.011035297521745537, 0.0, 0.0, 0.0, 0.0, 0.0, 0.0, 2556144.0969173247, 0.0, 0.0, 0.0, 0.0, 0.0, 0.0, 4.999974967275178e-07, -2.9739241648662297e-35, -6.1824279097759556e-37, 0.0, 0.0, 0.0, -2.9739241648662297e-35, 4.999749698740279e-07, 5.568407429066636e-39, 0.0, 0.0, 0.0, -6.1824279097759556e-37, -5.568774842907595e-39, 4.999749698740279e-07, 0.0, 0.0, 0.0, 0.0, 0.0, 0.0, 9.99999899884157e-10]
---
header: 
  seq: 4249
  stamp: 
    secs: 1518208324
    nsecs:  34774542
  frame_id: "swarmone/map"
child_frame_id: "swarmone/base_link"
pose: 
  pose: 
    position: 
      x: 9.06533754564e-08
      y: 3.15299972153e-06
      z: 0.0
    orientation: 
      x: 0.0
      y: 0.0
      z: 0.699716078204
      w: 0.714421031257
  covariance: [69233210291.67978, -1845977262.3608813, 0.0, 0.0, 0.0, -1.5059005647627862e-22, -1845977262.3608713, 49224138.28335802, 0.0, 0.0, 0.0, 3.132074414210092e-24, 0.0, 0.0, 4.999748860773697e-07, -1.3112316571881602e-28, -1.5901175598473099e-24, 0.0, 0.0, 0.0, -1.3112316571881595e-28, 4.999748860843154e-07, 4.891444622728795e-35, 0.0, 0.0, 0.0, -1.5901175598473099e-24, -4.891446278536942e-35, 4.999748860843154e-07, 0.0, -1.5059005647627862e-22, 3.132074414210092e-24, 0.0, 0.0, 0.0, 9.999979910410924e-10]
twist: 
  twist: 
    linear: 
      x: 9.42912229853e-09
      y: 0.0
      z: 0.0
    angular: 
      x: 0.0
      y: 0.0
      z: 0.0399999999999
  covariance: [0.010994957897862251, 0.0, 0.0, 0.0, 0.0, 0.0, 0.0, 2557941.3688592697, 0.0, 0.0, 0.0, 0.0, 0.0, 0.0, 4.999974883449422e-07, -5.399140762168391e-35, -1.1221374400320882e-36, 0.0, 0.0, 0.0, -5.399140762168391e-35, 4.999748860537631e-07, -7.738463895799746e-40, 0.0, 0.0, 0.0, -1.1221374400320884e-36, 7.726148846342919e-40, 4.999748860537631e-07, 0.0, 0.0, 0.0, 0.0, 0.0, 0.0, 9.999998995484756e-10]
---
header: 
  seq: 4250
  stamp: 
    secs: 1518208324
    nsecs: 134323835
  frame_id: "swarmone/map"
child_frame_id: "swarmone/base_link"
pose: 
  pose: 
    position: 
      x: 9.06694992663e-08
      y: 3.15379090051e-06
      z: 0.0
    orientation: 
      x: 0.0
      y: 0.0
      z: 0.699716078204
      w: 0.714421031257
  covariance: [69314355813.11473, -1847900387.4728718, 0.0, 0.0, 0.0, -1.4494149927128563e-22, -1847900387.4728618, 49269032.92916021, 0.0, 0.0, 0.0, 3.0145860584305186e-24, 0.0, 0.0, 4.999748855604198e-07, -1.2087651917126198e-28, -1.4658917628410407e-24, 0.0, 0.0, 0.0, -1.2087651917126192e-28, 4.999748855677265e-07, -8.151659578451306e-35, 0.0, 0.0, 0.0, -1.4658917628410409e-24, 8.151658161598e-35, 4.999748855677265e-07, 0.0, -1.4494149927128568e-22, 3.01458605843052e-24, 0.0, 0.0, 0.0, 9.999979910208453e-10]
twist: 
  twist: 
    linear: 
      x: 8.53189991767e-09
      y: 0.0
      z: 0.0
    angular: 
      x: 0.0
      y: 0.0
      z: 0.0399999999999
  covariance: [0.010994649451790931, 0.0, 0.0, 0.0, 0.0, 0.0, 0.0, 2559739.4615352247, 0.0, 0.0, 0.0, 0.0, 0.0, 0.0, 4.999974882908725e-07, -5.496458518045354e-35, -1.142431043835617e-36, 0.0, 0.0, 0.0, -5.496458518045359e-35, 4.999748855367387e-07, -4.881803997122842e-40, 0.0, 0.0, 0.0, -1.1424310438356171e-36, 4.869370099825719e-40, 4.999748855367387e-07, 0.0, 0.0, 0.0, 0.0, 0.0, 0.0, 9.999998995472725e-10]
---
header: 
  seq: 4251
  stamp: 
    secs: 1518208324
    nsecs: 234488726
  frame_id: "swarmone/map"
child_frame_id: "swarmone/base_link"
pose: 
  pose: 
    position: 
      x: 9.06869442086e-08
      y: 3.15463148428e-06
      z: 0.0
    orientation: 
      x: 0.0
      y: 0.0
      z: 0.699716078204
      w: 0.714421031257
  covariance: [69396079896.29552, -1849837071.4382575, 0.0, 0.0, 0.0, -1.6096095418183644e-22, -1849837071.4382477, 49314241.274498016, 0.0, 0.0, 0.0, 3.3477566478036115e-24, 0.0, 0.0, 4.999750394863401e-07, -1.2389258479346856e-28, -1.4933030800010834e-24, 0.0, 0.0, 0.0, -1.2389258479346856e-28, 4.999750394942277e-07, 3.592421485005883e-39, 0.0, 0.0, 0.0, -1.4933030800010821e-24, -3.6072686678101035e-39, 4.999750394942277e-07, 0.0, -1.6096095418183649e-22, 3.3477566478036115e-24, 0.0, 0.0, 0.0, 9.999980033756848e-10]
twist: 
  twist: 
    linear: 
      x: 8.51982225244e-09
      y: 0.0
      z: 0.0
    angular: 
      x: 0.0
      y: 0.0
      z: 0.0399999999998
  covariance: [0.011068859099291627, 0.0, 0.0, 0.0, 0.0, 0.0, 0.0, 2561549.5236051427, 0.0, 0.0, 0.0, 0.0, 0.0, 0.0, 4.999975036823956e-07, -6.650135229519981e-35, -1.3823416925947759e-36, 0.0, 0.0, 0.0, -6.650135229519983e-35, 4.9997503946253e-07, 5.043982881197841e-39, 0.0, 0.0, 0.0, -1.3823416925947757e-36, -5.045668162149969e-39, 4.9997503946253e-07, 0.0, 0.0, 0.0, 0.0, 0.0, 0.0, 9.999999001646381e-10]
---
header: 
  seq: 4252
  stamp: 
    secs: 1518208324
    nsecs: 334333658
  frame_id: "swarmone/map"
child_frame_id: "swarmone/base_link"
pose: 
  pose: 
    position: 
      x: 9.07015603361e-08
      y: 3.15534583343e-06
      z: 0.0
    orientation: 
      x: 0.0
      y: 0.0
      z: 0.696135248689
      w: 0.717910659855
  covariance: [69477619620.1227, -1851769240.8428526, 0.0, 0.0, 0.0, -1.267664482983102e-22, -1851769240.842843, 49359341.62210064, 0.0, 0.0, 0.0, 2.636572135893941e-24, 0.0, 0.0, 4.999749600353055e-07, -1.0799429943290152e-28, -1.3057961285444848e-24, 0.0, 0.0, 0.0, -1.079942994329015e-28, 4.999749600423931e-07, 4.862255330345998e-35, 0.0, 0.0, 0.0, -1.3057961285444846e-24, -4.862256458423762e-35, 4.999749600423931e-07, 0.0, -1.267664482983102e-22, 2.6365721358939415e-24, 0.0, 0.0, 0.0, 9.999979969676678e-10]
twist: 
  twist: 
    linear: 
      x: 7.63255252123e-09
      y: 0.0
      z: 0.0
    angular: 
      x: 0.0
      y: 0.0
      z: 0.0300000010011
  covariance: [0.011030450964553871, 0.0, 0.0, 0.0, 0.0, 0.0, 0.0, 2563354.652791768, 0.0, 0.0, 0.0, 0.0, 0.0, 0.0, 4.99997495741076e-07, -4.701501985986767e-35, -9.771763926125197e-37, 0.0, 0.0, 0.0, -4.701501985986767e-35, 4.999749600116602e-07, -2.1520119141078093e-39, 0.0, 0.0, 0.0, -9.771763926125193e-37, 2.1511360470716057e-39, 4.999749600116602e-07, 0.0, 0.0, 0.0, 0.0, 0.0, 0.0, 9.999998998447111e-10]
---
header: 
  seq: 4253
  stamp: 
    secs: 1518208324
    nsecs: 434352160
  frame_id: "swarmone/map"
child_frame_id: "swarmone/base_link"
pose: 
  pose: 
    position: 
      x: 9.07267784064e-08
      y: 3.15616724046e-06
      z: 0.0
    orientation: 
      x: 0.0
      y: 0.0
      z: 0.67058720978
      w: 0.74183070446
  covariance: [69559356816.17639, -1854115035.5185068, 0.0, 0.0, 0.0, -1.3366924181275556e-22, -1854115035.5184972, 49426301.57391354, 0.0, 0.0, 0.0, 4.117751217190031e-24, 0.0, 0.0, 4.999750034908665e-07, -1.264976526734454e-28, -1.373503506674903e-24, 0.0, 0.0, 0.0, -1.2649765267344542e-28, 4.999750034945073e-07, 7.322646767917856e-39, 0.0, 0.0, 0.0, -1.3735035066749036e-24, -7.336640857464751e-39, 4.999750034945073e-07, 0.0, -1.3366924181275558e-22, 4.117751217190032e-24, 0.0, 0.0, 0.0, 9.999980004437626e-10]
twist: 
  twist: 
    linear: 
      x: 8.06684410128e-09
      y: 0.0
      z: 0.0
    angular: 
      x: 0.0
      y: 0.0
      z: 0.0399999989978
  covariance: [0.011051444103164885, 0.0, 0.0, 0.0, 0.0, 0.0, 0.0, 2565163.770054214, 0.0, 0.0, 0.0, 0.0, 0.0, 0.0, 4.999975000875347e-07, -4.918308194854038e-35, -1.5142899086194625e-36, 0.0, 0.0, 0.0, -4.918308194854038e-35, 4.999750034672212e-07, -2.565505559166013e-39, 0.0, 0.0, 0.0, -1.5142899086194615e-36, 2.5640160659700282e-39, 4.999750034672212e-07, 0.0, 0.0, 0.0, 0.0, 0.0, 0.0, 9.999999000185175e-10]
---
header: 
  seq: 4254
  stamp: 
    secs: 1518208324
    nsecs: 535253525
  frame_id: "swarmone/map"
child_frame_id: "swarmone/base_link"
pose: 
  pose: 
    position: 
      x: 9.07890418969e-08
      y: 3.15672094655e-06
      z: 0.0
    orientation: 
      x: 0.0
      y: 0.0
      z: 0.699716021563
      w: 0.714421086732
  covariance: [69641513355.3812, -1859363028.8424604, 0.0, 0.0, 0.0, -1.0363476344427648e-22, -1859363028.8424509, 49647472.43666127, 0.0, 0.0, 0.0, 1.0481422818307971e-23, 0.0, 0.0, 4.999752222674482e-07, -4.340066866018248e-28, -1.0731088026414804e-24, 0.0, 0.0, 0.0, -4.3400668660182465e-28, 4.999752222742364e-07, 1.2694091946361435e-34, 0.0, 0.0, 0.0, -1.0731088026414799e-24, -1.269409567556275e-34, 4.999752222742364e-07, 0.0, -1.0363476344427649e-22, 1.048142281830797e-23, 0.0, 0.0, 0.0, 9.999980179389791e-10]
twist: 
  twist: 
    linear: 
      x: 6.30155547238e-09
      y: 0.0
      z: 0.0
    angular: 
      x: 0.0
      y: 0.0
      z: 0.0400000000024
  covariance: [0.011158411634569635, 0.0, 0.0, 0.0, 0.0, 0.0, 0.0, 2566989.718716708, 0.0, 0.0, 0.0, 0.0, 0.0, 0.0, 4.999975219702925e-07, -3.743004735079237e-35, -3.782638710059993e-36, 0.0, 0.0, 0.0, -3.743004735079237e-35, 4.99975222243821e-07, 8.327612680015896e-40, 0.0, 0.0, 0.0, -3.7826387100599945e-36, -8.358323642483678e-40, 4.99975222243821e-07, 0.0, 0.0, 0.0, 0.0, 0.0, 0.0, 9.999999008933323e-10]
---
header: 
  seq: 4255
  stamp: 
    secs: 1518208324
    nsecs: 635336161
  frame_id: "swarmone/map"
child_frame_id: "swarmone/base_link"
pose: 
  pose: 
    position: 
      x: 9.07332953098e-08
      y: 3.15457819884e-06
      z: 0.0
    orientation: 
      x: 0.0
      y: 0.0
      z: 0.70327941494
      w: 0.710913542227
  covariance: [69723478561.474, -1861307110.414225, 0.0, 0.0, 0.0, 6.2100047385583915e-22, -1861307110.4142156, 49692883.68323175, 0.0, 0.0, 0.0, -1.2915235433290322e-23, 0.0, 0.0, 4.999750116433062e-07, 2.193014492255425e-28, 2.64639649744813e-24, 0.0, 0.0, 0.0, 2.193014492255425e-28, 4.999750116567955e-07, 3.227943876432433e-35, 0.0, 0.0, 0.0, 2.6463964974481316e-24, -3.227948521437596e-35, 4.999750116567955e-07, 0.0, 6.210004738558392e-22, -1.2915235433290325e-23, 0.0, 0.0, 0.0, 9.999980018574281e-10]
twist: 
  twist: 
    linear: 
      x: -1.33785046017e-08
      y: 0.0
      z: 0.0
    angular: 
      x: 0.0
      y: 0.0
      z: 3.9972907484e-09
  covariance: [0.011055292420565155, 0.0, 0.0, 0.0, 0.0, 0.0, 0.0, 2568801.7071341234, 0.0, 0.0, 0.0, 0.0, 0.0, 0.0, 4.999975008630443e-07, 3.905096821243944e-34, 8.107760501551527e-36, 0.0, 0.0, 0.0, 3.905096821243944e-34, 4.999750116187477e-07, 4.351441870496403e-39, 0.0, 0.0, 0.0, 8.107760501551531e-36, -4.392620457377663e-39, 4.999750116187477e-07, 0.0, 0.0, 0.0, 0.0, 0.0, 0.0, 9.999999000825828e-10]
---
header: 
  seq: 4256
  stamp: 
    secs: 1518208324
    nsecs: 735197544
  frame_id: "swarmone/map"
child_frame_id: "swarmone/base_link"
pose: 
  pose: 
    position: 
      x: 9.07807462293e-08
      y: 3.15670482211e-06
      z: 0.0
    orientation: 
      x: 0.0
      y: 0.0
      z: 0.696135253005
      w: 0.717910655669
  covariance: [69805352398.73936, -1862839346.4975398, 0.0, 0.0, 0.0, -1.7009759234871282e-22, -1862839346.49753, 49716426.09604338, 0.0, 0.0, 0.0, 1.836490150668659e-24, 0.0, 0.0, 4.999749639989652e-07, -7.17910512406236e-36, -1.6900957603892147e-24, 0.0, 0.0, 0.0, -7.179105124060905e-36, 4.999749639924905e-07, 6.970567308296004e-36, 0.0, 0.0, 0.0, -1.6900957603892143e-24, -6.970567308296974e-36, 4.999749639924905e-07, 0.0, -1.700975923487128e-22, 1.8364901506686585e-24, 0.0, 0.0, 0.0, 9.99997997300509e-10]
twist: 
  twist: 
    linear: 
      x: 9.99428030137e-09
      y: 0.0
      z: 0.0
    angular: 
      x: 0.0
      y: 0.0
      z: 0.0399999959938
  covariance: [0.011032435655405903, 0.0, 0.0, 0.0, 0.0, 0.0, 0.0, 2570610.5394706395, 0.0, 0.0, 0.0, 0.0, 0.0, 0.0, 4.999974961358013e-07, -6.460354045453224e-35, -6.983289043133402e-37, 0.0, 0.0, 0.0, -6.460354045453225e-35, 4.999749639752664e-07, -4.973198638580032e-41, 0.0, 0.0, 0.0, -6.983289043133403e-37, 4.881198908910685e-41, 4.999749639752664e-07, 0.0, 0.0, 0.0, 0.0, 0.0, 0.0, 9.999998998612105e-10]
---
header: 
  seq: 4257
  stamp: 
    secs: 1518208324
    nsecs: 834821939
  frame_id: "swarmone/map"
child_frame_id: "swarmone/base_link"
pose: 
  pose: 
    position: 
      x: 9.08157992083e-08
      y: 3.15784366608e-06
      z: 0.0
    orientation: 
      x: 0.0
      y: 0.0
      z: 0.699716071033
      w: 0.71442103828
  covariance: [69887074536.13966, -1865186166.755339, 0.0, 0.0, 0.0, -1.8096075245500733e-22, -1865186166.7553291, 49783463.5822057, 0.0, 0.0, 0.0, 5.574557400120714e-24, 0.0, 0.0, 4.99974904655966e-07, -2.30825863096415e-28, -1.889013705890669e-24, 0.0, 0.0, 0.0, -2.308258630964149e-28, 4.999749046629902e-07, -6.511581300528704e-35, 0.0, 0.0, 0.0, -1.8890137058906694e-24, 6.511577841730389e-35, 4.999749046629902e-07, 0.0, -1.809607524550074e-22, 5.574557400120715e-24, 0.0, 0.0, 0.0, 9.999979925325013e-10]
twist: 
  twist: 
    linear: 
      x: 1.12676182466e-08
      y: 0.0
      z: 0.0
    angular: 
      x: 0.0
      y: 0.0
      z: 0.0400000000002
  covariance: [0.011003860264448953, 0.0, 0.0, 0.0, 0.0, 0.0, 0.0, 2572415.9250570317, 0.0, 0.0, 0.0, 0.0, 0.0, 0.0, 4.999974902025839e-07, -6.520504804158634e-35, -2.0070933195591385e-36, 0.0, 0.0, 0.0, -6.520504804158636e-35, 4.999749046323401e-07, 1.189784795282107e-39, 0.0, 0.0, 0.0, -2.007093319559139e-36, -1.192457392558527e-39, 4.999749046323401e-07, 0.0, 0.0, 0.0, 0.0, 0.0, 0.0, 9.99999899622999e-10]
---
header: 
  seq: 4258
  stamp: 
    secs: 1518208324
    nsecs: 934564590
  frame_id: "swarmone/map"
child_frame_id: "swarmone/base_link"
pose: 
  pose: 
    position: 
      x: 9.08246915179e-08
      y: 3.15836266848e-06
      z: 0.0
    orientation: 
      x: 0.0
      y: 0.0
      z: 0.699716078204
      w: 0.714421031257
  covariance: [69968991477.70415, -1867128698.932154, 0.0, 0.0, 0.0, -1.2398405710305482e-22, -1867128698.9321442, 49828831.81530081, 0.0, 0.0, 0.0, 2.578705885221315e-24, 0.0, 0.0, 4.999749342488731e-07, -1.03399184814133e-28, -1.2515180906027108e-24, 0.0, 0.0, 0.0, -1.0339918481413307e-28, 4.999749342561527e-07, 9.011993219887518e-40, 0.0, 0.0, 0.0, -1.2515180906027111e-24, -9.115940474749395e-40, 4.999749342561527e-07, 0.0, -1.2398405710305478e-22, 2.578705885221314e-24, 0.0, 0.0, 0.0, 9.999979949154947e-10]
twist: 
  twist: 
    linear: 
      x: 7.2835090659e-09
      y: 0.0
      z: 0.0
    angular: 
      x: 0.0
      y: 0.0
      z: 0.0399999999999
  covariance: [0.011018036429279204, 0.0, 0.0, 0.0, 0.0, 0.0, 0.0, 2574224.3002781123, 0.0, 0.0, 0.0, 0.0, 0.0, 0.0, 4.999974931607366e-07, -4.696035975810926e-35, -9.760652333959534e-37, 0.0, 0.0, 0.0, -4.696035975810926e-35, 4.999749342251918e-07, 2.605535903549702e-39, 0.0, 0.0, 0.0, -9.760652333959542e-37, -2.6064567367024717e-39, 4.999749342251918e-07, 0.0, 0.0, 0.0, 0.0, 0.0, 0.0, 9.999998997420065e-10]
---
header: 
  seq: 4259
  stamp: 
    secs: 1518208325
    nsecs:  35182953
  frame_id: "swarmone/map"
child_frame_id: "swarmone/base_link"
pose: 
  pose: 
    position: 
      x: 9.08411770987e-08
      y: 3.15914882054e-06
      z: 0.0
    orientation: 
      x: 0.0
      y: 0.0
      z: 0.699716078204
      w: 0.714421031257
  covariance: [70051705432.07121, -1869089978.9264166, 0.0, 0.0, 0.0, -1.2562873282026773e-22, -1869089978.926407, 49874635.136978045, 0.0, 0.0, 0.0, 2.612910378194416e-24, 0.0, 0.0, 4.999751525735737e-07, -1.0819287496951107e-28, -1.2981760581350344e-24, 0.0, 0.0, 0.0, -1.0819287496951107e-28, 4.999751525804656e-07, -3.1918196910547536e-35, 0.0, 0.0, 0.0, -1.2981760581350348e-24, 3.1918185587989873e-35, 4.999751525804656e-07, 0.0, -1.2562873282026773e-22, 2.6129103781944157e-24, 0.0, 0.0, 0.0, 9.999980123640018e-10]
twist: 
  twist: 
    linear: 
      x: 7.71483237899e-09
      y: 0.0
      z: 0.0
    angular: 
      x: 0.0
      y: 0.0
      z: 0.0399999999999
  covariance: [0.01112411285039676, 0.0, 0.0, 0.0, 0.0, 0.0, 0.0, 2576049.4110151385, 0.0, 0.0, 0.0, 0.0, 0.0, 0.0, 4.999975149994728e-07, -4.492774167969995e-35, -9.337642578271829e-37, 0.0, 0.0, 0.0, -4.4927741679699945e-35, 4.999751525499467e-07, -4.956232797611637e-40, 0.0, 0.0, 0.0, -9.337642578271829e-37, 4.947712365085722e-40, 4.999751525499467e-07, 0.0, 0.0, 0.0, 0.0, 0.0, 0.0, 9.999999006145816e-10]
---
header: 
  seq: 4260
  stamp: 
    secs: 1518208325
    nsecs: 135087252
  frame_id: "swarmone/map"
child_frame_id: "swarmone/base_link"
pose: 
  pose: 
    position: 
      x: 9.08612248602e-08
      y: 3.16009278932e-06
      z: 0.0
    orientation: 
      x: 0.0
      y: 0.0
      z: 0.703279414928
      w: 0.710913542238
  covariance: [70133909756.58926, -1871039022.4944696, 0.0, 0.0, 0.0, -1.503879733007119e-22, -1871039022.4944603, 49920149.90423849, 0.0, 0.0, 0.0, 3.127866745584607e-24, 0.0, 0.0, 4.999749748618176e-07, -1.2675231266698403e-28, -1.5317027968804997e-24, 0.0, 0.0, 0.0, -1.2675231266698403e-28, 4.999749748689866e-07, -1.6181864668698702e-35, 0.0, 0.0, 0.0, -1.5317027968804999e-24, 1.6181849146830032e-35, 4.999749748689866e-07, 0.0, -1.5038797330071188e-22, 3.127866745584607e-24, 0.0, 0.0, 0.0, 9.999979981589185e-10]
twist: 
  twist: 
    linear: 
      x: 9.01637426143e-09
      y: 0.0
      z: 0.0
    angular: 
      x: 0.0
      y: 0.0
      z: 0.0499999989992
  covariance: [0.01103766454449051, 0.0, 0.0, 0.0, 0.0, 0.0, 0.0, 2577862.422695353, 0.0, 0.0, 0.0, 0.0, 0.0, 0.0, 4.99997497223453e-07, -5.620629283954455e-35, -1.168222684420661e-36, 0.0, 0.0, 0.0, -5.620629283954448e-35, 4.999749748381539e-07, -1.1225959648068094e-39, 0.0, 0.0, 0.0, -1.1682226844206613e-36, 1.1213016882522489e-39, 4.999749748381539e-07, 0.0, 0.0, 0.0, 0.0, 0.0, 0.0, 9.999998999042268e-10]
---
header: 
  seq: 4261
  stamp: 
    secs: 1518208325
    nsecs: 234558344
  frame_id: "swarmone/map"
child_frame_id: "swarmone/base_link"
pose: 
  pose: 
    position: 
      x: 9.08684772177e-08
      y: 3.1608438348e-06
      z: 0.0
    orientation: 
      x: 0.0
      y: 0.0
      z: 0.696135256651
      w: 0.717910652134
  covariance: [70215847220.64888, -1872571662.2456834, 0.0, 0.0, 0.0, -1.3610746174784383e-22, -1872571662.2456737, 49943692.53497741, 0.0, 0.0, 0.0, 1.4694088032262138e-24, 0.0, 0.0, 4.99974865869425e-07, -7.443206199073252e-29, -1.3934318694358144e-24, 0.0, 0.0, 0.0, -7.443206199073257e-29, 4.999748658801115e-07, -1.7181335381174475e-39, 0.0, 0.0, 0.0, -1.3934318694358145e-24, 1.709903718528855e-39, 4.999748658801115e-07, 0.0, -1.3610746174784386e-22, 1.4694088032262142e-24, 0.0, 0.0, 0.0, 9.999979894404446e-10]
twist: 
  twist: 
    linear: 
      x: 8.12070377727e-09
      y: 0.0
      z: 0.0
    angular: 
      x: 0.0
      y: 0.0
      z: 0.0400000010045
  covariance: [0.010985250762551354, 0.0, 0.0, 0.0, 0.0, 0.0, 0.0, 2579668.4177072747, 0.0, 0.0, 0.0, 0.0, 0.0, 0.0, 4.999974863219393e-07, -5.118581970087958e-35, -5.521678257617886e-37, 0.0, 0.0, 0.0, -5.118581970087956e-35, 4.999748658457616e-07, 3.2880848160025254e-40, 0.0, 0.0, 0.0, -5.521678257617882e-37, -3.2936770955041665e-40, 4.999748658457616e-07, 0.0, 0.0, 0.0, 0.0, 0.0, 0.0, 9.999998994682997e-10]
---
header: 
  seq: 4262
  stamp: 
    secs: 1518208325
    nsecs: 334994316
  frame_id: "swarmone/map"
child_frame_id: "swarmone/base_link"
pose: 
  pose: 
    position: 
      x: 9.09077679821e-08
      y: 3.16214255397e-06
      z: 0.0
    orientation: 
      x: 0.0
      y: 0.0
      z: 0.696135241499
      w: 0.717910666826
  covariance: [70298622708.31982, -1874947973.2632031, 0.0, 0.0, 0.0, -1.8163938645706908e-22, -1874947973.2631936, 50011547.367508225, 0.0, 0.0, 0.0, 5.595466007154815e-24, 0.0, 0.0, 4.999751075548215e-07, -2.368778746295051e-28, -1.9229269272381444e-24, 0.0, 0.0, 0.0, -2.368778746295051e-28, 4.999751075615505e-07, -3.203128166173063e-35, 0.0, 0.0, 0.0, -1.9229269272381444e-24, 3.203124497204933e-35, 4.999751075615505e-07, 0.0, -1.8163938645706905e-22, 5.5954660071548135e-24, 0.0, 0.0, 0.0, 9.999980087524759e-10]
twist: 
  twist: 
    linear: 
      x: 1.16133626913e-08
      y: 0.0
      z: 0.0
    angular: 
      x: 0.0
      y: 0.0
      z: 0.0399999999999
  covariance: [0.011102074464557242, 0.0, 0.0, 0.0, 0.0, 0.0, 0.0, 2581492.786672329, 0.0, 0.0, 0.0, 0.0, 0.0, 0.0, 4.999975104978662e-07, -6.261353364000444e-35, -1.9272000672611764e-36, 0.0, 0.0, 0.0, -6.261353364000445e-35, 4.99975107531234e-07, -3.592702680402746e-40, 0.0, 0.0, 0.0, -1.9272000672611754e-36, 3.5683458060387743e-40, 4.99975107531234e-07, 0.0, 0.0, 0.0, 0.0, 0.0, 0.0, 9.999999004340992e-10]
---
header: 
  seq: 4263
  stamp: 
    secs: 1518208325
    nsecs: 434816360
  frame_id: "swarmone/map"
child_frame_id: "swarmone/base_link"
pose: 
  pose: 
    position: 
      x: 9.09203899637e-08
      y: 3.16251658888e-06
      z: 0.0
    orientation: 
      x: 0.0
      y: 0.0
      z: 0.696135241499
      w: 0.717910666827
  covariance: [70380969556.94012, -1877312053.0306873, 0.0, 0.0, 0.0, -2.345474716430033e-22, -1877312053.030678, 50079055.66442725, 0.0, 0.0, 0.0, 7.22513830623024e-24, 0.0, 0.0, 4.999749495211425e-07, -1.5790189176037552e-28, -1.289972394735409e-24, 0.0, 0.0, 0.0, -1.579018917603755e-28, 4.999749495331003e-07, 7.56314268773183e-39, 0.0, 0.0, 0.0, -1.2899723947354085e-24, -7.579358574376793e-39, 4.999749495331003e-07, 0.0, -2.3454747164300336e-22, 7.22513830623024e-24, 0.0, 0.0, 0.0, 9.99997996589303e-10]
twist: 
  twist: 
    linear: 
      x: 6.31813400174e-09
      y: 0.0
      z: 0.0
    angular: 
      x: 0.0
      y: 0.0
      z: 0.0399999999997
  covariance: [0.011025267721035393, 0.0, 0.0, 0.0, 0.0, 0.0, 0.0, 2583306.8560213484, 0.0, 0.0, 0.0, 0.0, 0.0, 0.0, 4.999974946588575e-07, -1.5053454808045702e-34, -4.636110055033144e-36, 0.0, 0.0, 0.0, -1.5053454808045696e-34, 4.999749494967514e-07, -3.567749461601692e-39, 0.0, 0.0, 0.0, -4.6361100550331445e-36, 3.558043192912907e-39, 4.999749494967514e-07, 0.0, 0.0, 0.0, 0.0, 0.0, 0.0, 9.999998998217447e-10]
---
header: 
  seq: 4264
  stamp: 
    secs: 1518208325
    nsecs: 534612894
  frame_id: "swarmone/map"
child_frame_id: "swarmone/base_link"
pose: 
  pose: 
    position: 
      x: 9.09437005782e-08
      y: 3.16327877474e-06
      z: 0.0
    orientation: 
      x: 0.0
      y: 0.0
      z: 0.699716071046
      w: 0.714421038268
  covariance: [70463372481.08223, -1879677883.4132183, 0.0, 0.0, 0.0, -1.1637283414211948e-22, -1879677883.4132087, 50146618.31742566, 0.0, 0.0, 0.0, 3.584913892564339e-24, 0.0, 0.0, 4.999749479983164e-07, -1.5008131350152902e-28, -1.2261079187619501e-24, 0.0, 0.0, 0.0, -1.5008131350152902e-28, 4.999749480052248e-07, -9.733686222956345e-35, 0.0, 0.0, 0.0, -1.2261079187619503e-24, 9.733684748100898e-35, 4.999749480052248e-07, 0.0, -1.1637283414211946e-22, 3.5849138925643385e-24, 0.0, 0.0, 0.0, 9.999979959943107e-10]
twist: 
  twist: 
    linear: 
      x: 7.20049758307e-09
      y: 0.0
      z: 0.0
    angular: 
      x: 0.0
      y: 0.0
      z: 0.0400000000002
  covariance: [0.011024670283228703, 0.0, 0.0, 0.0, 0.0, 0.0, 0.0, 2585121.311098623, 0.0, 0.0, 0.0, 0.0, 0.0, 0.0, 4.999974945383205e-07, -4.1980107759518864e-35, -1.2922741903070572e-36, 0.0, 0.0, 0.0, -4.1980107759518853e-35, 4.999749479747094e-07, -1.2107566849609923e-39, 0.0, 0.0, 0.0, -1.2922741903070567e-36, 1.2096306476117061e-39, 4.999749479747094e-07, 0.0, 0.0, 0.0, 0.0, 0.0, 0.0, 9.999998997961385e-10]
---
header: 
  seq: 4265
  stamp: 
    secs: 1518208325
    nsecs: 635077000
  frame_id: "swarmone/map"
child_frame_id: "swarmone/base_link"
pose: 
  pose: 
    position: 
      x: 9.09530597531e-08
      y: 3.16375389386e-06
      z: 0.0
    orientation: 
      x: 0.0
      y: 0.0
      z: 0.699716078204
      w: 0.714421031257
  covariance: [70546426003.43547, -1881646778.4922006, 0.0, 0.0, 0.0, -2.3805824688940943e-22, -1881646778.4921913, 50192591.00812873, 0.0, 0.0, 0.0, 4.951047288233003e-24, 0.0, 0.0, 4.999751081705264e-07, -9.502923806807179e-29, -1.1423332374653098e-24, 0.0, 0.0, 0.0, -9.502923806807178e-29, 4.999751081832228e-07, -5.2204795395134774e-39, 0.0, 0.0, 0.0, -1.1423332374653092e-24, 5.211815347343076e-39, 4.999751081832228e-07, 0.0, -2.3805824688940943e-22, 4.951047288233002e-24, 0.0, 0.0, 0.0, 9.999980094186243e-10]
twist: 
  twist: 
    linear: 
      x: 5.44974122091e-09
      y: 0.0
      z: 0.0
    angular: 
      x: 0.0
      y: 0.0
      z: 0.0399999999997
  covariance: [0.011102195743063524, 0.0, 0.0, 0.0, 0.0, 0.0, 0.0, 2586948.761635478, 0.0, 0.0, 0.0, 0.0, 0.0, 0.0, 4.999975105224264e-07, -1.5718782656238369e-34, -3.267962565228033e-36, 0.0, 0.0, 0.0, -1.5718782656238364e-34, 4.999751081460422e-07, 2.022627538467863e-39, 0.0, 0.0, 0.0, -3.2679625652280325e-36, -2.029530490045932e-39, 4.999751081460422e-07, 0.0, 0.0, 0.0, 0.0, 0.0, 0.0, 9.999999004619777e-10]
---
header: 
  seq: 4266
  stamp: 
    secs: 1518208325
    nsecs: 734596968
  frame_id: "swarmone/map"
child_frame_id: "swarmone/base_link"
pose: 
  pose: 
    position: 
      x: 9.0971711336e-08
      y: 3.1646200665e-06
      z: 0.0
    orientation: 
      x: 0.0
      y: 0.0
      z: 0.699716078204
      w: 0.714421031257
  covariance: [70628776198.08263, -1883598891.6769583, 0.0, 0.0, 0.0, -1.2874298815631321e-22, -1883598891.6769493, 50238170.36178785, 0.0, 0.0, 0.0, 2.6776802856927792e-24, 0.0, 0.0, 4.999748782138011e-07, -1.0850872468355668e-28, -1.31628778821739e-24, 0.0, 0.0, 0.0, -1.0850872468355666e-28, 4.999748782210233e-07, 4.894605198190872e-35, 0.0, 0.0, 0.0, -1.3162877882173896e-24, -4.8946063352726e-35, 4.999748782210233e-07, 0.0, -1.2874298815631324e-22, 2.677680285692779e-24, 0.0, 0.0, 0.0, 9.999979904278904e-10]
twist: 
  twist: 
    linear: 
      x: 7.65258529444e-09
      y: 0.0
      z: 0.0
    angular: 
      x: 0.0
      y: 0.0
      z: 0.0399999999999
  covariance: [0.010991160468757182, 0.0, 0.0, 0.0, 0.0, 0.0, 0.0, 2588759.8871615813, 0.0, 0.0, 0.0, 0.0, 0.0, 0.0, 4.999974875566351e-07, -4.88077652508503e-35, -1.014457578808395e-36, 0.0, 0.0, 0.0, -4.880776525085029e-35, 4.999748781901379e-07, -1.219378070968301e-39, 0.0, 0.0, 0.0, -1.0144575788083946e-36, 1.218393187453337e-39, 4.999748781901379e-07, 0.0, 0.0, 0.0, 0.0, 0.0, 0.0, 9.999998995176723e-10]
---
header: 
  seq: 4267
  stamp: 
    secs: 1518208325
    nsecs: 835058928
  frame_id: "swarmone/map"
child_frame_id: "swarmone/base_link"
pose: 
  pose: 
    position: 
      x: 9.09833779841e-08
      y: 3.16519705412e-06
      z: 0.0
    orientation: 
      x: 0.0
      y: 0.0
      z: 0.696135248645
      w: 0.717910659898
  covariance: [70711983842.3192, -1885571179.9504037, 0.0, 0.0, 0.0, -1.0142611903893235e-22, -1885571179.9503949, 50284218.04501919, 0.0, 0.0, 0.0, 2.1095301707557754e-24, 0.0, 0.0, 4.999751139942922e-07, -8.930490319688846e-29, -1.073200307750463e-24, 0.0, 0.0, 0.0, -8.930490319688845e-29, 4.999751140010211e-07, 6.403800117442718e-35, 0.0, 0.0, 0.0, -1.0732003077504634e-24, -6.403800888846221e-35, 4.999751140010211e-07, 0.0, -1.0142611903893236e-22, 2.1095301707557758e-24, 0.0, 0.0, 0.0, 9.999980092675887e-10]
twist: 
  twist: 
    linear: 
      x: 6.33436257276e-09
      y: 0.0
      z: 0.0
    angular: 
      x: 0.0
      y: 0.0
      z: 0.030000000995
  covariance: [0.01110522649210064, 0.0, 0.0, 0.0, 0.0, 0.0, 0.0, 2590589.012792578, 0.0, 0.0, 0.0, 0.0, 0.0, 0.0, 4.999975111419456e-07, -3.5658221401940653e-35, -7.410925343338093e-37, 0.0, 0.0, 0.0, -3.5658221401940675e-35, 4.999751139707046e-07, -3.912993907634557e-39, 0.0, 0.0, 0.0, -7.410925343338094e-37, 3.912441053174314e-39, 4.999751139707046e-07, 0.0, 0.0, 0.0, 0.0, 0.0, 0.0, 9.99999900459855e-10]
---
header: 
  seq: 4268
  stamp: 
    secs: 1518208325
    nsecs: 934834719
  frame_id: "swarmone/map"
child_frame_id: "swarmone/base_link"
pose: 
  pose: 
    position: 
      x: 9.10066347497e-08
      y: 3.16595920387e-06
      z: 0.0
    orientation: 
      x: 0.0
      y: 0.0
      z: 0.692537007957
      w: 0.721382348418
  covariance: [70794679417.47716, -1887945069.7172227, 0.0, 0.0, 0.0, -1.1822933650507217e-22, -1887945069.717214, 50351999.47916347, 0.0, 0.0, 0.0, 3.642117892940035e-24, 0.0, 0.0, 4.999749427363597e-07, -1.1310692037859402e-28, -1.231083559037227e-24, 0.0, 0.0, 0.0, -1.13106920378594e-28, 4.99974942739947e-07, 6.49169246539945e-35, 0.0, 0.0, 0.0, -1.2310835590372274e-24, -6.491693560597953e-35, 4.99974942739947e-07, 0.0, -1.1822933650507215e-22, 3.642117892940035e-24, 0.0, 0.0, 0.0, 9.999979955786384e-10]
twist: 
  twist: 
    linear: 
      x: 7.21679530417e-09
      y: 0.0
      z: 0.0
    angular: 
      x: 0.0
      y: 0.0
      z: 0.0399999989973
  covariance: [0.011022160739225313, 0.0, 0.0, 0.0, 0.0, 0.0, 0.0, 2592406.497842675, 0.0, 0.0, 0.0, 0.0, 0.0, 0.0, 4.999974940114142e-07, -4.343046646991973e-35, -1.3371686448850526e-36, 0.0, 0.0, 0.0, -4.3430466469919723e-35, 4.999749427127335e-07, -5.042426406900795e-39, 0.0, 0.0, 0.0, -1.337168644885052e-36, 5.0412472676700124e-39, 4.999749427127335e-07, 0.0, 0.0, 0.0, 0.0, 0.0, 0.0, 9.99999899775307e-10]
---
header: 
  seq: 4269
  stamp: 
    secs: 1518208326
    nsecs:  34746885
  frame_id: "swarmone/map"
child_frame_id: "swarmone/base_link"
pose: 
  pose: 
    position: 
      x: 9.10382063202e-08
      y: 3.16673955816e-06
      z: 0.0
    orientation: 
      x: 0.0
      y: 0.0
      z: 0.696135234314
      w: 0.717910673794
  covariance: [70877535847.09329, -1890738624.2692387, 0.0, 0.0, 0.0, -1.2321055977787584e-22, -1890738624.26923, 50442005.96164949, 0.0, 0.0, 0.0, 5.0292443006340585e-24, 0.0, 0.0, 4.999749769934135e-07, -2.1054847238819244e-28, -1.2971201278239555e-24, 0.0, 0.0, 0.0, -2.105484723881924e-28, 4.999749770003014e-07, 6.474779441242602e-35, 0.0, 0.0, 0.0, -1.2971201278239553e-24, -6.474781631019539e-35, 4.999749770003014e-07, 0.0, -1.232105597778758e-22, 5.0292443006340585e-24, 0.0, 0.0, 0.0, 9.999979983137047e-10]
twist: 
  twist: 
    linear: 
      x: 7.65212029435e-09
      y: 0.0
      z: 0.0
    angular: 
      x: 0.0
      y: 0.0
      z: 0.0300000010011
  covariance: [0.01103866497629831, 0.0, 0.0, 0.0, 0.0, 0.0, 0.0, 2594227.318679527, 0.0, 0.0, 0.0, 0.0, 0.0, 0.0, 4.9999749743843e-07, -4.4172234526849784e-35, -1.8016715913083217e-36, 0.0, 0.0, 0.0, -4.417223452684978e-35, 4.999749769698065e-07, 6.850713996476298e-39, 0.0, 0.0, 0.0, -1.8016715913083224e-36, -6.8523576650971e-39, 4.999749769698065e-07, 0.0, 0.0, 0.0, 0.0, 0.0, 0.0, 9.99999899912109e-10]
---
header: 
  seq: 4270
  stamp: 
    secs: 1518208326
    nsecs: 134506941
  frame_id: "swarmone/map"
child_frame_id: "swarmone/base_link"
pose: 
  pose: 
    position: 
      x: 9.10486993879e-08
      y: 3.16706502399e-06
      z: 0.0
    orientation: 
      x: 0.0
      y: 0.0
      z: 0.696135240781
      w: 0.717910667522
  covariance: [70960373197.66862, -1893117020.712969, 0.0, 0.0, 0.0, -2.1886218128631634e-22, -1893117020.71296, 50509930.8160945, 0.0, 0.0, 0.0, 6.741982443444376e-24, 0.0, 0.0, 4.99974931572025e-07, -9.07110720400553e-29, -9.8780369009528e-25, 0.0, 0.0, 0.0, -9.071107204005531e-29, 4.999749315810343e-07, 6.496925946597307e-35, 0.0, 0.0, 0.0, -9.878036900952804e-25, -6.496926662627435e-35, 4.999749315810343e-07, 0.0, -2.1886218128631634e-22, 6.741982443444375e-24, 0.0, 0.0, 0.0, 9.999979953833349e-10]
twist: 
  twist: 
    linear: 
      x: 4.58347938236e-09
      y: 0.0
      z: 0.0
    angular: 
      x: 0.0
      y: 0.0
      z: 0.0399999989973
  covariance: [0.011016559923097741, 0.0, 0.0, 0.0, 0.0, 0.0, 0.0, 2596046.217861032, 0.0, 0.0, 0.0, 0.0, 0.0, 0.0, 4.999974928559282e-07, -1.4969274059272751e-34, -4.610062769816228e-36, 0.0, 0.0, 0.0, -1.4969274059272758e-34, 4.99974931547499e-07, -1.1444083501100113e-38, 0.0, 0.0, 0.0, -4.610062769816227e-36, 1.143512321060994e-38, 4.99974931547499e-07, 0.0, 0.0, 0.0, 0.0, 0.0, 0.0, 9.999998997594944e-10]
---
header: 
  seq: 4271
  stamp: 
    secs: 1518208326
    nsecs: 234824181
  frame_id: "swarmone/map"
child_frame_id: "swarmone/base_link"
pose: 
  pose: 
    position: 
      x: 9.10709259247e-08
      y: 3.16779526242e-06
      z: 0.0
    orientation: 
      x: 0.0
      y: 0.0
      z: 0.696135241499
      w: 0.717910666827
  covariance: [71043751299.362, -1895511081.931553, 0.0, 0.0, 0.0, -1.0156684822009721e-22, -1895511081.9315438, 50578307.37296468, 0.0, 0.0, 0.0, 3.1288104682722278e-24, 0.0, 0.0, 4.999750780916764e-07, -1.324542252512966e-28, -1.0765029878744613e-24, 0.0, 0.0, 0.0, -1.3245422525129666e-28, 4.999750780984213e-07, 3.210853740698769e-35, 0.0, 0.0, 0.0, -1.076502987874461e-24, -3.21085486876676e-35, 4.999750780984213e-07, 0.0, -1.0156684822009722e-22, 3.1288104682722278e-24, 0.0, 0.0, 0.0, 9.999980063956305e-10]
twist: 
  twist: 
    linear: 
      x: 6.35508797587e-09
      y: 0.0
      z: 0.0
    angular: 
      x: 0.0
      y: 0.0
      z: 0.0300000009967
  covariance: [0.01108769314478102, 0.0, 0.0, 0.0, 0.0, 0.0, 0.0, 2597876.13317257, 0.0, 0.0, 0.0, 0.0, 0.0, 0.0, 4.999975075509467e-07, -3.5873098031960214e-35, -1.1042588270332527e-36, 0.0, 0.0, 0.0, -3.587309803196019e-35, 4.99975078068089e-07, 1.860680834142493e-39, 0.0, 0.0, 0.0, -1.104258827033253e-36, -1.861472150286294e-39, 4.99975078068089e-07, 0.0, 0.0, 0.0, 0.0, 0.0, 0.0, 9.999999003162562e-10]
---
header: 
  seq: 4272
  stamp: 
    secs: 1518208326
    nsecs: 334591866
  frame_id: "swarmone/map"
child_frame_id: "swarmone/base_link"
pose: 
  pose: 
    position: 
      x: 9.10942844066e-08
      y: 3.16855718118e-06
      z: 0.0
    orientation: 
      x: 0.0
      y: 0.0
      z: 0.696135240781
      w: 0.717910667522
  covariance: [71126750357.31293, -1897894372.607938, 0.0, 0.0, 0.0, -1.1837531074510584e-22, -1897894372.6079295, 50646380.00088524, 0.0, 0.0, 0.0, 3.646619103067862e-24, 0.0, 0.0, 4.99974940700338e-07, -1.1324664394877607e-28, -1.2327034162496598e-24, 0.0, 0.0, 0.0, -1.13246643948776e-28, 4.999749407039261e-07, -3.2468649825900796e-35, 0.0, 0.0, 0.0, -1.2327034162496596e-24, 3.246863884644607e-35, 4.999749407039261e-07, 0.0, -1.1837531074510582e-22, 3.646619103067861e-24, 0.0, 0.0, 0.0, 9.999979954157725e-10]
twist: 
  twist: 
    linear: 
      x: 7.23485090643e-09
      y: 0.0
      z: 0.0
    angular: 
      x: 0.0
      y: 0.0
      z: 0.0399999989976
  covariance: [0.01102116033438974, 0.0, 0.0, 0.0, 0.0, 0.0, 0.0, 2599696.8765691686, 0.0, 0.0, 0.0, 0.0, 0.0, 0.0, 4.999974938077698e-07, -4.339080555805404e-35, -1.3359664870364077e-36, 0.0, 0.0, 0.0, -4.339080555805406e-35, 4.999749406767118e-07, 7.1550029428389455e-40, 0.0, 0.0, 0.0, -1.3359664870364077e-36, -7.167001487786932e-40, 4.999749406767118e-07, 0.0, 0.0, 0.0, 0.0, 0.0, 0.0, 9.999998997671636e-10]
---
header: 
  seq: 4273
  stamp: 
    secs: 1518208326
    nsecs: 435052395
  frame_id: "swarmone/map"
child_frame_id: "swarmone/base_link"
pose: 
  pose: 
    position: 
      x: 9.11146998744e-08
      y: 3.1692179312e-06
      z: 0.0
    orientation: 
      x: 0.0
      y: 0.0
      z: 0.670587210293
      w: 0.741830703996
  covariance: [71210404175.82864, -1900296566.6497643, 0.0, 0.0, 0.0, -1.082378766635538e-22, -1900296566.6497555, 50714995.97986559, 0.0, 0.0, 0.0, 3.334314370765267e-24, 0.0, 0.0, 4.999751136399125e-07, -1.4115479506764725e-28, -1.145585613925104e-24, 0.0, 0.0, 0.0, -1.4115479506764727e-28, 4.999751136466382e-07, -3.2017662406152404e-35, 0.0, 0.0, 0.0, -1.1455856139251035e-24, 3.2017649283446474e-35, 4.999751136466382e-07, 0.0, -1.082378766635538e-22, 3.334314370765267e-24, 0.0, 0.0, 0.0, 9.999980092392408e-10]
twist: 
  twist: 
    linear: 
      x: 6.79352372675e-09
      y: 0.0
      z: 0.0
    angular: 
      x: 0.0
      y: 0.0
      z: 0.0399999999977
  covariance: [0.011105061663967717, 0.0, 0.0, 0.0, 0.0, 0.0, 0.0, 2601531.1236680066, 0.0, 0.0, 0.0, 0.0, 0.0, 0.0, 4.999975111065003e-07, -3.79831329660234e-35, -1.169205035180814e-36, 0.0, 0.0, 0.0, -3.7983132966023437e-35, 4.99975113616325e-07, 5.976020786661222e-39, 0.0, 0.0, 0.0, -1.1692050351808135e-36, -5.976980148719892e-39, 4.99975113616325e-07, 0.0, 0.0, 0.0, 0.0, 0.0, 0.0, 9.999999004584376e-10]
---
header: 
  seq: 4274
  stamp: 
    secs: 1518208326
    nsecs: 534913301
  frame_id: "swarmone/map"
child_frame_id: "swarmone/base_link"
pose: 
  pose: 
    position: 
      x: 9.11781504798e-08
      y: 3.16983107419e-06
      z: 0.0
    orientation: 
      x: 0.0
      y: 0.0
      z: 0.703279357975
      w: 0.71091359858
  covariance: [71293253388.22963, -1905590177.051971, 0.0, 0.0, 0.0, -1.0100904071769505e-22, -1905590177.0519621, 50938308.67666168, 0.0, 0.0, 0.0, 1.021586693786678e-23, 0.0, 0.0, 4.999749642016797e-07, -4.324787490110999e-28, -1.0804242174207678e-24, 0.0, 0.0, 0.0, -4.324787490110999e-28, 4.999749642084243e-07, -8.589002217257195e-39, 0.0, 0.0, 0.0, -1.0804242174207678e-24, 8.551975919666141e-39, 4.999749642084243e-07, 0.0, -1.0100904071769505e-22, 1.0215866937866781e-23, 0.0, 0.0, 0.0, 9.999979972852297e-10]
twist: 
  twist: 
    linear: 
      x: 6.35000034592e-09
      y: 0.0
      z: 0.0
    angular: 
      x: 0.0
      y: 0.0
      z: 0.0300000010041
  covariance: [0.011032522712638704, 0.0, 0.0, 0.0, 0.0, 0.0, 0.0, 2603355.2775007063, 0.0, 0.0, 0.0, 0.0, 0.0, 0.0, 4.999974961596014e-07, -3.6147033370979266e-35, -3.6528652227712504e-36, 0.0, 0.0, 0.0, -3.614703337097925e-35, 4.999749641780928e-07, -5.035591696832121e-39, 0.0, 0.0, 0.0, -3.6528652227712484e-36, 5.032439879706966e-39, 4.999749641780928e-07, 0.0, 0.0, 0.0, 0.0, 0.0, 0.0, 9.999998998607326e-10]
---
header: 
  seq: 4275
  stamp: 
    secs: 1518208326
    nsecs: 634725094
  frame_id: "swarmone/map"
child_frame_id: "swarmone/base_link"
pose: 
  pose: 
    position: 
      x: 9.11317751006e-08
      y: 3.16762905969e-06
      z: 0.0
    orientation: 
      x: 0.0
      y: 0.0
      z: 0.692537022409
      w: 0.721382334545
  covariance: [71376557124.91206, -1907150674.5353332, 0.0, 0.0, 0.0, 2.2984853211120996e-22, -1907150674.5353246, 50962294.18121578, 0.0, 0.0, 0.0, -2.481515926164937e-24, 0.0, 0.0, 4.999749514510244e-07, 7.235088846108792e-29, 2.245238784777843e-24, 0.0, 0.0, 0.0, 7.235088846108795e-29, 4.999749514550682e-07, 1.6216775441740695e-35, 0.0, 0.0, 0.0, 2.245238784777843e-24, -1.6216788441020922e-35, 4.999749514550682e-07, 0.0, 2.2984853211121e-22, -2.481515926164937e-24, 0.0, 0.0, 0.0, 9.999979963073514e-10]
twist: 
  twist: 
    linear: 
      x: -1.37781406013e-08
      y: 0.0
      z: 0.0
    angular: 
      x: 0.0
      y: 0.0
      z: 0.0399999989969
  covariance: [0.011026331997512755, 0.0, 0.0, 0.0, 0.0, 0.0, 0.0, 2605179.3860556656, 0.0, 0.0, 0.0, 0.0, 0.0, 0.0, 4.999974948796359e-07, 8.551688881137336e-35, 9.22362988871298e-37, 0.0, 0.0, 0.0, 8.551688881137334e-35, 4.999749514272917e-07, -3.420546451404691e-40, 0.0, 0.0, 0.0, 9.22362988871298e-37, 3.405485777297373e-40, 4.999749514272917e-07, 0.0, 0.0, 0.0, 0.0, 0.0, 0.0, 9.99999899811457e-10]
---
header: 
  seq: 4276
  stamp: 
    secs: 1518208326
    nsecs: 735310793
  frame_id: "swarmone/map"
child_frame_id: "swarmone/base_link"
pose: 
  pose: 
    position: 
      x: 9.12154704827e-08
      y: 3.16990714106e-06
      z: 0.0
    orientation: 
      x: 0.0
      y: 0.0
      z: 0.696135234362
      w: 0.717910673747
  covariance: [71460520480.27444, -1909983874.5674498, 0.0, 0.0, 0.0, -1.7469497264942753e-22, -1909983874.567441, 51053692.95917668, 0.0, 0.0, 0.0, 7.130758370418711e-24, 0.0, 0.0, 4.999751445044696e-07, -2.952575728369513e-28, -1.8068579935216445e-24, 0.0, 0.0, 0.0, -2.952575728369514e-28, 4.999751445113575e-07, 3.192982414280028e-35, 0.0, 0.0, 0.0, -1.8068579935216445e-24, -3.1929867243328726e-35, 4.999751445113575e-07, 0.0, -1.7469497264942755e-22, 7.130758370418711e-24, 0.0, 0.0, 0.0, 9.999980117185352e-10]
twist: 
  twist: 
    linear: 
      x: 1.09119522345e-08
      y: 0.0
      z: 0.0
    angular: 
      x: 0.0
      y: 0.0
      z: 0.0400000000002
  covariance: [0.011120177134565873, 0.0, 0.0, 0.0, 0.0, 0.0, 0.0, 2607018.499940652, 0.0, 0.0, 0.0, 0.0, 0.0, 0.0, 4.999975141923961e-07, -6.166477645917449e-35, -2.5149784631143846e-36, 0.0, 0.0, 0.0, -6.166477645917446e-35, 4.999751444808425e-07, -1.3236350401057343e-39, 0.0, 0.0, 0.0, -2.5149784631143856e-36, 1.3205446727489217e-39, 4.999751444808425e-07, 0.0, 0.0, 0.0, 0.0, 0.0, 0.0, 9.999999005823079e-10]
---
header: 
  seq: 4277
  stamp: 
    secs: 1518208326
    nsecs: 834317207
  frame_id: "swarmone/map"
child_frame_id: "swarmone/base_link"
pose: 
  pose: 
    position: 
      x: 9.12216103474e-08
      y: 3.17013478656e-06
      z: 0.0
    orientation: 
      x: 0.0
      y: 0.0
      z: 0.699716070989
      w: 0.714421038324
  covariance: [71543272331.99734, -1912362139.5190208, 0.0, 0.0, 0.0, -8.50289300574039e-23, -1912362139.519012, 51121690.58907245, 0.0, 0.0, 0.0, 2.619356214761736e-24, 0.0, 0.0, 4.99974748008023e-07, -1.0846053668073249e-28, -8.931280564277544e-25, 0.0, 0.0, 0.0, -1.084605366807325e-28, 4.999747480151325e-07, 9.890159401228737e-35, 0.0, 0.0, 0.0, -8.931280564277544e-25, -9.890160169605124e-35, 4.999747480151325e-07, 0.0, -8.502893005740391e-23, 2.6193562147617362e-24, 0.0, 0.0, 0.0, 9.999979800018814e-10]
twist: 
  twist: 
    linear: 
      x: 5.16827699112e-09
      y: 0.0
      z: 0.0
    angular: 
      x: 0.0
      y: 0.0
      z: 0.0400000000002
  covariance: [0.010929175298384101, 0.0, 0.0, 0.0, 0.0, 0.0, 0.0, 2608829.5831756853, 0.0, 0.0, 0.0, 0.0, 0.0, 0.0, 4.999974745345231e-07, -3.183866232366544e-35, -9.801415247540445e-37, 0.0, 0.0, 0.0, -3.183866232366542e-35, 4.999747479843973e-07, -5.6039859503338675e-40, 0.0, 0.0, 0.0, -9.801415247540443e-37, 5.598083193364442e-40, 4.999747479843973e-07, 0.0, 0.0, 0.0, 0.0, 0.0, 0.0, 9.99999898996463e-10]
---
header: 
  seq: 4278
  stamp: 
    secs: 1518208326
    nsecs: 934803724
  frame_id: "swarmone/map"
child_frame_id: "swarmone/base_link"
pose: 
  pose: 
    position: 
      x: 9.12340489677e-08
      y: 3.17071951024e-06
      z: 0.0
    orientation: 
      x: 0.0
      y: 0.0
      z: 0.696135248643
      w: 0.717910659899
  covariance: [71627361361.65176, -1914358081.5138915, 0.0, 0.0, 0.0, -9.062340394310335e-23, -1914358081.5138826, 51168340.935853, 0.0, 0.0, 0.0, 1.8848505337318152e-24, 0.0, 0.0, 4.999751200234228e-07, -7.890887032910271e-29, -9.48039376116599e-25, 0.0, 0.0, 0.0, -7.890887032910267e-29, 4.999751200302412e-07, 4.800055828625041e-35, 0.0, 0.0, 0.0, -9.480393761165986e-25, -4.800056438078582e-35, 4.999751200302412e-07, 0.0, -9.062340394310334e-23, 1.8848505337318145e-24, 0.0, 0.0, 0.0, 9.999980097550543e-10]
twist: 
  twist: 
    linear: 
      x: 5.60982139386e-09
      y: 0.0
      z: 0.0
    angular: 
      x: 0.0
      y: 0.0
      z: 0.0399999999996
  covariance: [0.011108147601509268, 0.0, 0.0, 0.0, 0.0, 0.0, 0.0, 2610668.598789606, 0.0, 0.0, 0.0, 0.0, 0.0, 0.0, 4.999975117443802e-07, -3.2008722857845276e-35, -6.65277117232955e-37, 0.0, 0.0, 0.0, -3.2008722857845287e-35, 4.999751199998156e-07, 1.7371133925234634e-40, 0.0, 0.0, 0.0, -6.652771172329548e-37, -1.7414885527890623e-40, 4.999751199998156e-07, 0.0, 0.0, 0.0, 0.0, 0.0, 0.0, 9.999999004841807e-10]
---
header: 
  seq: 4279
  stamp: 
    secs: 1518208327
    nsecs:  34667730
  frame_id: "swarmone/map"
child_frame_id: "swarmone/base_link"
pose: 
  pose: 
    position: 
      x: 9.12628703868e-08
      y: 3.17164910847e-06
      z: 0.0
    orientation: 
      x: 0.0
      y: 0.0
      z: 0.696135241499
      w: 0.717910666827
  covariance: [71710986187.78894, -1916761384.7748933, 0.0, 0.0, 0.0, -1.3313718575249708e-22, -1916761384.7748847, 51237052.78150458, 0.0, 0.0, 0.0, 4.1013410259434955e-24, 0.0, 0.0, 4.999749648716946e-07, -1.6982398829102155e-28, -1.386468962121484e-24, 0.0, 0.0, 0.0, -1.6982398829102152e-28, 4.999749648786855e-07, 3.240315280259792e-35, 0.0, 0.0, 0.0, -1.386468962121484e-24, -3.240317146209408e-35, 4.999749648786855e-07, 0.0, -1.331371857524971e-22, 4.101341025943498e-24, 0.0, 0.0, 0.0, 9.999979973492944e-10]
twist: 
  twist: 
    linear: 
      x: 8.23531685629e-09
      y: 0.0
      z: 0.0
    angular: 
      x: 0.0
      y: 0.0
      z: 0.0300000010012
  covariance: [0.011032815933703088, 0.0, 0.0, 0.0, 0.0, 0.0, 0.0, 2612497.077785284, 0.0, 0.0, 0.0, 0.0, 0.0, 0.0, 4.999974962254068e-07, -4.82911986279502e-35, -1.4865353675277095e-36, 0.0, 0.0, 0.0, -4.829119862795016e-35, 4.999749648480681e-07, -2.4853489658846234e-39, 0.0, 0.0, 0.0, -1.4865353675277092e-36, 2.4838448827966236e-39, 4.999749648480681e-07, 0.0, 0.0, 0.0, 0.0, 0.0, 0.0, 9.999998998638405e-10]
---
header: 
  seq: 4280
  stamp: 
    secs: 1518208327
    nsecs: 135073900
  frame_id: "swarmone/map"
child_frame_id: "swarmone/base_link"
pose: 
  pose: 
    position: 
      x: 9.12798017813e-08
      y: 3.17220290949e-06
      z: 0.0
    orientation: 
      x: 0.0
      y: 0.0
      z: 0.699716070375
      w: 0.714421038925
  covariance: [71795143740.9038, -1919180113.1340256, 0.0, 0.0, 0.0, -1.0548340773605663e-22, -1919180113.134017, 51306209.37358731, 0.0, 0.0, 0.0, 3.249476662718547e-24, 0.0, 0.0, 4.999751000601139e-07, -1.0091367879352452e-28, -1.091492189883356e-24, 0.0, 0.0, 0.0, -1.0091367879352451e-28, 4.999751000636367e-07, 4.507729512603686e-39, 0.0, 0.0, 0.0, -1.0914921898833559e-24, -4.516518706287687e-39, 4.999751000636367e-07, 0.0, -1.0548340773605663e-22, 3.2494766627185475e-24, 0.0, 0.0, 0.0, 9.999980081633274e-10]
twist: 
  twist: 
    linear: 
      x: 6.46225505149e-09
      y: 0.0
      z: 0.0
    angular: 
      x: 0.0
      y: 0.0
      z: 0.0399999990043
  covariance: [0.011098431508698981, 0.0, 0.0, 0.0, 0.0, 0.0, 0.0, 2614336.344164673, 0.0, 0.0, 0.0, 0.0, 0.0, 0.0, 4.999975097470448e-07, -3.7987973546256664e-35, -1.1696064247574117e-36, 0.0, 0.0, 0.0, -3.798797354625667e-35, 4.999751000364872e-07, -4.6466058627226007e-39, 0.0, 0.0, 0.0, -1.1696064247574108e-36, 4.645681243449318e-39, 4.999751000364872e-07, 0.0, 0.0, 0.0, 0.0, 0.0, 0.0, 9.999999004045464e-10]
---
header: 
  seq: 4281
  stamp: 
    secs: 1518208327
    nsecs: 234565258
  frame_id: "swarmone/map"
child_frame_id: "swarmone/base_link"
pose: 
  pose: 
    position: 
      x: 9.12975229984e-08
      y: 3.17302412042e-06
      z: 0.0
    orientation: 
      x: 0.0
      y: 0.0
      z: 0.699716078204
      w: 0.714421031257
  covariance: [71878633989.59087, -1921161901.4957497, 0.0, 0.0, 0.0, -1.2423779145823318e-22, -1921161901.4957411, 51352529.99029643, 0.0, 0.0, 0.0, 2.5839866811483776e-24, 0.0, 0.0, 4.999748711514973e-07, -1.081778960359364e-28, -1.3126379784040637e-24, 0.0, 0.0, 0.0, -1.081778960359364e-28, 4.999748711584512e-07, 4.736293175495482e-40, 0.0, 0.0, 0.0, -1.3126379784040631e-24, -4.849482548957456e-40, 4.999748711584512e-07, 0.0, -1.2423779145823315e-22, 2.583986681148378e-24, 0.0, 0.0, 0.0, 9.99997989847133e-10]
twist: 
  twist: 
    linear: 
      x: 7.76891079723e-09
      y: 0.0
      z: 0.0
    angular: 
      x: 0.0
      y: 0.0
      z: 0.0399999999999
  covariance: [0.010987799321637695, 0.0, 0.0, 0.0, 0.0, 0.0, 0.0, 2616159.704080981, 0.0, 0.0, 0.0, 0.0, 0.0, 0.0, 4.99997486852045e-07, -4.483931290233328e-35, -9.319661955223908e-37, 0.0, 0.0, 0.0, -4.4839312902333256e-35, 4.999748711278907e-07, -1.5393066862387012e-39, 0.0, 0.0, 0.0, -9.31966195522391e-37, 1.5384100971073735e-39, 4.999748711278907e-07, 0.0, 0.0, 0.0, 0.0, 0.0, 0.0, 9.999998994887772e-10]
---
header: 
  seq: 4282
  stamp: 
    secs: 1518208327
    nsecs: 335039616
  frame_id: "swarmone/map"
child_frame_id: "swarmone/base_link"
pose: 
  pose: 
    position: 
      x: 9.13133044793e-08
      y: 3.17378693921e-06
      z: 0.0
    orientation: 
      x: 0.0
      y: 0.0
      z: 0.696135248644
      w: 0.717910659898
  covariance: [71963027947.54509, -1923164983.738677, 0.0, 0.0, 0.0, -1.2778636333070375e-22, -1923164983.7386684, 51399345.425660245, 0.0, 0.0, 0.0, 2.65778500092879e-24, 0.0, 0.0, 4.999751169063988e-07, -1.088631861577736e-28, -1.3080875621765841e-24, 0.0, 0.0, 0.0, -1.0886318615777367e-28, 4.999751169134003e-07, -8.002355924906793e-35, 0.0, 0.0, 0.0, -1.3080875621765852e-24, 8.002354778602781e-35, 4.999751169134003e-07, 0.0, -1.277863633307038e-22, 2.657785000928791e-24, 0.0, 0.0, 0.0, 9.999980095160947e-10]
twist: 
  twist: 
    linear: 
      x: 7.75485803403e-09
      y: 0.0
      z: 0.0
    angular: 
      x: 0.0
      y: 0.0
      z: 0.0399999999995
  covariance: [0.0111066486470064, 0.0, 0.0, 0.0, 0.0, 0.0, 0.0, 2618001.9394640545, 0.0, 0.0, 0.0, 0.0, 0.0, 0.0, 4.999975114314362e-07, -4.625773080528705e-35, -9.61419589862779e-37, 0.0, 0.0, 0.0, -4.625773080528705e-35, 4.99975116882753e-07, 3.723771439961358e-39, 0.0, 0.0, 0.0, -9.614195898627794e-37, -3.72466805567943e-39, 4.99975116882753e-07, 0.0, 0.0, 0.0, 0.0, 0.0, 0.0, 9.999999004721374e-10]
---
header: 
  seq: 4283
  stamp: 
    secs: 1518208327
    nsecs: 434514284
  frame_id: "swarmone/map"
child_frame_id: "swarmone/base_link"
pose: 
  pose: 
    position: 
      x: 9.13422086603e-08
      y: 3.17472657116e-06
      z: 0.0
    orientation: 
      x: 0.0
      y: 0.0
      z: 0.699716071023
      w: 0.714421038291
  covariance: [72046638697.49007, -1925567787.3469024, 0.0, 0.0, 0.0, -1.4639070871423234e-22, -1925567787.3468938, 51468039.844916426, 0.0, 0.0, 0.0, 4.5096202057366985e-24, 0.0, 0.0, 4.999748668813479e-07, -1.867298054054466e-28, -1.5304346359546912e-24, 0.0, 0.0, 0.0, -1.8672980540544656e-28, 4.999748668883925e-07, 3.265740375547495e-35, 0.0, 0.0, 0.0, -1.5304346359546903e-24, -3.2657426531247275e-35, 4.999748668883925e-07, 0.0, -1.4639070871423234e-22, 4.5096202057366985e-24, 0.0, 0.0, 0.0, 9.999979895108242e-10]
twist: 
  twist: 
    linear: 
      x: 9.05132806715e-09
      y: 0.0
      z: 0.0
    angular: 
      x: 0.0
      y: 0.0
      z: 0.0400000000002
  covariance: [0.01098574898561179, 0.0, 0.0, 0.0, 0.0, 0.0, 0.0, 2619826.696946173, 0.0, 0.0, 0.0, 0.0, 0.0, 0.0, 4.999974864243363e-07, -5.349761804177467e-35, -1.6468041388862286e-36, 0.0, 0.0, 0.0, -5.349761804177467e-35, 4.999748668577218e-07, -8.630045481682508e-40, 0.0, 0.0, 0.0, -1.646804138886229e-36, 8.612339932964416e-40, 4.999748668577218e-07, 0.0, 0.0, 0.0, 0.0, 0.0, 0.0, 9.999998994719139e-10]
---
header: 
  seq: 4284
  stamp: 
    secs: 1518208327
    nsecs: 535046577
  frame_id: "swarmone/map"
child_frame_id: "swarmone/base_link"
pose: 
  pose: 
    position: 
      x: 9.13560316025e-08
      y: 3.17542386024e-06
      z: 0.0
    orientation: 
      x: 0.0
      y: 0.0
      z: 0.717356059037
      w: 0.696706742155
  covariance: [72131239180.3926, -1927575722.8787, 0.0, 0.0, 0.0, -1.2746531042717047e-22, -1927575722.8786914, 51514967.8346851, 0.0, 0.0, 0.0, 2.6511130089909366e-24, 0.0, 0.0, 4.999751312469408e-07, -1.0858993640269214e-28, -1.304053904837686e-24, 0.0, 0.0, 0.0, -1.0858993640269212e-28, 4.999751312539345e-07, -6.394829701763544e-35, 0.0, 0.0, 0.0, -1.304053904837686e-24, 6.39482856293823e-35, 4.999751312539345e-07, 0.0, -1.274653104271705e-22, 2.6511130089909366e-24, 0.0, 0.0, 0.0, 9.999980106632232e-10]
twist: 
  twist: 
    linear: 
      x: 7.71613119621e-09
      y: 0.0
      z: 0.0
    angular: 
      x: 0.0
      y: 0.0
      z: 0.0300000009962
  covariance: [0.0111136616136283, 0.0, 0.0, 0.0, 0.0, 0.0, 0.0, 2621671.7167207226, 0.0, 0.0, 0.0, 0.0, 0.0, 0.0, 4.999975128657866e-07, -4.6185308758677144e-35, -9.599345395993686e-37, 0.0, 0.0, 0.0, -4.6185308758677123e-35, 4.99975131223295e-07, 4.470404707526324e-39, 0.0, 0.0, 0.0, -9.599345395993689e-37, -4.471296908261483e-39, 4.99975131223295e-07, 0.0, 0.0, 0.0, 0.0, 0.0, 0.0, 9.99999900529494e-10]
---
header: 
  seq: 4285
  stamp: 
    secs: 1518208327
    nsecs: 634585381
  frame_id: "swarmone/map"
child_frame_id: "swarmone/base_link"
pose: 
  pose: 
    position: 
      x: 9.1331093376e-08
      y: 3.17642654174e-06
      z: 0.0
    orientation: 
      x: 0.0
      y: 0.0
      z: 0.692537051456
      w: 0.721382306659
  covariance: [72215064260.06952, -1927468359.7901158, 0.0, 0.0, 0.0, -1.619371463192555e-22, -1927468359.7901075, 51449707.24040982, 0.0, 0.0, 0.0, -4.730560221583536e-24, 0.0, 0.0, 4.999748828591778e-07, 1.4078331615884999e-28, -1.6196627202153284e-24, 0.0, 0.0, 0.0, 1.407833161588499e-28, 4.999748828630982e-07, 3.260804665625204e-35, 0.0, 0.0, 0.0, -1.6196627202153284e-24, -3.2608028615394133e-35, 4.999748828630982e-07, 0.0, -1.6193714631925548e-22, -4.7305602215835345e-24, 0.0, 0.0, 0.0, 9.999979908100648e-10]
twist: 
  twist: 
    linear: 
      x: 9.45837898906e-09
      y: 0.0
      z: 0.0
    angular: 
      x: 0.0
      y: 0.0
      z: 0.0399999989928
  covariance: [0.010993390436421419, 0.0, 0.0, 0.0, 0.0, 0.0, 0.0, 2623499.3567024735, 0.0, 0.0, 0.0, 0.0, 0.0, 0.0, 4.999974880201221e-07, -6.241959046867369e-35, 1.8225079354817884e-36, 0.0, 0.0, 0.0, -6.24195904686737e-35, 4.99974882835479e-07, -5.579868289873295e-39, 0.0, 0.0, 0.0, 1.822507935481787e-36, 5.582135720743266e-39, 4.99974882835479e-07, 0.0, 0.0, 0.0, 0.0, 0.0, 0.0, 9.999998995366858e-10]
---
header: 
  seq: 4286
  stamp: 
    secs: 1518208327
    nsecs: 734393358
  frame_id: "swarmone/map"
child_frame_id: "swarmone/base_link"
pose: 
  pose: 
    position: 
      x: 9.14209667876e-08
      y: 3.17882415732e-06
      z: 0.0
    orientation: 
      x: 0.0
      y: 0.0
      z: 0.703279400676
      w: 0.710913556337
  covariance: [72299160102.50276, -1930304746.4773183, 0.0, 0.0, 0.0, -3.221345717597934e-22, -1930304746.4773097, 51541145.53203652, 0.0, 0.0, 0.0, 1.3148920616766109e-23, 0.0, 0.0, 4.999749507635746e-07, -5.385795481139335e-28, -3.321489669146478e-24, 0.0, 0.0, 0.0, -5.385795481139334e-28, 4.99974950770659e-07, -9.73149522916742e-35, 0.0, 0.0, 0.0, -3.321489669146479e-24, 9.731480960162519e-35, 4.99974950770659e-07, 0.0, -3.2213457175979343e-22, 1.314892061676611e-23, 0.0, 0.0, 0.0, 9.99997996226004e-10]
twist: 
  twist: 
    linear: 
      x: 1.99376608705e-08
      y: 0.0
      z: 0.0
    angular: 
      x: 0.0
      y: 0.0
      z: 0.0400000000009
  covariance: [0.011025985953855023, 0.0, 0.0, 0.0, 0.0, 0.0, 0.0, 2625332.7916749306, 0.0, 0.0, 0.0, 0.0, 0.0, 0.0, 4.999974948137101e-07, -1.1614037588117533e-34, -4.736642433824502e-36, 0.0, 0.0, 0.0, -1.1614037588117533e-34, 4.999749507399295e-07, 3.496914722025979e-39, 0.0, 0.0, 0.0, -4.736642433824503e-36, -3.5077512229876436e-39, 4.999749507399295e-07, 0.0, 0.0, 0.0, 0.0, 0.0, 0.0, 9.999998998076278e-10]
---
header: 
  seq: 4287
  stamp: 
    secs: 1518208327
    nsecs: 834813356
  frame_id: "swarmone/map"
child_frame_id: "swarmone/base_link"
pose: 
  pose: 
    position: 
      x: 9.140591725e-08
      y: 3.17847362651e-06
      z: 0.0
    orientation: 
      x: 0.0
      y: 0.0
      z: 0.699716085318
      w: 0.71442102429
  covariance: [72383916283.57924, -1931891101.0639467, 0.0, 0.0, 0.0, -7.8571197462577e-23, -1931891101.063938, 51565519.62735228, 0.0, 0.0, 0.0, 8.482789370306124e-25, 0.0, 0.0, 4.999751030083307e-07, -3.200638383434561e-29, -7.41201478215344e-25, 0.0, 0.0, 0.0, -3.20063838343456e-29, 4.999751030160241e-07, -1.6023901247459105e-35, 0.0, 0.0, 0.0, -7.412014782153441e-25, 1.6023899338867595e-35, 4.999751030160241e-07, 0.0, -7.857119746257702e-23, 8.482789370306126e-25, 0.0, 0.0, 0.0, 9.999980084461938e-10]
