header: 
  seq: 5181
  stamp: 
    secs: 1518208417
    nsecs: 234687090
  frame_id: "swarmone/map"
child_frame_id: "swarmone/base_link"
pose: 
  pose: 
    position: 
      x: 1.09027347744e-07
      y: 3.84502358483e-06
      z: 0.0
    orientation: 
      x: 0.0
      y: 0.0
      z: 0.696135248713
      w: 0.717910659832
  covariance: [186595354156.58905, -4942933304.894789, 0.0, 0.0, 0.0, -5.493937432680003e-23, -4942933304.894767, 130945292.02349044, 0.0, 0.0, 0.0, 1.1426703070272273e-24, 0.0, 0.0, 4.999748769843252e-07, -4.354018203799752e-29, -5.281996870503824e-25, 0.0, 0.0, 0.0, -4.35401820379975e-29, 4.999748769920619e-07, 1.9140357106440397e-39, 0.0, 0.0, 0.0, -5.281996870503826e-25, -1.9157797302161132e-39, 4.999748769920619e-07, 0.0, -5.493937432680003e-23, 1.1426703070272273e-24, 0.0, 0.0, 0.0, 9.999979903613867e-10]
twist: 
  twist: 
    linear: 
      x: 2.79889417846e-09
      y: 0.0
      z: 0.0
    angular: 
      x: 0.0
      y: 0.0
      z: 0.0399999999995
  covariance: [0.010990571301547269, 0.0, 0.0, 0.0, 0.0, 0.0, 0.0, 4637058.844906404, 0.0, 0.0, 0.0, 0.0, 0.0, 0.0, 4.999974874303144e-07, -2.3730042779312046e-35, -4.932163337332324e-37, 0.0, 0.0, 0.0, -2.3730042779312038e-35, 4.999748769605609e-07, 4.0404761027137924e-39, 0.0, 0.0, 0.0, -4.932163337332326e-37, -4.040678134088979e-39, 4.999748769605609e-07, 0.0, 0.0, 0.0, 0.0, 0.0, 0.0, 9.999998995140612e-10]
---
header: 
  seq: 5182
  stamp: 
    secs: 1518208417
    nsecs: 334436893
  frame_id: "swarmone/map"
child_frame_id: "swarmone/base_link"
pose: 
  pose: 
    position: 
      x: 1.0905751606e-07
      y: 3.84602361497e-06
      z: 0.0
    orientation: 
      x: 0.0
      y: 0.0
      z: 0.70327940779
      w: 0.7109135493
  covariance: [186775017571.1264, -4948076753.402533, 0.0, 0.0, 0.0, -1.2143152626670942e-22, -4948076753.40251, 131091688.40407541, 0.0, 0.0, 0.0, 3.740746636617282e-24, 0.0, 0.0, 4.999749363152324e-07, -1.5835968794736723e-28, -1.2943402596400087e-24, 0.0, 0.0, 0.0, -1.5835968794736727e-28, 4.999749363220544e-07, 6.494959768152328e-35, 0.0, 0.0, 0.0, -1.294340259640009e-24, -6.494961399117309e-35, 4.999749363220544e-07, 0.0, -1.2143152626670944e-22, 3.740746636617283e-24, 0.0, 0.0, 0.0, 9.9999799505451e-10]
twist: 
  twist: 
    linear: 
      x: 7.6512422374e-09
      y: 0.0
      z: 0.0
    angular: 
      x: 0.0
      y: 0.0
      z: 0.030000001003
  covariance: [0.01101903789734868, 0.0, 0.0, 0.0, 0.0, 0.0, 0.0, 4639737.41661678, 0.0, 0.0, 0.0, 0.0, 0.0, 0.0, 4.999974933703809e-07, -4.294471389770339e-35, -1.3218649726117838e-36, 0.0, 0.0, 0.0, -4.2944713897703364e-35, 4.999749362916455e-07, -1.4608379520959738e-39, 0.0, 0.0, 0.0, -1.3218649726117835e-36, 1.459744890994521e-39, 4.999749362916455e-07, 0.0, 0.0, 0.0, 0.0, 0.0, 0.0, 9.999998997491956e-10]
---
header: 
  seq: 5183
  stamp: 
    secs: 1518208417
    nsecs: 435123205
  frame_id: "swarmone/map"
child_frame_id: "swarmone/base_link"
pose: 
  pose: 
    position: 
      x: 1.09059598454e-07
      y: 3.84641577013e-06
      z: 0.0
    orientation: 
      x: 0.0
      y: 0.0
      z: 0.692537022221
      w: 0.721382334725
  covariance: [186956583624.43088, -4951457913.554194, 0.0, 0.0, 0.0, -8.628651198519666e-23, -4951457913.554172, 131143533.10389464, 0.0, 0.0, 0.0, 9.315779676468019e-25, 0.0, 0.0, 4.999751692372183e-07, -2.8313170368012286e-29, -8.710230838887443e-25, 0.0, 0.0, 0.0, -2.831317036801229e-29, 4.999751692408719e-07, -2.4799813049464867e-39, 0.0, 0.0, 0.0, -8.710230838887447e-25, 2.4780007536825463e-39, 4.999751692408719e-07, 0.0, -8.628651198519666e-23, 9.315779676468017e-25, 0.0, 0.0, 0.0, 9.999980137073241e-10]
twist: 
  twist: 
    linear: 
      x: 5.01920322854e-09
      y: 0.0
      z: 0.0
    angular: 
      x: 0.0
      y: 0.0
      z: 0.0399999990057
  covariance: [0.011132281763583687, 0.0, 0.0, 0.0, 0.0, 0.0, 0.0, 4642442.182173106, 0.0, 0.0, 0.0, 0.0, 0.0, 0.0, 4.999975166650248e-07, -3.236020629091716e-35, -3.492032389581241e-37, 0.0, 0.0, 0.0, -3.236020629091715e-35, 4.999751692135541e-07, -1.6110278880611698e-40, 0.0, 0.0, 0.0, -3.492032389581242e-37, 1.6089210873520181e-40, 4.999751692135541e-07, 0.0, 0.0, 0.0, 0.0, 0.0, 0.0, 9.999999006816527e-10]
---
header: 
  seq: 5184
  stamp: 
    secs: 1518208417
    nsecs: 534562826
  frame_id: "swarmone/map"
child_frame_id: "swarmone/base_link"
pose: 
  pose: 
    position: 
      x: 1.09102904723e-07
      y: 3.84754911996e-06
      z: 0.0
    orientation: 
      x: 0.0
      y: 0.0
      z: 0.699716063837
      w: 0.714421045329
  covariance: [187135901198.3279, -4957488787.343722, 0.0, 0.0, 0.0, -4.471530472285931e-22, -4957488787.3437, 131337109.55277139, 0.0, 0.0, 0.0, 1.8251435839768002e-23, 0.0, 0.0, 4.999748504118991e-07, -3.1909580189569885e-28, -1.9758469007484202e-24, 0.0, 0.0, 0.0, -3.1909580189569885e-28, 4.999748504253191e-07, 6.539411228954929e-35, 0.0, 0.0, 0.0, -1.9758469007484206e-24, -6.539416228929158e-35, 4.999748504253191e-07, 0.0, -4.47153047228593e-22, 1.8251435839767996e-23, 0.0, 0.0, 0.0, 9.99997988928783e-10]
twist: 
  twist: 
    linear: 
      x: 9.412679967e-09
      y: 0.0
      z: 0.0
    angular: 
      x: 0.0
      y: 0.0
      z: 0.0400000000015
  covariance: [0.010977683181381303, 0.0, 0.0, 0.0, 0.0, 0.0, 0.0, 4645114.489048019, 0.0, 0.0, 0.0, 0.0, 0.0, 0.0, 4.999974847370552e-07, -3.0092350934327048e-34, -1.2284395202136083e-35, 0.0, 0.0, 0.0, -3.0092350934327043e-34, 4.999748503873582e-07, -1.1267800765491874e-38, 0.0, 0.0, 0.0, -1.2284395202136072e-35, 1.1220009310355231e-38, 4.999748503873582e-07, 0.0, 0.0, 0.0, 0.0, 0.0, 0.0, 9.999998994364785e-10]
---
header: 
  seq: 5185
  stamp: 
    secs: 1518208417
    nsecs: 635084867
  frame_id: "swarmone/map"
child_frame_id: "swarmone/base_link"
pose: 
  pose: 
    position: 
      x: 1.09109129552e-07
      y: 3.84791454072e-06
      z: 0.0
    orientation: 
      x: 0.0
      y: 0.0
      z: 0.69613524864
      w: 0.717910659902
  covariance: [187317422346.35538, -4961777101.249965, 0.0, 0.0, 0.0, -9.07132582479742e-23, -4961777101.249942, 131436968.85812686, 0.0, 0.0, 0.0, 1.8867364532710162e-24, 0.0, 0.0, 4.999751287634819e-07, -7.812340642032024e-29, -9.382738475441415e-25, 0.0, 0.0, 0.0, -7.812340642032023e-29, 4.999751287703867e-07, -7.994902464884041e-35, 0.0, 0.0, 0.0, -9.382738475441415e-25, 7.994901883539582e-35, 4.999751287703867e-07, 0.0, -9.071325824797421e-23, 1.8867364532710166e-24, 0.0, 0.0, 0.0, 9.99998010459377e-10]
twist: 
  twist: 
    linear: 
      x: 5.45579044708e-09
      y: 0.0
      z: 0.0
    angular: 
      x: 0.0
      y: 0.0
      z: 0.0300000009944
  covariance: [0.01111244687856142, 0.0, 0.0, 0.0, 0.0, 0.0, 0.0, 4647816.926630887, 0.0, 0.0, 0.0, 0.0, 0.0, 0.0, 4.999975126179732e-07, -3.302909591338289e-35, -6.874445071648979e-37, 0.0, 0.0, 0.0, -3.302909591338289e-35, 4.999751287398549e-07, 5.7256480642769284e-39, 0.0, 0.0, 0.0, -6.874445071648977e-37, -5.726095329444358e-39, 4.999751287398549e-07, 0.0, 0.0, 0.0, 0.0, 0.0, 0.0, 9.999999005193495e-10]
---
header: 
  seq: 5186
  stamp: 
    secs: 1518208417
    nsecs: 734619856
  frame_id: "swarmone/map"
child_frame_id: "swarmone/base_link"
pose: 
  pose: 
    position: 
      x: 1.09146416216e-07
      y: 3.84915051742e-06
      z: 0.0
    orientation: 
      x: 0.0
      y: 0.0
      z: 0.699716070313
      w: 0.714421038986
  covariance: [187497253428.36417, -4966925225.51494, 0.0, 0.0, 0.0, -1.711641900231635e-22, -4966925225.514918, 131583494.10273701, 0.0, 0.0, 0.0, 5.272803016555033e-24, 0.0, 0.0, 4.999748820050034e-07, -1.6025416927885384e-28, -1.748462897686451e-24, 0.0, 0.0, 0.0, -1.6025416927885389e-28, 4.999748820087717e-07, 6.523528355088429e-35, 0.0, 0.0, 0.0, -1.74846289768645e-24, -6.523530593085978e-35, 4.999748820087717e-07, 0.0, -1.7116419002316356e-22, 5.272803016555033e-24, 0.0, 0.0, 0.0, 9.999979907311547e-10]
twist: 
  twist: 
    linear: 
      x: 1.02834825959e-08
      y: 0.0
      z: 0.0
    angular: 
      x: 0.0
      y: 0.0
      z: 0.0399999989956
  covariance: [0.010992984476320487, 0.0, 0.0, 0.0, 0.0, 0.0, 0.0, 4650493.860818984, 0.0, 0.0, 0.0, 0.0, 0.0, 0.0, 4.999974879358345e-07, -6.424514788880014e-35, -1.9780786724756554e-36, 0.0, 0.0, 0.0, -6.424514788880011e-35, 4.999748819813401e-07, -1.7441401442791328e-39, 0.0, 0.0, 0.0, -1.9780786724756544e-36, 1.741620644034579e-39, 4.999748819813401e-07, 0.0, 0.0, 0.0, 0.0, 0.0, 0.0, 9.999998995328357e-10]
---
header: 
  seq: 5187
  stamp: 
    secs: 1518208417
    nsecs: 835065365
  frame_id: "swarmone/map"
child_frame_id: "swarmone/base_link"
pose: 
  pose: 
    position: 
      x: 1.09158616052e-07
      y: 3.84978130744e-06
      z: 0.0
    orientation: 
      x: 0.0
      y: 0.0
      z: 0.699716078204
      w: 0.714421031257
  covariance: [187678916435.86972, -4971216705.077932, 0.0, 0.0, 0.0, -3.734492516726541e-22, -4971216705.077911, 131683422.36524253, 0.0, 0.0, 0.0, 7.766770748186393e-24, 0.0, 0.0, 4.999751021227792e-07, -1.33527550422441e-28, -1.6055254082242974e-24, 0.0, 0.0, 0.0, -1.3352755042244099e-28, 4.999751021361363e-07, -3.204215828036364e-35, 0.0, 0.0, 0.0, -1.6055254082242966e-24, 3.2042141105769746e-35, 4.999751021361363e-07, 0.0, -3.734492516726541e-22, 7.766770748186392e-24, 0.0, 0.0, 0.0, 9.99998009073826e-10]
twist: 
  twist: 
    linear: 
      x: 7.63095864484e-09
      y: 0.0
      z: 0.0
    angular: 
      x: 0.0
      y: 0.0
      z: 0.0399999999996
  covariance: [0.011099225072961056, 0.0, 0.0, 0.0, 0.0, 0.0, 0.0, 4653196.324729172, 0.0, 0.0, 0.0, 0.0, 0.0, 0.0, 4.999975099135767e-07, -2.462953616970146e-34, -5.1206125735405215e-36, 0.0, 0.0, 0.0, -2.462953616970146e-34, 4.999751020982274e-07, -2.98602360628901e-39, 0.0, 0.0, 0.0, -5.120612573540519e-36, 2.9694841749370186e-39, 4.999751020982274e-07, 0.0, 0.0, 0.0, 0.0, 0.0, 0.0, 9.99999900443548e-10]
---
header: 
  seq: 5188
  stamp: 
    secs: 1518208417
    nsecs: 934704781
  frame_id: "swarmone/map"
child_frame_id: "swarmone/base_link"
pose: 
  pose: 
    position: 
      x: 1.09177164744e-07
      y: 3.85066157425e-06
      z: 0.0
    orientation: 
      x: 0.0
      y: 0.0
      z: 0.696135248704
      w: 0.71791065984
  covariance: [187859260642.69073, -4975476884.4034195, 0.0, 0.0, 0.0, -1.3461723755222617e-22, -4975476884.4033985, 131782620.45105867, 0.0, 0.0, 0.0, 2.799861876967184e-24, 0.0, 0.0, 4.99974908546719e-07, -1.1852860921291472e-28, -1.4361026360327776e-24, 0.0, 0.0, 0.0, -1.1852860921291472e-28, 4.999749085535594e-07, 1.0817033402991919e-39, 0.0, 0.0, 0.0, -1.436102636032777e-24, -1.0951843989212246e-39, 4.999749085535594e-07, 0.0, -1.3461723755222617e-22, 2.7998618769671836e-24, 0.0, 0.0, 0.0, 9.99997992833225e-10]
twist: 
  twist: 
    linear: 
      x: 8.50246304663e-09
      y: 0.0
      z: 0.0
    angular: 
      x: 0.0
      y: 0.0
      z: 0.0399999999996
  covariance: [0.011005721519191386, 0.0, 0.0, 0.0, 0.0, 0.0, 0.0, 4655878.135073907, 0.0, 0.0, 0.0, 0.0, 0.0, 0.0, 4.999974905929553e-07, -4.803537458557655e-35, -9.983406837564554e-37, 0.0, 0.0, 0.0, -4.803537458557652e-35, 4.999749085231321e-07, 3.3013967793289156e-39, 0.0, 0.0, 0.0, -9.983406837564558e-37, -3.3024470135142135e-39, 4.999749085231321e-07, 0.0, 0.0, 0.0, 0.0, 0.0, 0.0, 9.999998996381304e-10]
---
header: 
  seq: 5189
  stamp: 
    secs: 1518208418
    nsecs:  34355879
  frame_id: "swarmone/map"
child_frame_id: "swarmone/base_link"
pose: 
  pose: 
    position: 
      x: 1.09199318539e-07
      y: 3.85137429169e-06
      z: 0.0
    orientation: 
      x: 0.0
      y: 0.0
      z: 0.696135241499
      w: 0.717910666826
  covariance: [188039718042.27777, -4980642599.11929, 0.0, 0.0, 0.0, -1.2297528986074695e-22, -4980642599.119269, 131929635.20779967, 0.0, 0.0, 0.0, 3.788300132341953e-24, 0.0, 0.0, 4.99974911434712e-07, -1.5859679271026407e-28, -1.2975607843759668e-24, 0.0, 0.0, 0.0, -1.5859679271026412e-28, 4.999749114416405e-07, -1.5035418836660046e-39, 0.0, 0.0, 0.0, -1.297560784375967e-24, 1.4871832634532213e-39, 4.999749114416405e-07, 0.0, -1.2297528986074695e-22, 3.788300132341953e-24, 0.0, 0.0, 0.0, 9.99997993069492e-10]
twist: 
  twist: 
    linear: 
      x: 7.61701892555e-09
      y: 0.0
      z: 0.0
    angular: 
      x: 0.0
      y: 0.0
      z: 0.0399999999999
  covariance: [0.011007068666919913, 0.0, 0.0, 0.0, 0.0, 0.0, 0.0, 4658561.290260819, 0.0, 0.0, 0.0, 0.0, 0.0, 0.0, 4.999974908812023e-07, -4.4336293211194634e-35, -1.3647735937897582e-36, 0.0, 0.0, 0.0, -4.4336293211194645e-35, 4.999749114111053e-07, -1.9352124301169778e-39, 0.0, 0.0, 0.0, -1.3647735937897588e-36, 1.9339797758706514e-39, 4.999749114111053e-07, 0.0, 0.0, 0.0, 0.0, 0.0, 0.0, 9.999998996498962e-10]
---
header: 
  seq: 5190
  stamp: 
    secs: 1518208418
    nsecs: 135081530
  frame_id: "swarmone/map"
child_frame_id: "swarmone/base_link"
pose: 
  pose: 
    position: 
      x: 1.09217386172e-07
      y: 3.85195299206e-06
      z: 0.0
    orientation: 
      x: 0.0
      y: 0.0
      z: 0.699716071112
      w: 0.714421038204
  covariance: [188222262246.52997, -4985868255.336178, 0.0, 0.0, 0.0, -1.0265780106362882e-22, -4985868255.336158, 132078362.67267062, 0.0, 0.0, 0.0, 3.1624165550767607e-24, 0.0, 0.0, 4.999751790937597e-07, -1.323943624494036e-28, -1.0716731984567518e-24, 0.0, 0.0, 0.0, -1.3239436244940356e-28, 4.999751791005423e-07, 1.2740864558456518e-34, 0.0, 0.0, 0.0, -1.0716731984567516e-24, -1.274086568550823e-34, 4.999751791005423e-07, 0.0, -1.0265780106362885e-22, 3.162416555076761e-24, 0.0, 0.0, 0.0, 9.99998014480249e-10]
twist: 
  twist: 
    linear: 
      x: 6.30180933772e-09
      y: 0.0
      z: 0.0
    angular: 
      x: 0.0
      y: 0.0
      z: 0.0400000000002
  covariance: [0.011137124666318013, 0.0, 0.0, 0.0, 0.0, 0.0, 0.0, 4661274.425702145, 0.0, 0.0, 0.0, 0.0, 0.0, 0.0, 4.999975176526271e-07, -3.656320414192348e-35, -1.1255148926810427e-36, 0.0, 0.0, 0.0, -3.6563204141923486e-35, 4.999751790701522e-07, -4.84404947559216e-40, 0.0, 0.0, 0.0, -1.1255148926810429e-36, 4.835177561620888e-40, 4.999751790701522e-07, 0.0, 0.0, 0.0, 0.0, 0.0, 0.0, 9.999999007204425e-10]
---
header: 
  seq: 5191
  stamp: 
    secs: 1518208418
    nsecs: 234928608
  frame_id: "swarmone/map"
child_frame_id: "swarmone/base_link"
pose: 
  pose: 
    position: 
      x: 1.09239200378e-07
      y: 3.8529631919e-06
      z: 0.0
    orientation: 
      x: 0.0
      y: 0.0
      z: 0.696135248689
      w: 0.717910659855
  covariance: [188403400858.78064, -4990147339.125048, 0.0, 0.0, 0.0, -1.497319852798801e-22, -4990147339.125028, 132178003.46780108, 0.0, 0.0, 0.0, 3.114228112480143e-24, 0.0, 0.0, 4.99974960519678e-07, -1.2619937512217562e-28, -1.5258901508926081e-24, 0.0, 0.0, 0.0, -1.2619937512217556e-28, 4.999749605268548e-07, -6.482445377666704e-35, 0.0, 0.0, 0.0, -1.5258901508926075e-24, 6.48244383899408e-35, 4.999749605268548e-07, 0.0, -1.4973198527988013e-22, 3.1142281124801433e-24, 0.0, 0.0, 0.0, 9.999979970116678e-10]
twist: 
  twist: 
    linear: 
      x: 8.93867264705e-09
      y: 0.0
      z: 0.0
    angular: 
      x: 0.0
      y: 0.0
      z: 0.0399999999995
  covariance: [0.011030738320420879, 0.0, 0.0, 0.0, 0.0, 0.0, 0.0, 4663964.935483182, 0.0, 0.0, 0.0, 0.0, 0.0, 0.0, 4.999974957889402e-07, -5.628117181418622e-35, -1.1697921241479504e-36, 0.0, 0.0, 0.0, -5.628117181418622e-35, 4.999749604960143e-07, -1.7474630213409915e-39, 0.0, 0.0, 0.0, -1.1697921241479498e-36, 1.7461417342301732e-39, 4.999749604960143e-07, 0.0, 0.0, 0.0, 0.0, 0.0, 0.0, 9.999998998468637e-10]
---
header: 
  seq: 5192
  stamp: 
    secs: 1518208418
    nsecs: 334682465
  frame_id: "swarmone/map"
child_frame_id: "swarmone/base_link"
pose: 
  pose: 
    position: 
      x: 1.09262600623e-07
      y: 3.85371639985e-06
      z: 0.0
    orientation: 
      x: 0.0
      y: 0.0
      z: 0.696135241499
      w: 0.717910666827
  covariance: [188584462844.1764, -4995330499.665601, 0.0, 0.0, 0.0, -1.3161746501634678e-22, -4995330499.66558, 132325519.34793057, 0.0, 0.0, 0.0, 4.054524232421329e-24, 0.0, 0.0, 4.999749372263608e-07, -1.6788605357412632e-28, -1.3721550836781208e-24, 0.0, 0.0, 0.0, -1.6788605357412634e-28, 4.99974937233367e-07, 1.2989464913874549e-34, 0.0, 0.0, 0.0, -1.3721550836781206e-24, -1.298946674060783e-34, 4.99974937233367e-07, 0.0, -1.3161746501634675e-22, 4.054524232421327e-24, 0.0, 0.0, 0.0, 9.99997995137881e-10]
twist: 
  twist: 
    linear: 
      x: 8.04958938796e-09
      y: 0.0
      z: 0.0
    angular: 
      x: 0.0
      y: 0.0
      z: 0.0300000010023
  covariance: [0.011019498334121195, 0.0, 0.0, 0.0, 0.0, 0.0, 0.0, 4666653.966957154, 0.0, 0.0, 0.0, 0.0, 0.0, 0.0, 4.999974934602999e-07, -4.8047302383389025e-35, -1.4790231828790695e-36, 0.0, 0.0, 0.0, -4.804730238338905e-35, 4.999749372027345e-07, -2.114081104921402e-39, 0.0, 0.0, 0.0, -1.4790231828790695e-36, 2.1125923071691523e-39, 4.999749372027345e-07, 0.0, 0.0, 0.0, 0.0, 0.0, 0.0, 9.99999899753269e-10]
---
header: 
  seq: 5193
  stamp: 
    secs: 1518208418
    nsecs: 434783220
  frame_id: "swarmone/map"
child_frame_id: "swarmone/base_link"
pose: 
  pose: 
    position: 
      x: 1.0928542766e-07
      y: 3.85445461805e-06
      z: 0.0
    orientation: 
      x: 0.0
      y: 0.0
      z: 0.696135240781
      w: 0.717910667522
  covariance: [188766294390.0204, -5000535907.884181, 0.0, 0.0, 0.0, -1.2651144633786302e-22, -5000535907.884161, 132473675.49506417, 0.0, 0.0, 0.0, 3.8972565043436826e-24, 0.0, 0.0, 4.999750240318721e-07, -1.1972408271819122e-28, -1.2988904914220248e-24, 0.0, 0.0, 0.0, -1.1972408271819129e-28, 4.999750240355041e-07, 3.224923822470526e-35, 0.0, 0.0, 0.0, -1.298890491422025e-24, -3.22492508045354e-35, 4.999750240355041e-07, 0.0, -1.26511446337863e-22, 3.8972565043436804e-24, 0.0, 0.0, 0.0, 9.999980020868779e-10]
twist: 
  twist: 
    linear: 
      x: 7.60650380898e-09
      y: 0.0
      z: 0.0
    angular: 
      x: 0.0
      y: 0.0
      z: 0.0399999990009
  covariance: [0.011061421285807378, 0.0, 0.0, 0.0, 0.0, 0.0, 0.0, 4669353.388457857, 0.0, 0.0, 0.0, 0.0, 0.0, 0.0, 4.999975021420613e-07, -4.659042694175107e-35, -1.434488862588907e-36, 0.0, 0.0, 0.0, -4.6590426941751064e-35, 4.999750240082267e-07, -2.4607056828802715e-39, 0.0, 0.0, 0.0, -1.4344888625889071e-36, 2.45935766138526e-39, 4.999750240082267e-07, 0.0, 0.0, 0.0, 0.0, 0.0, 0.0, 9.99999900100674e-10]
---
header: 
  seq: 5194
  stamp: 
    secs: 1518208418
    nsecs: 535326481
  frame_id: "swarmone/map"
child_frame_id: "swarmone/base_link"
pose: 
  pose: 
    position: 
      x: 1.09301583598e-07
      y: 3.85497014389e-06
      z: 0.0
    orientation: 
      x: 0.0
      y: 0.0
      z: 0.699716071099
      w: 0.714421038216
  covariance: [188949070905.28995, -5005768550.198915, 0.0, 0.0, 0.0, -1.099350695173647e-22, -5005768550.198895, 132622612.9963917, 0.0, 0.0, 0.0, 3.386585583507279e-24, 0.0, 0.0, 4.999751335331018e-07, -1.2777853479362404e-28, -1.0362068337366941e-24, 0.0, 0.0, 0.0, -1.277785347936241e-28, 4.999751335407725e-07, -6.393701330876363e-35, 0.0, 0.0, 0.0, -1.036206833736694e-24, 6.393700278682494e-35, 4.999751335407725e-07, 0.0, -1.0993506951736473e-22, 3.386585583507279e-24, 0.0, 0.0, 0.0, 9.999980108878472e-10]
twist: 
  twist: 
    linear: 
      x: 5.8546816577e-09
      y: 0.0
      z: 0.0
    angular: 
      x: 0.0
      y: 0.0
      z: 0.0400000000002
  covariance: [0.011114784883001652, 0.0, 0.0, 0.0, 0.0, 0.0, 0.0, 4672065.790707299, 0.0, 0.0, 0.0, 0.0, 0.0, 0.0, 4.999975130900757e-07, -4.505928184277363e-35, -1.3872400625123023e-36, 0.0, 0.0, 0.0, -4.5059281842773617e-35, 4.999751335093213e-07, 3.38059035480235e-39, 0.0, 0.0, 0.0, -1.3872400625123016e-36, -3.381748301663342e-39, 4.999751335093213e-07, 0.0, 0.0, 0.0, 0.0, 0.0, 0.0, 9.999999005403444e-10]
---
header: 
  seq: 5195
  stamp: 
    secs: 1518208418
    nsecs: 635118723
  frame_id: "swarmone/map"
child_frame_id: "swarmone/base_link"
pose: 
  pose: 
    position: 
      x: 1.0932548661e-07
      y: 3.85606382591e-06
      z: 0.0
    orientation: 
      x: 0.0
      y: 0.0
      z: 0.696135248693
      w: 0.717910659851
  covariance: [189130668988.19193, -5010058832.627091, 0.0, 0.0, 0.0, -1.5013050586033248e-22, -5010058832.627073, 132722520.89453186, 0.0, 0.0, 0.0, 3.122521259821796e-24, 0.0, 0.0, 4.999749469209164e-07, -1.3072330149554075e-28, -1.5814411933521685e-24, 0.0, 0.0, 0.0, -1.307233014955408e-28, 4.999749469278291e-07, -9.735144309250103e-35, 0.0, 0.0, 0.0, -1.5814411933521688e-24, 9.735142663541676e-35, 4.999749469278291e-07, 0.0, -1.501305058603325e-22, 3.1225212598217966e-24, 0.0, 0.0, 0.0, 9.999979959081268e-10]
twist: 
  twist: 
    linear: 
      x: 9.37199289532e-09
      y: 0.0
      z: 0.0
    angular: 
      x: 0.0
      y: 0.0
      z: 0.0499999989975
  covariance: [0.011024210190650016, 0.0, 0.0, 0.0, 0.0, 0.0, 0.0, 4674758.970856264, 0.0, 0.0, 0.0, 0.0, 0.0, 0.0, 4.999974944305581e-07, -5.402921197429728e-35, -1.1230121297605091e-36, 0.0, 0.0, 0.0, -5.40292119742973e-35, 4.999749468973095e-07, 3.966089120311682e-39, 0.0, 0.0, 0.0, -1.1230121297605098e-36, -3.9673361163949096e-39, 4.999749468973095e-07, 0.0, 0.0, 0.0, 0.0, 0.0, 0.0, 9.999998997918293e-10]
---
header: 
  seq: 5196
  stamp: 
    secs: 1518208418
    nsecs: 734674454
  frame_id: "swarmone/map"
child_frame_id: "swarmone/base_link"
pose: 
  pose: 
    position: 
      x: 1.09353690369e-07
      y: 3.85697829762e-06
      z: 0.0
    orientation: 
      x: 0.0
      y: 0.0
      z: 0.696135242216
      w: 0.717910666131
  covariance: [189311928997.67612, -5015247825.987267, 0.0, 0.0, 0.0, -4.834844276873758e-22, -5015247825.987249, 132870209.75943163, 0.0, 0.0, 0.0, 1.48929791329919e-23, 0.0, 0.0, 4.999748787547822e-07, -3.0363720205070203e-28, -1.9920793128068416e-24, 0.0, 0.0, 0.0, -3.036372020507019e-28, 4.999748787728746e-07, 2.610143141417606e-34, 0.0, 0.0, 0.0, -1.9920793128068423e-24, -2.610143622281255e-34, 4.999748787728746e-07, 0.0, -4.834844276873759e-22, 1.4892979132991898e-23, 0.0, 0.0, 0.0, 9.999979912906294e-10]
twist: 
  twist: 
    linear: 
      x: 9.35434046215e-09
      y: 0.0
      z: 0.0
    angular: 
      x: 0.0
      y: 0.0
      z: 0.0400000010039
  covariance: [0.010991218209033657, 0.0, 0.0, 0.0, 0.0, 0.0, 0.0, 4677446.799176768, 0.0, 0.0, 0.0, 0.0, 0.0, 0.0, 4.999974875696324e-07, -3.238912861728097e-34, -9.976536220579716e-36, 0.0, 0.0, 0.0, -3.2389128617280955e-34, 4.999748787302021e-07, 8.195592751276376e-39, 0.0, 0.0, 0.0, -9.976536220579709e-36, -8.236665364159829e-39, 4.999748787302021e-07, 0.0, 0.0, 0.0, 0.0, 0.0, 0.0, 9.999998995537632e-10]
---
header: 
  seq: 5197
  stamp: 
    secs: 1518208418
    nsecs: 835199594
  frame_id: "swarmone/map"
child_frame_id: "swarmone/base_link"
pose: 
  pose: 
    position: 
      x: 1.09376642663e-07
      y: 3.85771587534e-06
      z: 0.0
    orientation: 
      x: 0.0
      y: 0.0
      z: 0.696135241499
      w: 0.717910666826
  covariance: [189495094976.96262, -5020491765.849759, 0.0, 0.0, 0.0, -1.3144008945396144e-22, -5020491765.849742, 133019473.65582867, 0.0, 0.0, 0.0, 4.0490654835455214e-24, 0.0, 0.0, 4.999751295303587e-07, -1.6765926269929285e-28, -1.3598270258741647e-24, 0.0, 0.0, 0.0, -1.676592626992929e-28, 4.999751295372596e-07, -9.593438028755989e-35, 0.0, 0.0, 0.0, -1.3598270258741645e-24, 9.5934362104169e-35, 4.999751295372596e-07, 0.0, -1.3144008945396144e-22, 4.049065483545522e-24, 0.0, 0.0, 0.0, 9.999980105207215e-10]
twist: 
  twist: 
    linear: 
      x: 8.02746563636e-09
      y: 0.0
      z: 0.0
    angular: 
      x: 0.0
      y: 0.0
      z: 0.0399999999999
  covariance: [0.011112821555151564, 0.0, 0.0, 0.0, 0.0, 0.0, 0.0, 4680161.845023128, 0.0, 0.0, 0.0, 0.0, 0.0, 0.0, 4.999975126946767e-07, -4.731106263797038e-35, -1.4563814417732163e-36, 0.0, 0.0, 0.0, -4.731106263797037e-35, 4.999751295067319e-07, 5.511242439432479e-40, 0.0, 0.0, 0.0, -1.4563814417732162e-36, -5.5258614875044485e-40, 4.999751295067319e-07, 0.0, 0.0, 0.0, 0.0, 0.0, 0.0, 9.999999005224167e-10]
---
header: 
  seq: 5198
  stamp: 
    secs: 1518208418
    nsecs: 934778452
  frame_id: "swarmone/map"
child_frame_id: "swarmone/base_link"
pose: 
  pose: 
    position: 
      x: 1.09403011248e-07
      y: 3.85857369208e-06
      z: 0.0
    orientation: 
      x: 0.0
      y: 0.0
      z: 0.696135241499
      w: 0.717910666826
  covariance: [189676676498.19025, -5025690545.240239, 0.0, 0.0, 0.0, -1.3828691348312597e-22, -5025690545.240222, 133167458.7845247, 0.0, 0.0, 0.0, 4.259984964632001e-24, 0.0, 0.0, 4.999748931792101e-07, -1.7639320212339645e-28, -1.4442081596332732e-24, 0.0, 0.0, 0.0, -1.763932021233965e-28, 4.999748931862403e-07, -6.517334763886332e-35, 0.0, 0.0, 0.0, -1.4442081596332725e-24, 6.517332720692042e-35, 4.999748931862403e-07, 0.0, -1.3828691348312597e-22, 4.2599849646320006e-24, 0.0, 0.0, 0.0, 9.999979916144496e-10]
twist: 
  twist: 
    linear: 
      x: 8.46248941728e-09
      y: 0.0
      z: 0.0
    angular: 
      x: 0.0
      y: 0.0
      z: 0.0399999999999
  covariance: [0.010998346884428897, 0.0, 0.0, 0.0, 0.0, 0.0, 0.0, 4682852.368712005, 0.0, 0.0, 0.0, 0.0, 0.0, 0.0, 4.999974890546696e-07, -5.091132375734117e-35, -1.5672350717312936e-36, 0.0, 0.0, 0.0, -5.091132375734115e-35, 4.99974893155584e-07, 1.922318864917733e-40, 0.0, 0.0, 0.0, -1.5672350717312943e-36, -1.9380317966564146e-40, 4.99974893155584e-07, 0.0, 0.0, 0.0, 0.0, 0.0, 0.0, 9.99999899577096e-10]
---
header: 
  seq: 5199
  stamp: 
    secs: 1518208419
    nsecs:  34847498
  frame_id: "swarmone/map"
child_frame_id: "swarmone/base_link"
pose: 
  pose: 
    position: 
      x: 1.09432587865e-07
      y: 3.85953711067e-06
      z: 0.0
    orientation: 
      x: 0.0
      y: 0.0
      z: 0.696135241499
      w: 0.717910666827
  covariance: [189859292081.51138, -5030919125.476199, 0.0, 0.0, 0.0, -1.6960888865033257e-22, -5030919125.476181, 133316298.73144947, 0.0, 0.0, 0.0, 5.224858275997278e-24, 0.0, 0.0, 4.999750157405878e-07, -1.9908700994210424e-28, -1.6220928312910044e-24, 0.0, 0.0, 0.0, -1.990870099421044e-28, 4.99975015748243e-07, 6.454170531119613e-35, 0.0, 0.0, 0.0, -1.622092831291005e-24, -6.454173102341872e-35, 4.99975015748243e-07, 0.0, -1.6960888865033262e-22, 5.224858275997277e-24, 0.0, 0.0, 0.0, 9.999980014604331e-10]
twist: 
  twist: 
    linear: 
      x: 9.33093574498e-09
      y: 0.0
      z: 0.0
    angular: 
      x: 0.0
      y: 0.0
      z: 0.0300000009992
  covariance: [0.011057376825099345, 0.0, 0.0, 0.0, 0.0, 0.0, 0.0, 4685557.175400255, 0.0, 0.0, 0.0, 0.0, 0.0, 0.0, 4.999975013088699e-07, -6.785227672941281e-35, -2.0889282524334805e-36, 0.0, 0.0, 0.0, -6.785227672941285e-35, 4.99975015716823e-07, -2.384098862310519e-39, 0.0, 0.0, 0.0, -2.0889282524334812e-36, 2.381422785691551e-39, 4.99975015716823e-07, 0.0, 0.0, 0.0, 0.0, 0.0, 0.0, 9.999999000690177e-10]
---
header: 
  seq: 5200
  stamp: 
    secs: 1518208419
    nsecs: 134848833
  frame_id: "swarmone/map"
child_frame_id: "swarmone/base_link"
pose: 
  pose: 
    position: 
      x: 1.09438655965e-07
      y: 3.85971393654e-06
      z: 0.0
    orientation: 
      x: 0.0
      y: 0.0
      z: 0.699716070346
      w: 0.714421038954
  covariance: [190041924586.14423, -5036148413.691664, 0.0, 0.0, 0.0, -7.043536835428563e-23, -5036148413.691645, 133465166.05595426, 0.0, 0.0, 0.0, 2.169801274156383e-24, 0.0, 0.0, 4.999749991997859e-07, -6.665709006091021e-29, -7.23881881128117e-25, 0.0, 0.0, 0.0, -6.66570900609102e-29, 4.999749992034283e-07, -3.231455027004399e-35, 0.0, 0.0, 0.0, -7.23881881128117e-25, 3.2314546583606044e-35, 4.999749992034283e-07, 0.0, -7.04353683542856e-23, 2.169801274156383e-24, 0.0, 0.0, 0.0, 9.999980001005108e-10]
twist: 
  twist: 
    linear: 
      x: 4.06478678512e-09
      y: 0.0
      z: 0.0
    angular: 
      x: 0.0
      y: 0.0
      z: 0.0399999990002
  covariance: [0.011049393918431738, 0.0, 0.0, 0.0, 0.0, 0.0, 0.0, 4688261.192177947, 0.0, 0.0, 0.0, 0.0, 0.0, 0.0, 4.999974996583375e-07, -2.694989301960676e-35, -8.297864688505111e-37, 0.0, 0.0, 0.0, -2.6949893019606745e-35, 4.999749991761406e-07, -2.075270446617835e-39, 0.0, 0.0, 0.0, -8.297864688505115e-37, 2.0748199974214388e-39, 4.999749991761406e-07, 0.0, 0.0, 0.0, 0.0, 0.0, 0.0, 9.999999000013547e-10]
---
header: 
  seq: 5201
  stamp: 
    secs: 1518208419
    nsecs: 234682322
  frame_id: "swarmone/map"
child_frame_id: "swarmone/base_link"
pose: 
  pose: 
    position: 
      x: 1.09459472209e-07
      y: 3.86064911068e-06
      z: 0.0
    orientation: 
      x: 0.0
      y: 0.0
      z: 0.69613524869
      w: 0.717910659854
  covariance: [190224437818.17847, -5040461061.484548, 0.0, 0.0, 0.0, -1.2468231168698363e-22, -5040461061.484528, 133565608.40682968, 0.0, 0.0, 0.0, 2.5932302346256338e-24, 0.0, 0.0, 4.99974957218491e-07, -1.0737747128446616e-28, -1.2984810882967717e-24, 0.0, 0.0, 0.0, -1.0737747128446622e-28, 4.999749572254897e-07, 3.2423407613078223e-35, 0.0, 0.0, 0.0, -1.2984810882967719e-24, -3.242341876551676e-35, 4.999749572254897e-07, 0.0, -1.2468231168698363e-22, 2.593230234625634e-24, 0.0, 0.0, 0.0, 9.99997996737097e-10]
twist: 
  twist: 
    linear: 
      x: 7.59990023012e-09
      y: 0.0
      z: 0.0
    angular: 
      x: 0.0
      y: 0.0
      z: 0.0399999999995
  covariance: [0.011029114640932678, 0.0, 0.0, 0.0, 0.0, 0.0, 0.0, 4690961.707918686, 0.0, 0.0, 0.0, 0.0, 0.0, 0.0, 4.999974954599279e-07, -4.562806721865354e-35, -9.483680584487286e-37, 0.0, 0.0, 0.0, -4.562806721865355e-35, 4.999749571948646e-07, -5.214437069362203e-39, 0.0, 0.0, 0.0, -9.483680584487287e-37, 5.2135229016614304e-39, 4.999749571948646e-07, 0.0, 0.0, 0.0, 0.0, 0.0, 0.0, 9.999998998332305e-10]
---
header: 
  seq: 5202
  stamp: 
    secs: 1518208419
    nsecs: 334802389
  frame_id: "swarmone/map"
child_frame_id: "swarmone/base_link"
pose: 
  pose: 
    position: 
      x: 1.09482900605e-07
      y: 3.8614096228e-06
      z: 0.0
    orientation: 
      x: 0.0
      y: 0.0
      z: 0.696135241499
      w: 0.717910666826
  covariance: [190407568493.93503, -5045704536.587513, 0.0, 0.0, 0.0, -1.1921513344547007e-22, -5045704536.587495, 133714877.16237183, 0.0, 0.0, 0.0, 3.672469506645507e-24, 0.0, 0.0, 4.999750290626389e-07, -1.5723616603814346e-28, -1.2804191694966965e-24, 0.0, 0.0, 0.0, -1.5723616603814346e-28, 4.999750290693165e-07, -6.44693987137172e-35, 0.0, 0.0, 0.0, -1.280419169496696e-24, 6.446938260033174e-35, 4.999750290693165e-07, 0.0, -1.1921513344547007e-22, 3.672469506645507e-24, 0.0, 0.0, 0.0, 9.999980024684507e-10]
twist: 
  twist: 
    linear: 
      x: 7.59963443616e-09
      y: 0.0
      z: 0.0
    angular: 
      x: 0.0
      y: 0.0
      z: 0.0399999999999
  covariance: [0.01106386764026216, 0.0, 0.0, 0.0, 0.0, 0.0, 0.0, 4693671.016983531, 0.0, 0.0, 0.0, 0.0, 0.0, 0.0, 4.999975026476502e-07, -4.1482764608907285e-35, -1.2768614858433147e-36, 0.0, 0.0, 0.0, -4.1482764608907296e-35, 4.999750290390722e-07, 5.178467251000782e-39, 0.0, 0.0, 0.0, -1.2768614858433145e-36, -5.179554568042633e-39, 4.999750290390722e-07, 0.0, 0.0, 0.0, 0.0, 0.0, 0.0, 9.99999900119943e-10]
---
header: 
  seq: 5203
  stamp: 
    secs: 1518208419
    nsecs: 434351683
  frame_id: "swarmone/map"
child_frame_id: "swarmone/base_link"
pose: 
  pose: 
    position: 
      x: 1.09502506676e-07
      y: 3.86204255849e-06
      z: 0.0
    orientation: 
      x: 0.0
      y: 0.0
      z: 0.699716071028
      w: 0.714421038286
  covariance: [190589794975.08136, -5050922320.342406, 0.0, 0.0, 0.0, -1.1574542260224577e-22, -5050922320.342388, 133863421.138448, 0.0, 0.0, 0.0, 3.565581798186599e-24, 0.0, 0.0, 4.999748855604198e-07, -1.4296993648167337e-28, -1.170913064549651e-24, 0.0, 0.0, 0.0, -1.429699364816735e-28, 4.999748855677229e-07, 3.260776386851623e-35, 0.0, 0.0, 0.0, -1.1709130645496507e-24, -3.260777729241057e-35, 4.999748855677229e-07, 0.0, -1.1574542260224577e-22, 3.5655817981865995e-24, 0.0, 0.0, 0.0, 9.999979910208453e-10]
twist: 
  twist: 
    linear: 
      x: 6.72447669291e-09
      y: 0.0
      z: 0.0
    angular: 
      x: 0.0
      y: 0.0
      z: 0.0400000000002
  covariance: [0.010994654240347977, 0.0, 0.0, 0.0, 0.0, 0.0, 0.0, 4696365.914651458, 0.0, 0.0, 0.0, 0.0, 0.0, 0.0, 4.999974882908725e-07, -4.461764941931462e-35, -1.3735559872414024e-36, 0.0, 0.0, 0.0, -4.4617649419314596e-35, 4.999748855367389e-07, 2.2861750951395907e-39, 0.0, 0.0, 0.0, -1.3735559872414017e-36, -2.2874182088251624e-39, 4.999748855367389e-07, 0.0, 0.0, 0.0, 0.0, 0.0, 0.0, 9.999998995472725e-10]
---
header: 
  seq: 5204
  stamp: 
    secs: 1518208419
    nsecs: 534899950
  frame_id: "swarmone/map"
child_frame_id: "swarmone/base_link"
pose: 
  pose: 
    position: 
      x: 1.09519644852e-07
      y: 3.86285061781e-06
      z: 0.0
    orientation: 
      x: 0.0
      y: 0.0
      z: 0.696135248638
      w: 0.717910659903
  covariance: [190774039239.2805, -5055275987.774462, 0.0, 0.0, 0.0, -1.6821772825284808e-22, -5055275987.774445, 133964820.73919897, 0.0, 0.0, 0.0, 3.498671945486994e-24, 0.0, 0.0, 4.999751339589012e-07, -1.1527098639454252e-28, -1.3841571760098727e-24, 0.0, 0.0, 0.0, -1.1527098639454246e-28, 4.999751339676849e-07, -6.393538910595507e-35, 0.0, 0.0, 0.0, -1.3841571760098727e-24, 6.393537632508482e-35, 4.999751339676849e-07, 0.0, -1.6821772825284808e-22, 3.4986719454869935e-24, 0.0, 0.0, 0.0, 9.999980110011846e-10]
twist: 
  twist: 
    linear: 
      x: 7.60704361002e-09
      y: 0.0
      z: 0.0
    angular: 
      x: 0.0
      y: 0.0
      z: 0.0399999999994
  covariance: [0.011114912248188755, 0.0, 0.0, 0.0, 0.0, 0.0, 0.0, 4699088.902438313, 0.0, 0.0, 0.0, 0.0, 0.0, 0.0, 4.999975131256618e-07, -7.867302340067897e-35, -1.6353466783854163e-36, 0.0, 0.0, 0.0, -7.867302340067893e-35, 4.999751339349266e-07, 2.1397699485491214e-39, 0.0, 0.0, 0.0, -1.635346678385416e-36, -2.1421003198798766e-39, 4.999751339349266e-07, 0.0, 0.0, 0.0, 0.0, 0.0, 0.0, 9.999999005452965e-10]
---
header: 
  seq: 5205
  stamp: 
    secs: 1518208419
    nsecs: 634513617
  frame_id: "swarmone/map"
child_frame_id: "swarmone/base_link"
pose: 
  pose: 
    position: 
      x: 1.0954112073e-07
      y: 3.86354564149e-06
      z: 0.0
    orientation: 
      x: 0.0
      y: 0.0
      z: 0.696135241499
      w: 0.717910666826
  covariance: [190956664277.40826, -5060505116.115406, 0.0, 0.0, 0.0, -1.2126131935373037e-22, -5060505116.11539, 134113685.45292692, 0.0, 0.0, 0.0, 3.735496460838943e-24, 0.0, 0.0, 4.999749018450009e-07, -1.513758619300868e-28, -1.238956302803923e-24, 0.0, 0.0, 0.0, -1.5137586193008683e-28, 4.999749018522064e-07, -3.2568791527433195e-35, 0.0, 0.0, 0.0, -1.2389563028039228e-24, 3.2568776524386856e-35, 4.999749018522064e-07, 0.0, -1.212613193537304e-22, 3.735496460838944e-24, 0.0, 0.0, 0.0, 9.999979923181873e-10]
twist: 
  twist: 
    linear: 
      x: 7.16892811889e-09
      y: 0.0
      z: 0.0
    angular: 
      x: 0.0
      y: 0.0
      z: 0.0399999999999
  covariance: [0.0110024864262588, 0.0, 0.0, 0.0, 0.0, 0.0, 0.0, 4701787.617638465, 0.0, 0.0, 0.0, 0.0, 0.0, 0.0, 4.999974899202488e-07, -4.611094640852365e-35, -1.4194103315411457e-36, 0.0, 0.0, 0.0, -4.611094640852365e-35, 4.999749018213376e-07, -1.7001180214184008e-39, 0.0, 0.0, 0.0, -1.4194103315411449e-36, 1.6987878775191623e-39, 4.999749018213376e-07, 0.0, 0.0, 0.0, 0.0, 0.0, 0.0, 9.99999899612188e-10]
---
header: 
  seq: 5206
  stamp: 
    secs: 1518208419
    nsecs: 735071659
  frame_id: "swarmone/map"
child_frame_id: "swarmone/base_link"
pose: 
  pose: 
    position: 
      x: 1.09567122023e-07
      y: 3.86439361519e-06
      z: 0.0
    orientation: 
      x: 0.0
      y: 0.0
      z: 0.6997160711
      w: 0.714421038215
  covariance: [191141162502.61795, -5065788086.56849, 0.0, 0.0, 0.0, -1.3351322426878798e-22, -5065788086.568475, 134264089.7963046, 0.0, 0.0, 0.0, 4.112928240205819e-24, 0.0, 0.0, 4.999751376152106e-07, -1.6846585656846928e-28, -1.3659272810384737e-24, 0.0, 0.0, 0.0, -1.6846585656846926e-28, 4.999751376221976e-07, 3.195977691121527e-35, 0.0, 0.0, 0.0, -1.3659272810384743e-24, -3.195979530630495e-35, 4.999751376221976e-07, 0.0, -1.33513224268788e-22, 4.112928240205819e-24, 0.0, 0.0, 0.0, 9.999980111726339e-10]
twist: 
  twist: 
    linear: 
      x: 8.04768864833e-09
      y: 0.0
      z: 0.0
    angular: 
      x: 0.0
      y: 0.0
      z: 0.0400000000002
  covariance: [0.011116782803914715, 0.0, 0.0, 0.0, 0.0, 0.0, 0.0, 4704512.965503045, 0.0, 0.0, 0.0, 0.0, 0.0, 0.0, 4.99997513502745e-07, -4.860222722038269e-35, -1.4961474138142625e-36, 0.0, 0.0, 0.0, -4.860222722038274e-35, 4.999751375915651e-07, -1.300916197444328e-39, 0.0, 0.0, 0.0, -1.496147413814262e-36, 1.2994409424686895e-39, 4.999751375915651e-07, 0.0, 0.0, 0.0, 0.0, 0.0, 0.0, 9.999999005549648e-10]
---
header: 
  seq: 5207
  stamp: 
    secs: 1518208419
    nsecs: 834533453
  frame_id: "swarmone/map"
child_frame_id: "swarmone/base_link"
pose: 
  pose: 
    position: 
      x: 1.09582215799e-07
      y: 3.86512719432e-06
      z: 0.0
    orientation: 
      x: 0.0
      y: 0.0
      z: 0.696135248717
      w: 0.717910659828
  covariance: [191323836790.9026, -5070104813.700787, 0.0, 0.0, 0.0, -1.2653106072446077e-22, -5070104813.700772, 134364632.15406272, 0.0, 0.0, 0.0, 2.6316815940078565e-24, 0.0, 0.0, 4.999748635738019e-07, -1.0779381633321452e-28, -1.3083723740305617e-24, 0.0, 0.0, 0.0, -1.0779381633321454e-28, 4.999748635809426e-07, 4.899833164205222e-35, 0.0, 0.0, 0.0, -1.3083723740305623e-24, -4.899834288087456e-35, 4.999748635809426e-07, 0.0, -1.265310607244608e-22, 2.6316815940078565e-24, 0.0, 0.0, 0.0, 9.999979892515262e-10]
twist: 
  twist: 
    linear: 
      x: 7.60468733425e-09
      y: 0.0
      z: 0.0
    angular: 
      x: 0.0
      y: 0.0
      z: 0.0399999999995
  covariance: [0.010984169391327082, 0.0, 0.0, 0.0, 0.0, 0.0, 0.0, 4707209.638370038, 0.0, 0.0, 0.0, 0.0, 0.0, 0.0, 4.999974860929164e-07, -4.749144290091584e-35, -9.871103563246984e-37, 0.0, 0.0, 0.0, -4.7491442900915856e-35, 4.999748635501571e-07, 2.950798923861232e-39, 0.0, 0.0, 0.0, -9.871103563246975e-37, -2.9516873809676776e-39, 4.999748635501571e-07, 0.0, 0.0, 0.0, 0.0, 0.0, 0.0, 9.999998994589013e-10]
---
header: 
  seq: 5208
  stamp: 
    secs: 1518208419
    nsecs: 935237169
  frame_id: "swarmone/map"
child_frame_id: "swarmone/base_link"
pose: 
  pose: 
    position: 
      x: 1.09602085117e-07
      y: 3.86576785478e-06
      z: 0.0
    orientation: 
      x: 0.0
      y: 0.0
      z: 0.696135241499
      w: 0.717910666826
  covariance: [191508886521.93396, -5075403508.283148, 0.0, 0.0, 0.0, -1.189976401158242e-22, -5075403508.2831335, 134515481.95664102, 0.0, 0.0, 0.0, 3.6657604151873616e-24, 0.0, 0.0, 4.999751733697967e-07, -1.4396612711437257e-28, -1.1656137262388778e-24, 0.0, 0.0, 0.0, -1.439661271143726e-28, 4.99975173377113e-07, -3.1861900375169314e-35, 0.0, 0.0, 0.0, -1.1656137262388774e-24, 3.186188676422322e-35, 4.99975173377113e-07, 0.0, -1.1899764011582426e-22, 3.665760415187362e-24, 0.0, 0.0, 0.0, 9.99998014053482e-10]
twist: 
  twist: 
    linear: 
      x: 6.72804936738e-09
      y: 0.0
      z: 0.0
    angular: 
      x: 0.0
      y: 0.0
      z: 0.0399999999999
  covariance: [0.011134317655038212, 0.0, 0.0, 0.0, 0.0, 0.0, 0.0, 4709941.032736572, 0.0, 0.0, 0.0, 0.0, 0.0, 0.0, 4.999975170766981e-07, -4.5802280375358875e-35, -1.410046808097688e-36, 0.0, 0.0, 0.0, -4.5802280375358885e-35, 4.9997517334608e-07, 1.706076364557201e-39, 0.0, 0.0, 0.0, -1.4100468080976874e-36, -1.707311983249724e-39, 4.9997517334608e-07, 0.0, 0.0, 0.0, 0.0, 0.0, 0.0, 9.99999900698818e-10]
---
header: 
  seq: 5209
  stamp: 
    secs: 1518208420
    nsecs:  35057783
  frame_id: "swarmone/map"
child_frame_id: "swarmone/base_link"
pose: 
  pose: 
    position: 
      x: 1.09624827991e-07
      y: 3.86650852323e-06
      z: 0.0
    orientation: 
      x: 0.0
      y: 0.0
      z: 0.699716071048
      w: 0.714421038266
  covariance: [191692454784.47293, -5080659870.455295, 0.0, 0.0, 0.0, -3.557514364008401e-22, -5080659870.45528, 134665130.50008523, 0.0, 0.0, 0.0, 1.0958596558791727e-23, 0.0, 0.0, 4.999749460852445e-07, -1.8684650037398557e-28, -1.5266734594734247e-24, 0.0, 0.0, 0.0, -1.868465003739857e-28, 4.999749460987504e-07, -3.2737725851361876e-39, 0.0, 0.0, 0.0, -1.5266734594734254e-24, 3.2509667724770005e-39, 4.999749460987504e-07, 0.0, -3.557514364008402e-22, 1.0958596558791727e-23, 0.0, 0.0, 0.0, 9.999979966109954e-10]
twist: 
  twist: 
    linear: 
      x: 7.17361928646e-09
      y: 0.0
      z: 0.0
    angular: 
      x: 0.0
      y: 0.0
      z: 0.0400000000006
  covariance: [0.011023598889539127, 0.0, 0.0, 0.0, 0.0, 0.0, 0.0, 4712649.517202171, 0.0, 0.0, 0.0, 0.0, 0.0, 0.0, 4.999974943058089e-07, -2.41161289768954e-34, -7.427637420106912e-36, 0.0, 0.0, 0.0, -2.411612897689538e-34, 4.999749460606887e-07, 5.697044944760548e-39, 0.0, 0.0, 0.0, -7.427637420106912e-36, -5.720637605017596e-39, 4.999749460606887e-07, 0.0, 0.0, 0.0, 0.0, 0.0, 0.0, 9.999998998203068e-10]
---
header: 
  seq: 5210
  stamp: 
    secs: 1518208420
    nsecs: 134545088
  frame_id: "swarmone/map"
child_frame_id: "swarmone/base_link"
pose: 
  pose: 
    position: 
      x: 1.09641169206e-07
      y: 3.86728673742e-06
      z: 0.0
    orientation: 
      x: 0.0
      y: 0.0
      z: 0.703279414898
      w: 0.710913542268
  covariance: [191875597387.88605, -5084987804.388569, 0.0, 0.0, 0.0, -1.2664144204542742e-22, -5084987804.388554, 134765936.44520566, 0.0, 0.0, 0.0, 2.6339818670056327e-24, 0.0, 0.0, 4.999748700196543e-07, -1.0788734343255797e-28, -1.3091730595490597e-24, 0.0, 0.0, 0.0, -1.0788734343255792e-28, 4.999748700267914e-07, 3.264776604030601e-35, 0.0, 0.0, 0.0, -1.30917305954906e-24, -3.2647777298622416e-35, 4.999748700267914e-07, 0.0, -1.2664144204542742e-22, 2.6339818670056327e-24, 0.0, 0.0, 0.0, 9.999979897671425e-10]
twist: 
  twist: 
    linear: 
      x: 7.61580056922e-09
      y: 0.0
      z: 0.0
    angular: 
      x: 0.0
      y: 0.0
      z: 0.0400000000002
  covariance: [0.010987238143311612, 0.0, 0.0, 0.0, 0.0, 0.0, 0.0, 4715349.990783345, 0.0, 0.0, 0.0, 0.0, 0.0, 0.0, 4.999974867376364e-07, -4.7247214326283773e-35, -9.82697023392494e-37, 0.0, 0.0, 0.0, -4.7247214326283795e-35, 4.999748699960094e-07, -6.547467762055252e-40, 0.0, 0.0, 0.0, -9.826970233924948e-37, 6.538312772402249e-40, 4.999748699960094e-07, 0.0, 0.0, 0.0, 0.0, 0.0, 0.0, 9.999998994846822e-10]
---
header: 
  seq: 5211
  stamp: 
    secs: 1518208420
    nsecs: 235288382
  frame_id: "swarmone/map"
child_frame_id: "swarmone/base_link"
pose: 
  pose: 
    position: 
      x: 1.09656446897e-07
      y: 3.86848753291e-06
      z: 0.0
    orientation: 
      x: 0.0
      y: 0.0
      z: 0.696135255751
      w: 0.717910653007
  covariance: [192061224031.2497, -5088445558.156299, 0.0, 0.0, 0.0, -1.7294292531949112e-22, -5088445558.156282, 134818961.2082675, 0.0, 0.0, 0.0, 1.867113329221037e-24, 0.0, 0.0, 4.999751833881431e-07, -7.731139227192464e-29, -1.7846025654105747e-24, 0.0, 0.0, 0.0, -7.731139227192465e-29, 4.999751833950202e-07, 1.5922087836433613e-35, 0.0, 0.0, 0.0, -1.7846025654105754e-24, -1.5922098981575608e-35, 4.999751833950202e-07, 0.0, -1.7294292531949112e-22, 1.867113329221037e-24, 0.0, 0.0, 0.0, 9.999980148289318e-10]
twist: 
  twist: 
    linear: 
      x: 1.06804591729e-08
      y: 0.0
      z: 0.0
    angular: 
      x: 0.0
      y: 0.0
      z: 0.0399999999992
  covariance: [0.011139247096024192, 0.0, 0.0, 0.0, 0.0, 0.0, 0.0, 4718085.607859196, 0.0, 0.0, 0.0, 0.0, 0.0, 0.0, 4.999975180815634e-07, -6.126566568586368e-35, -6.61007432814642e-37, 0.0, 0.0, 0.0, -6.12656656858637e-35, 4.999751833645159e-07, -5.851005154223438e-40, 0.0, 0.0, 0.0, -6.610074328146421e-37, 5.842452487066765e-40, 4.999751833645159e-07, 0.0, 0.0, 0.0, 0.0, 0.0, 0.0, 9.99999900737829e-10]
---
header: 
  seq: 5212
  stamp: 
    secs: 1518208420
    nsecs: 335062027
  frame_id: "swarmone/map"
child_frame_id: "swarmone/base_link"
pose: 
  pose: 
    position: 
      x: 1.09681206407e-07
      y: 3.86927599343e-06
      z: 0.0
    orientation: 
      x: 0.0
      y: 0.0
      z: 0.696135241499
      w: 0.717910666826
  covariance: [192245129045.63528, -5093710873.498111, 0.0, 0.0, 0.0, -1.4513965240421531e-22, -5093710873.4980955, 134968840.77050066, 0.0, 0.0, 0.0, 4.4710736873147175e-24, 0.0, 0.0, 4.999749421974449e-07, -1.8513447168557479e-28, -1.5128307036322484e-24, 0.0, 0.0, 0.0, -1.8513447168557476e-28, 4.999749422044485e-07, 9.737927797897846e-35, 0.0, 0.0, 0.0, -1.5128307036322482e-24, -9.737930036804337e-35, 4.999749422044485e-07, 0.0, -1.451396524042153e-22, 4.471073687314718e-24, 0.0, 0.0, 0.0, 9.999979955355295e-10]
twist: 
  twist: 
    linear: 
      x: 8.89912300383e-09
      y: 0.0
      z: 0.0
    angular: 
      x: 0.0
      y: 0.0
      z: 0.0399999999999
  covariance: [0.011021924447656511, 0.0, 0.0, 0.0, 0.0, 0.0, 0.0, 4720795.9374019485, 0.0, 0.0, 0.0, 0.0, 0.0, 0.0, 4.999974939575115e-07, -5.325215055611371e-35, -1.639223513092856e-36, 0.0, 0.0, 0.0, -5.325215055611371e-35, 4.999749421738188e-07, 2.1833212996143482e-39, 0.0, 0.0, 0.0, -1.6392235130928557e-36, -2.185079430294739e-39, 4.999749421738188e-07, 0.0, 0.0, 0.0, 0.0, 0.0, 0.0, 9.999998997731515e-10]
---
header: 
  seq: 5213
  stamp: 
    secs: 1518208420
    nsecs: 434661150
  frame_id: "swarmone/map"
child_frame_id: "swarmone/base_link"
pose: 
  pose: 
    position: 
      x: 1.09697344651e-07
      y: 3.86978147869e-06
      z: 0.0
    orientation: 
      x: 0.0
      y: 0.0
      z: 0.692537008691
      w: 0.721382347714
  covariance: [192428852859.70227, -5098971208.821078, 0.0, 0.0, 0.0, -1.0083547452003517e-22, -5098971208.821062, 135118585.416778, 0.0, 0.0, 0.0, 3.1062799852624358e-24, 0.0, 0.0, 4.99974898395577e-07, -1.315014641313099e-28, -1.076435863946674e-24, 0.0, 0.0, 0.0, -1.3150146413130985e-28, 4.999748984024193e-07, -6.51518937473179e-35, 0.0, 0.0, 0.0, -1.076435863946674e-24, 6.515188263098313e-35, 4.999748984024193e-07, 0.0, -1.0083547452003516e-22, 3.106279985262436e-24, 0.0, 0.0, 0.0, 9.99997992021205e-10]
twist: 
  twist: 
    linear: 
      x: 6.26334919201e-09
      y: 0.0
      z: 0.0
    angular: 
      x: 0.0
      y: 0.0
      z: 0.0399999999996
  covariance: [0.011000843826241946, 0.0, 0.0, 0.0, 0.0, 0.0, 0.0, 4723502.561140853, 0.0, 0.0, 0.0, 0.0, 0.0, 0.0, 4.999974895776312e-07, -3.6266397956093936e-35, -1.1163812175163105e-36, 0.0, 0.0, 0.0, -3.626639795609393e-35, 4.999748983719902e-07, -9.741466031669011e-40, 0.0, 0.0, 0.0, -1.1163812175163105e-36, 9.73310011041087e-40, 4.999748983719902e-07, 0.0, 0.0, 0.0, 0.0, 0.0, 0.0, 9.999998995975293e-10]
---
header: 
  seq: 5214
  stamp: 
    secs: 1518208420
    nsecs: 534695625
  frame_id: "swarmone/map"
child_frame_id: "swarmone/base_link"
pose: 
  pose: 
    position: 
      x: 1.0973011059e-07
      y: 3.8706073347e-06
      z: 0.0
    orientation: 
      x: 0.0
      y: 0.0
      z: 0.699716063921
      w: 0.714421045246
  covariance: [192613454965.54926, -5105181329.349489, 0.0, 0.0, 0.0, -1.2451890986621625e-22, -5105181329.349474, 135317986.85568434, 0.0, 0.0, 0.0, 5.0826478462211905e-24, 0.0, 0.0, 4.999750075361144e-07, -2.104571544001489e-28, -1.294981752136779e-24, 0.0, 0.0, 0.0, -2.104571544001488e-28, 4.999750075430772e-07, 3.2297475341623475e-35, 0.0, 0.0, 0.0, -1.294981752136778e-24, -3.2297497220569184e-35, 4.999750075430772e-07, 0.0, -1.2451890986621623e-22, 5.082647846221191e-24, 0.0, 0.0, 0.0, 9.99998000762119e-10]
twist: 
  twist: 
    linear: 
      x: 7.58944109375e-09
      y: 0.0
      z: 0.0
    angular: 
      x: 0.0
      y: 0.0
      z: 0.0400000000005
  covariance: [0.01105341612360878, 0.0, 0.0, 0.0, 0.0, 0.0, 0.0, 4726222.056799194, 0.0, 0.0, 0.0, 0.0, 0.0, 0.0, 4.99997500492733e-07, -4.526940964058603e-35, -1.8464674380281254e-36, 0.0, 0.0, 0.0, -4.526940964058604e-35, 4.999750075124879e-07, -8.905071953160815e-39, 0.0, 0.0, 0.0, -1.8464674380281254e-36, 8.903367117522846e-39, 4.999750075124879e-07, 0.0, 0.0, 0.0, 0.0, 0.0, 0.0, 9.99999900034483e-10]
---
header: 
  seq: 5215
  stamp: 
    secs: 1518208420
    nsecs: 634440899
  frame_id: "swarmone/map"
child_frame_id: "swarmone/base_link"
pose: 
  pose: 
    position: 
      x: 1.09744452104e-07
      y: 3.87130357158e-06
      z: 0.0
    orientation: 
      x: 0.0
      y: 0.0
      z: 0.696135248696
      w: 0.717910659848
  covariance: [192797777997.99023, -5109537229.803507, 0.0, 0.0, 0.0, -1.1773726537349718e-22, -5109537229.803491, 135419445.52924758, 0.0, 0.0, 0.0, 2.448788070057687e-24, 0.0, 0.0, 4.999749350696146e-07, -1.0139686544698142e-28, -1.2272387410674454e-24, 0.0, 0.0, 0.0, -1.013968654469814e-28, 4.999749350766255e-07, 6.495640769352585e-35, 0.0, 0.0, 0.0, -1.227238741067445e-24, -6.495641770955307e-35, 4.999749350766255e-07, 0.0, -1.1773726537349718e-22, 2.4487880700576874e-24, 0.0, 0.0, 0.0, 9.99997994965358e-10]
twist: 
  twist: 
    linear: 
      x: 7.15294372486e-09
      y: 0.0
      z: 0.0
    angular: 
      x: 0.0
      y: 0.0
      z: 0.0399999999995
  covariance: [0.011018431657393826, 0.0, 0.0, 0.0, 0.0, 0.0, 0.0, 4728934.729431137, 0.0, 0.0, 0.0, 0.0, 0.0, 0.0, 4.999974932445805e-07, -4.3289181404391107e-35, -8.997818658201867e-37, 0.0, 0.0, 0.0, -4.328918140439111e-35, 4.999749350459884e-07, -3.045844638529748e-39, 0.0, 0.0, 0.0, -8.997818658201864e-37, 3.0450449690090416e-39, 4.999749350459884e-07, 0.0, 0.0, 0.0, 0.0, 0.0, 0.0, 9.999998997446428e-10]
---
header: 
  seq: 5216
  stamp: 
    secs: 1518208420
    nsecs: 735084057
  frame_id: "swarmone/map"
child_frame_id: "swarmone/base_link"
pose: 
  pose: 
    position: 
      x: 1.09770453562e-07
      y: 3.8721522951e-06
      z: 0.0
    orientation: 
      x: 0.0
      y: 0.0
      z: 0.692537008616
      w: 0.721382347786
  covariance: [192983855222.44464, -5114865562.809498, 0.0, 0.0, 0.0, -1.2766392069926313e-22, -5114865562.809483, 135571146.2618284, 0.0, 0.0, 0.0, 3.932736858398368e-24, 0.0, 0.0, 4.999751588009196e-07, -1.664882931139607e-28, -1.3487459634225056e-24, 0.0, 0.0, 0.0, -1.664882931139608e-28, 4.999751588076208e-07, -1.2760825411975783e-34, 0.0, 0.0, 0.0, -1.348745963422506e-24, 1.276082361567176e-34, 4.999751588076208e-07, 0.0, -1.2766392069926313e-22, 3.932736858398369e-24, 0.0, 0.0, 0.0, 9.99998012851806e-10]
twist: 
  twist: 
    linear: 
      x: 8.03321390714e-09
      y: 0.0
      z: 0.0
    angular: 
      x: 0.0
      y: 0.0
      z: 0.0399999999996
  covariance: [0.011127167920468198, 0.0, 0.0, 0.0, 0.0, 0.0, 0.0, 4731672.87276979, 0.0, 0.0, 0.0, 0.0, 0.0, 0.0, 4.999975156235267e-07, -4.454640772560101e-35, -1.3711829020495251e-36, 0.0, 0.0, 0.0, -4.454640772560101e-35, 4.999751587773318e-07, -6.149199848369678e-39, 0.0, 0.0, 0.0, -1.371182902049524e-36, 6.147988828274067e-39, 4.999751587773318e-07, 0.0, 0.0, 0.0, 0.0, 0.0, 0.0, 9.999999006390674e-10]
---
header: 
  seq: 5217
  stamp: 
    secs: 1518208420
    nsecs: 834689856
  frame_id: "swarmone/map"
child_frame_id: "swarmone/base_link"
pose: 
  pose: 
    position: 
      x: 1.09800708332e-07
      y: 3.87288648366e-06
      z: 0.0
    orientation: 
      x: 0.0
      y: 0.0
      z: 0.688921455286
      w: 0.724836001069
  covariance: [193168089923.10498, -5121063934.756216, 0.0, 0.0, 0.0, -1.2271710210108144e-22, -5121063934.756202, 135770200.7064435, 0.0, 0.0, 0.0, 5.009101771282418e-24, 0.0, 0.0, 4.999749000242394e-07, -2.0970537678105238e-28, -1.2958846606366589e-24, 0.0, 0.0, 0.0, -2.0970537678105247e-28, 4.999749000311692e-07, -1.6285062384376357e-34, 0.0, 0.0, 0.0, -1.2958846606366592e-24, 1.6285060212072474e-34, 4.999749000311692e-07, 0.0, -1.2271710210108144e-22, 5.009101771282417e-24, 0.0, 0.0, 0.0, 9.999979921567388e-10]
twist: 
  twist: 
    linear: 
      x: 7.59101706957e-09
      y: 0.0
      z: 0.0
    angular: 
      x: 0.0
      y: 0.0
      z: 0.0300000010035
  covariance: [0.01100163847863342, 0.0, 0.0, 0.0, 0.0, 0.0, 0.0, 4734383.833717722, 0.0, 0.0, 0.0, 0.0, 0.0, 0.0, 4.999974897399185e-07, -4.4722247961121337e-35, -1.8241347935491816e-36, 0.0, 0.0, 0.0, -4.4722247961121353e-35, 4.999749000006326e-07, -7.106355704295685e-39, 0.0, 0.0, 0.0, -1.824134793549182e-36, 7.104711245973065e-39, 4.999749000006326e-07, 0.0, 0.0, 0.0, 0.0, 0.0, 0.0, 9.999998996042584e-10]
---
header: 
  seq: 5218
  stamp: 
    secs: 1518208420
    nsecs: 935315609
  frame_id: "swarmone/map"
child_frame_id: "swarmone/base_link"
pose: 
  pose: 
    position: 
      x: 1.09820482733e-07
      y: 3.87321537289e-06
      z: 0.0
    orientation: 
      x: 0.0
      y: 0.0
      z: 0.699716056191
      w: 0.714421052817
  covariance: [193354268674.1011, -5128261505.582619, 0.0, 0.0, 0.0, -7.416153815857108e-23, -5128261505.582605, 136020834.52421805, 0.0, 0.0, 0.0, 3.770337513976307e-24, 0.0, 0.0, 4.999751545041309e-07, -1.1971072093315927e-28, -7.834955260464601e-25, 0.0, 0.0, 0.0, -1.1971072093315923e-28, 4.999751545074641e-07, 3.1912136691003525e-35, 0.0, 0.0, 0.0, -7.8349552604646005e-25, -3.191214425261784e-35, 4.999751545074641e-07, 0.0, -7.416153815857108e-23, 3.7703375139763066e-24, 0.0, 0.0, 0.0, 9.999980125080928e-10]
twist: 
  twist: 
    linear: 
      x: 4.52292416888e-09
      y: 0.0
      z: 0.0
    angular: 
      x: 0.0
      y: 0.0
      z: 0.0399999990071
  covariance: [0.011125085966313628, 0.0, 0.0, 0.0, 0.0, 0.0, 0.0, 4737123.605909366, 0.0, 0.0, 0.0, 0.0, 0.0, 0.0, 4.999975151937598e-07, -2.654204876176864e-35, -1.3486053036019245e-36, 0.0, 0.0, 0.0, -2.654204876176862e-35, 4.999751544805431e-07, -1.541046979429448e-39, 0.0, 0.0, 0.0, -1.3486053036019243e-36, 1.5402362218855108e-39, 4.999751544805431e-07, 0.0, 0.0, 0.0, 0.0, 0.0, 0.0, 9.999999006218814e-10]
---
header: 
  seq: 5219
  stamp: 
    secs: 1518208421
    nsecs:  34947634
  frame_id: "swarmone/map"
child_frame_id: "swarmone/base_link"
pose: 
  pose: 
    position: 
      x: 1.09812749046e-07
      y: 3.87295478373e-06
      z: 0.0
    orientation: 
      x: 0.0
      y: 0.0
      z: 0.692537015929
      w: 0.721382340765
  covariance: [193538948634.89337, -5132627607.230747, 0.0, 0.0, 0.0, 5.7093654663411084e-24, -5132627607.230733, 136122563.161442, 0.0, 0.0, 0.0, -1.1874307999756774e-25, 0.0, 0.0, 4.999749065777473e-07, 4.916410661770966e-30, 5.957221437579632e-26, 0.0, 0.0, 0.0, 4.916410661770966e-30, 4.999749065847737e-07, 1.6276367641773795e-35, 0.0, 0.0, 0.0, 5.95722143757963e-26, -1.6276367665120007e-35, 4.999749065847737e-07, 0.0, 5.70936546634111e-24, -1.1874307999756774e-25, 0.0, 0.0, 0.0, 9.99997992686229e-10]
twist: 
  twist: 
    linear: 
      x: -6.98487877964e-10
      y: 0.0
      z: 0.0
    angular: 
      x: 0.0
      y: 0.0
      z: 0.0300000010029
  covariance: [0.011004801168801032, 0.0, 0.0, 0.0, 0.0, 0.0, 0.0, 4739837.362701573, 0.0, 0.0, 0.0, 0.0, 0.0, 0.0, 4.999974903948019e-07, 3.050799176460058e-37, 6.313696801630712e-39, 0.0, 0.0, 0.0, 3.050799176460058e-37, 4.999749065541212e-07, -2.5032712747505094e-39, 0.0, 0.0, 0.0, 6.313696801630712e-39, 2.503271274697049e-39, 4.999749065541212e-07, 0.0, 0.0, 0.0, 0.0, 0.0, 0.0, 9.999998996306854e-10]
---
header: 
  seq: 5220
  stamp: 
    secs: 1518208421
    nsecs: 134312868
  frame_id: "swarmone/map"
child_frame_id: "swarmone/base_link"
pose: 
  pose: 
    position: 
      x: 1.09856184493e-07
      y: 3.87412809914e-06
      z: 0.0
    orientation: 
      x: 0.0
      y: 0.0
      z: 0.699716063111
      w: 0.71442104604
  covariance: [193723161018.8118, -5138826795.062403, 0.0, 0.0, 0.0, -1.234782052548556e-22, -5138826795.062389, 136321721.02588084, 0.0, 0.0, 0.0, 5.040188759613627e-24, 0.0, 0.0, 4.99974839254289e-07, -1.5825347176282022e-28, -1.3057613899753914e-24, 0.0, 0.0, 0.0, -1.5825347176282017e-28, 4.999748392578357e-07, 9.818897417375738e-35, 0.0, 0.0, 0.0, -1.3057613899753912e-24, -9.818899055307426e-35, 4.999748392578357e-07, 0.0, -1.234782052548556e-22, 5.0401887596136265e-24, 0.0, 0.0, 0.0, 9.999979872955923e-10]
twist: 
  twist: 
    linear: 
      x: 7.68494648266e-09
      y: 0.0
      z: 0.0
    angular: 
      x: 0.0
      y: 0.0
      z: 0.0399999989942
  covariance: [0.01097252743839238, 0.0, 0.0, 0.0, 0.0, 0.0, 0.0, 4742544.884779438, 0.0, 0.0, 0.0, 0.0, 0.0, 0.0, 4.999974836616614e-07, -4.457516678976336e-35, -1.818417262375007e-36, 0.0, 0.0, 0.0, -4.457516678976338e-35, 4.999748392306825e-07, 6.424100222885793e-39, 0.0, 0.0, 0.0, -1.818417262375007e-36, -6.425769468136515e-39, 4.999748392306825e-07, 0.0, 0.0, 0.0, 0.0, 0.0, 0.0, 9.999998993611993e-10]
---
header: 
  seq: 5221
  stamp: 
    secs: 1518208421
    nsecs: 234773397
  frame_id: "swarmone/map"
child_frame_id: "swarmone/base_link"
pose: 
  pose: 
    position: 
      x: 1.09866028443e-07
      y: 3.8746429961e-06
      z: 0.0
    orientation: 
      x: 0.0
      y: 0.0
      z: 0.703279414968
      w: 0.7109135422
  covariance: [193909661454.1833, -5143236337.331896, 0.0, 0.0, 0.0, -9.925868462005075e-23, -5143236337.331883, 136424469.13865086, 0.0, 0.0, 0.0, 2.064456655236227e-24, 0.0, 0.0, 4.999751134811081e-07, -8.456037447759892e-29, -1.0162050482215538e-24, 0.0, 0.0, 0.0, -8.456037447759894e-29, 4.999751134881114e-07, 1.6016717114954241e-35, 0.0, 0.0, 0.0, -1.0162050482215538e-24, -1.6016724067020235e-35, 4.999751134881114e-07, 0.0, -9.925868462005075e-23, 2.0644566552362277e-24, 0.0, 0.0, 0.0, 9.99998009242099e-10]
twist: 
  twist: 
    linear: 
      x: 5.92633454995e-09
      y: 0.0
      z: 0.0
    angular: 
      x: 0.0
      y: 0.0
      z: 0.0400000000002
  covariance: [0.01110494223979312, 0.0, 0.0, 0.0, 0.0, 0.0, 0.0, 4745283.299643511, 0.0, 0.0, 0.0, 0.0, 0.0, 0.0, 4.999975110888364e-07, -3.6403190428891166e-35, -7.566356504240533e-37, 0.0, 0.0, 0.0, -3.640319042889117e-35, 4.999751134574623e-07, -2.8066144562423094e-41, 0.0, 0.0, 0.0, -7.566356504240534e-37, 2.73306225925135e-41, 4.999751134574623e-07, 0.0, 0.0, 0.0, 0.0, 0.0, 0.0, 9.999999004584376e-10]
---
header: 
  seq: 5222
  stamp: 
    secs: 1518208421
    nsecs: 335307121
  frame_id: "swarmone/map"
child_frame_id: "swarmone/base_link"
pose: 
  pose: 
    position: 
      x: 1.09880011755e-07
      y: 3.8756812451e-06
      z: 0.0
    orientation: 
      x: 0.0
      y: 0.0
      z: 0.69613525578
      w: 0.717910652978
  covariance: [194096471046.32593, -5146718378.167434, 0.0, 0.0, 0.0, -1.6300103681765103e-22, -5146718378.16742, 136477880.2093904, 0.0, 0.0, 0.0, 1.7597666003327035e-24, 0.0, 0.0, 4.999751312277161e-07, -6.70536298277349e-29, -1.5510739018555332e-24, 0.0, 0.0, 0.0, -6.705362982773492e-29, 4.999751312353121e-07, 2.394868035381358e-39, 0.0, 0.0, 0.0, -1.5510739018555334e-24, -2.4032091681032592e-39, 4.999751312353121e-07, 0.0, -1.63001036817651e-22, 1.7597666003327035e-24, 0.0, 0.0, 0.0, 9.99998010698199e-10]
twist: 
  twist: 
    linear: 
      x: 8.99998870642e-09
      y: 0.0
      z: 0.0
    angular: 
      x: 0.0
      y: 0.0
      z: 0.0399999999991
  covariance: [0.011113660232215293, 0.0, 0.0, 0.0, 0.0, 0.0, 0.0, 4748024.764774964, 0.0, 0.0, 0.0, 0.0, 0.0, 0.0, 4.999975128600084e-07, -6.490927115307986e-35, -7.003084301773288e-37, 0.0, 0.0, 0.0, -6.490927115307991e-35, 4.999751312039508e-07, -9.488811430317234e-41, 0.0, 0.0, 0.0, -7.003084301773286e-37, 9.402865227338527e-41, 4.999751312039508e-07, 0.0, 0.0, 0.0, 0.0, 0.0, 0.0, 9.999999005309094e-10]
---
header: 
  seq: 5223
  stamp: 
    secs: 1518208421
    nsecs: 434800863
  frame_id: "swarmone/map"
child_frame_id: "swarmone/base_link"
pose: 
  pose: 
    position: 
      x: 1.09906960091e-07
      y: 3.87655523349e-06
      z: 0.0
    orientation: 
      x: 0.0
      y: 0.0
      z: 0.699716071024
      w: 0.71442103829
