header: 
  seq: 11479
  stamp: 
    secs: 1518209047
    nsecs:  35188675
  frame_id: "swarmone/map"
child_frame_id: "swarmone/base_link"
pose: 
  pose: 
    position: 
      x: 0.829134545763
      y: 9.17817008581
      z: 0.0
    orientation: 
      x: 0.0
      y: 0.0
      z: 0.663135430011
      w: 0.748499433176
  covariance: [9840387623148.611, -662251828434.6108, 0.0, 0.0, 0.0, -5.0499595528108806e-23, -662251828434.6039, 44638766317.34717, 0.0, 0.0, 0.0, 7.157489735475614e-24, 0.0, 0.0, 4.999751181742794e-07, -2.3248068791084976e-28, -5.513138525170527e-25, 0.0, 0.0, 0.0, -2.3248068791084985e-28, 4.99975118177378e-07, 3.8408327870037965e-34, 0.0, 0.0, 0.0, -5.51313852517053e-25, -3.8408328844691962e-34, 4.99975118177378e-07, 0.0, -5.049959552810881e-23, 7.157489735475612e-24, 0.0, 0.0, 0.0, 9.99998009591626e-10]
twist: 
  twist: 
    linear: 
      x: 3.40162757308e-09
      y: 0.0
      z: 0.0
    angular: 
      x: 0.0
      y: 0.0
      z: 0.0399999990053
  covariance: [0.011107234137642037, 0.0, 0.0, 0.0, 0.0, 0.0, 0.0, 50424991.87641688, 0.0, 0.0, 0.0, 0.0, 0.0, 0.0, 4.99997511561262e-07, -1.6716658743021008e-35, -2.3675729563411827e-36, 0.0, 0.0, 0.0, -1.6716658743021e-35, 4.999751181507334e-07, 1.8764782859709161e-38, 0.0, 0.0, 0.0, -2.3675729563411837e-36, -1.8765663783267475e-38, 4.999751181507334e-07, 0.0, 0.0, 0.0, 0.0, 0.0, 0.0, 9.99999900476152e-10]
---
header: 
  seq: 11480
  stamp: 
    secs: 1518209047
    nsecs: 134620905
  frame_id: "swarmone/map"
child_frame_id: "swarmone/base_link"
pose: 
  pose: 
    position: 
      x: 0.829134545747
      y: 9.1781700857
      z: 0.0
    orientation: 
      x: 0.0
      y: 0.0
      z: 0.659384682539
      w: 0.751805719872
  covariance: [9844645848032.51, -662654904620.0552, 0.0, 0.0, 0.0, -5.589281938079084e-24, -662654904620.0483, 44673878689.748375, 0.0, 0.0, 0.0, 6.784666970859926e-25, 0.0, 0.0, 4.999748563156508e-07, -2.905042680595916e-29, -6.086242455515792e-26, 0.0, 0.0, 0.0, -2.9050426805959164e-29, 4.999748563223298e-07, -4.3606002918266926e-39, 0.0, 0.0, 0.0, -6.086242455515792e-26, 4.360459636093833e-39, 4.999748563223298e-07, 0.0, -5.589281938079085e-24, 6.784666970859926e-25, 0.0, 0.0, 0.0, 9.999979886498483e-10]
twist: 
  twist: 
    linear: 
      x: 3.17470973621e-10
      y: 0.0
      z: 0.0
    angular: 
      x: 0.0
      y: 0.0
      z: 0.0499999989939
  covariance: [0.010980665014707262, 0.0, 0.0, 0.0, 0.0, 0.0, 0.0, 50438096.03665256, 0.0, 0.0, 0.0, 0.0, 0.0, 0.0, 4.999974853693912e-07, -2.17209543815398e-36, -2.634831509162439e-37, 0.0, 0.0, 0.0, -2.172095438153981e-36, 4.999748562920848e-07, 2.4755529092823727e-38, 0.0, 0.0, 0.0, -2.6348315091624386e-37, -2.475552909288443e-38, 4.999748562920848e-07, 0.0, 0.0, 0.0, 0.0, 0.0, 0.0, 9.999998994290076e-10]
---
header: 
  seq: 11481
  stamp: 
    secs: 1518209047
    nsecs: 234582424
  frame_id: "swarmone/map"
child_frame_id: "swarmone/base_link"
pose: 
  pose: 
    position: 
      x: 0.829134545752
      y: 9.17817008574
      z: 0.0
    orientation: 
      x: 0.0
      y: 0.0
      z: 0.655617428026
      w: 0.755093231375
  covariance: [9848922813569.598, -663081510549.7351, 0.0, 0.0, 0.0, -5.643716371630915e-24, -663081510549.7283, 44712105045.567795, 0.0, 0.0, 0.0, 7.424111544062202e-25, 0.0, 0.0, 4.999749894548538e-07, -3.973268147717605e-29, -6.126394713617784e-26, 0.0, 0.0, 0.0, -3.9732681477176053e-29, 4.999749894647924e-07, -2.587024483171466e-34, 0.0, 0.0, 0.0, -6.126394713617785e-26, 2.5870244826172566e-34, 4.999749894647924e-07, 0.0, -5.643716371630916e-24, 7.424111544062203e-25, 0.0, 0.0, 0.0, 9.999979993000923e-10]
twist: 
  twist: 
    linear: 
      x: 3.25152971274e-10
      y: 0.0
      z: 0.0
    angular: 
      x: 0.0
      y: 0.0
      z: 0.0300000020003
  covariance: [0.011044635541856165, 0.0, 0.0, 0.0, 0.0, 0.0, 0.0, 50451272.24010063, 0.0, 0.0, 0.0, 0.0, 0.0, 0.0, 4.999974986860576e-07, -2.1335891448752902e-36, -2.804107538059798e-37, 0.0, 0.0, 0.0, -2.1335891448752886e-36, 4.999749894312872e-07, -7.128867920701518e-39, 0.0, 0.0, 0.0, -2.804107538059796e-37, 7.12886792070152e-39, 4.999749894312872e-07, 0.0, 0.0, 0.0, 0.0, 0.0, 0.0, 9.99999899961524e-10]
---
header: 
  seq: 11482
  stamp: 
    secs: 1518209047
    nsecs: 335009336
  frame_id: "swarmone/map"
child_frame_id: "swarmone/base_link"
pose: 
  pose: 
    position: 
      x: 0.829134545775
      y: 9.1781700859
      z: 0.0
    orientation: 
      x: 0.0
      y: 0.0
      z: 0.659384666741
      w: 0.751805733728
  covariance: [9853215319419.727, -663531565142.6091, 0.0, 0.0, 0.0, -1.869962453532968e-23, -663531565142.6023, 44753451121.8869, 0.0, 0.0, 0.0, 2.6503654100601504e-24, 0.0, 0.0, 4.999751053618627e-07, -8.510568106535322e-29, -2.01926643275095e-25, 0.0, 0.0, 0.0, -8.510568106535326e-29, 4.999751053650483e-07, 2.5630259229019455e-34, 0.0, 0.0, 0.0, -2.0192664327509505e-25, -2.563025935317369e-34, 4.999751053650483e-07, 0.0, -1.8699624535329684e-23, 2.650365410060151e-24, 0.0, 0.0, 0.0, 9.999980085718802e-10]
twist: 
  twist: 
    linear: 
      x: 1.2074309844e-09
      y: 0.0
      z: 0.0
    angular: 
      x: 0.0
      y: 0.0
      z: 0.0399999990045
  covariance: [0.011100984871665286, 0.0, 0.0, 0.0, 0.0, 0.0, 0.0, 50464512.098867945, 0.0, 0.0, 0.0, 0.0, 0.0, 0.0, 4.999975102791373e-07, -6.458320897704448e-36, -9.148108456441288e-37, 0.0, 0.0, 0.0, -6.458320897704453e-36, 4.999751053382955e-07, 3.5137815822458324e-38, 0.0, 0.0, 0.0, -9.14810845644129e-37, -3.5137925006254996e-38, 4.999751053382955e-07, 0.0, 0.0, 0.0, 0.0, 0.0, 0.0, 9.999999004251169e-10]
---
header: 
  seq: 11483
  stamp: 
    secs: 1518209047
    nsecs: 434474707
  frame_id: "swarmone/map"
child_frame_id: "swarmone/base_link"
pose: 
  pose: 
    position: 
      x: 0.82913454575
      y: 9.17817008572
      z: 0.0
    orientation: 
      x: 0.0
      y: 0.0
      z: 0.659384674978
      w: 0.751805726504
  covariance: [9857474020040.135, -663956414942.3125, 0.0, 0.0, 0.0, 4.531121364529157e-23, -663956414942.3057, 44791531856.617165, 0.0, 0.0, 0.0, -5.960475385789811e-24, 0.0, 0.0, 4.999748561009974e-07, 9.838016717212896e-29, 1.904402039834752e-25, 0.0, 0.0, 0.0, 9.838016717212894e-29, 4.999748561146105e-07, -1.3070510301145902e-34, 0.0, 0.0, 0.0, 1.9044020398347513e-25, 1.3070510166026138e-34, 4.999748561146105e-07, 0.0, 4.531121364529158e-23, -5.960475385789811e-24, 0.0, 0.0, 0.0, 9.999979894627574e-10]
twist: 
  twist: 
    linear: 
      x: -9.79441495937e-10
      y: 0.0
      z: 0.0
    angular: 
      x: 0.0
      y: 0.0
      z: 0.030000001005
  covariance: [0.01098035318287608, 0.0, 0.0, 0.0, 0.0, 0.0, 0.0, 50477627.47497927, 0.0, 0.0, 0.0, 0.0, 0.0, 0.0, 4.999974853041077e-07, 2.78587693308121e-35, 3.6637914466859074e-36, 0.0, 0.0, 0.0, 2.785876933081211e-35, 4.99974856076424e-07, -5.737698364867441e-38, 0.0, 0.0, 0.0, 3.663791446685908e-36, 5.737499303181559e-38, 4.99974856076424e-07, 0.0, 0.0, 0.0, 0.0, 0.0, 0.0, 9.999998994625115e-10]
---
header: 
  seq: 11484
  stamp: 
    secs: 1518209047
    nsecs: 534960508
  frame_id: "swarmone/map"
child_frame_id: "swarmone/base_link"
pose: 
  pose: 
    position: 
      x: 0.829134545805
      y: 9.17817008613
      z: 0.0
    orientation: 
      x: 0.0
      y: 0.0
      z: 0.655617426477
      w: 0.75509323272
  covariance: [9861777906882.191, -664385807922.1404, 0.0, 0.0, 0.0, -3.900531593085998e-23, -664385807922.1335, 44830025516.71484, 0.0, 0.0, 0.0, 5.131026519803512e-24, 0.0, 0.0, 4.999751198991337e-07, -1.629108809487683e-28, -4.156551061499318e-25, 0.0, 0.0, 0.0, -1.6291088094876825e-28, 4.999751199024079e-07, 1.2802405268514931e-34, 0.0, 0.0, 0.0, -4.15655106149932e-25, -1.2802405785059828e-34, 4.999751199024079e-07, 0.0, -3.9005315930859974e-23, 5.131026519803512e-24, 0.0, 0.0, 0.0, 9.999980097399345e-10]
twist: 
  twist: 
    linear: 
      x: 2.53904942278e-09
      y: 0.0
      z: 0.0
    angular: 
      x: 0.0
      y: 0.0
      z: 0.0399999990044
  covariance: [0.011108084138027764, 0.0, 0.0, 0.0, 0.0, 0.0, 0.0, 50490879.711170174, 0.0, 0.0, 0.0, 0.0, 0.0, 0.0, 4.999975117325508e-07, -1.3334552983569804e-35, -1.7530750099796584e-36, 0.0, 0.0, 0.0, -1.3334552983569804e-35, 4.999751198755461e-07, 1.4863364451596576e-39, 0.0, 0.0, 0.0, -1.753075009979658e-36, -1.4867121334005067e-39, 4.999751198755461e-07, 0.0, 0.0, 0.0, 0.0, 0.0, 0.0, 9.999999004834724e-10]
---
header: 
  seq: 11485
  stamp: 
    secs: 1518209047
    nsecs: 634814978
  frame_id: "swarmone/map"
child_frame_id: "swarmone/base_link"
pose: 
  pose: 
    position: 
      x: 0.829134545822
      y: 9.17817008624
      z: 0.0
    orientation: 
      x: 0.0
      y: 0.0
      z: 0.663135430666
      w: 0.748499432595
  covariance: [9866050401123.883, -664833864304.1967, 0.0, 0.0, 0.0, -2.5631063349018944e-23, -664833864304.19, 44871207218.84191, 0.0, 0.0, 0.0, 3.6327784669704405e-24, 0.0, 0.0, 4.999749625876349e-07, -1.5379058281202228e-28, -2.7550601903126623e-25, 0.0, 0.0, 0.0, -1.537905828120223e-28, 4.999749625943154e-07, -2.5927478133899644e-34, 0.0, 0.0, 0.0, -2.755060190312664e-25, 2.5927477823253045e-34, 4.999749625943154e-07, 0.0, -2.5631063349018947e-23, 3.632778466970441e-24, 0.0, 0.0, 0.0, 9.999979971561175e-10]
twist: 
  twist: 
    linear: 
      x: 1.64958284582e-09
      y: 0.0
      z: 0.0
    angular: 
      x: 0.0
      y: 0.0
      z: 0.0400000000005
  covariance: [0.01103171514895962, 0.0, 0.0, 0.0, 0.0, 0.0, 0.0, 50504050.98363807, 0.0, 0.0, 0.0, 0.0, 0.0, 0.0, 4.999974959981637e-07, -9.028976234394008e-36, -1.2787133754286817e-36, 0.0, 0.0, 0.0, -9.028976234394005e-36, 4.99974962564048e-07, -1.6214036205971992e-38, 0.0, 0.0, 0.0, -1.2787133754286807e-36, 1.6213853356916673e-38, 4.99974962564048e-07, 0.0, 0.0, 0.0, 0.0, 0.0, 0.0, 9.999998998542769e-10]
---
header: 
  seq: 11486
  stamp: 
    secs: 1518209047
    nsecs: 734774590
  frame_id: "swarmone/map"
child_frame_id: "swarmone/base_link"
pose: 
  pose: 
    position: 
      x: 0.829134545841
      y: 9.1781700864
      z: 0.0
    orientation: 
      x: 0.0
      y: 0.0
      z: 0.663135445657
      w: 0.748499419314
  covariance: [9870340151925.605, -665240120975.0403, 0.0, 0.0, 0.0, -2.5659544312894485e-23, -665240120975.0338, 44906627205.1698, 0.0, 0.0, 0.0, 3.114728802229273e-24, 0.0, 0.0, 4.99974988924332e-07, -1.3185872171914408e-28, -2.748007937122352e-25, 0.0, 0.0, 0.0, -1.3185872171914402e-28, 4.999749889310334e-07, 2.5871692456788885e-34, 0.0, 0.0, 0.0, -2.7480079371223525e-25, -2.587169273265022e-34, 4.999749889310334e-07, 0.0, -2.5659544312894482e-23, 3.114728802229273e-24, 0.0, 0.0, 0.0, 9.999979992628682e-10]
twist: 
  twist: 
    linear: 
      x: 1.64477992471e-09
      y: 0.0
      z: 0.0
    angular: 
      x: 0.0
      y: 0.0
      z: 0.0399999999999
  covariance: [0.01104442455072889, 0.0, 0.0, 0.0, 0.0, 0.0, 0.0, 50517238.41893902, 0.0, 0.0, 0.0, 0.0, 0.0, 0.0, 4.999974986323769e-07, -8.98476672119991e-36, -1.0898046408488263e-36, 0.0, 0.0, 0.0, -8.984766721199909e-36, 4.99974988900745e-07, 6.584834411544683e-39, 0.0, 0.0, 0.0, -1.0898046408488265e-36, -6.584985028799556e-39, 4.99974988900745e-07, 0.0, 0.0, 0.0, 0.0, 0.0, 0.0, 9.99999899959615e-10]
---
header: 
  seq: 11487
  stamp: 
    secs: 1518209047
    nsecs: 834821939
  frame_id: "swarmone/map"
child_frame_id: "swarmone/base_link"
pose: 
  pose: 
    position: 
      x: 0.829134545852
      y: 9.1781700865
      z: 0.0
    orientation: 
      x: 0.0
      y: 0.0
      z: 0.655617434812
      w: 0.755093225483
  covariance: [9874635162602.354, -665646902581.2163, 0.0, 0.0, 0.0, -1.8712266555226988e-23, -665646902581.2097, 44942097136.08414, 0.0, 0.0, 0.0, 2.2714199632591364e-24, 0.0, 0.0, 4.999750109122475e-07, -9.725070389182495e-29, -2.0249829548453847e-25, 0.0, 0.0, 0.0, -9.725070389182494e-29, 4.999750109188436e-07, 1.2912868759062481e-34, 0.0, 0.0, 0.0, -2.024982954845384e-25, -1.291286890973299e-34, 4.999750109188436e-07, 0.0, -1.871226655522698e-23, 2.2714199632591364e-24, 0.0, 0.0, 0.0, 9.999980010165405e-10]
twist: 
  twist: 
    linear: 
      x: 1.20234743816e-09
      y: 0.0
      z: 0.0
    angular: 
      x: 0.0
      y: 0.0
      z: 0.0399999999993
  covariance: [0.011055070939630778, 0.0, 0.0, 0.0, 0.0, 0.0, 0.0, 50530439.72777385, 0.0, 0.0, 0.0, 0.0, 0.0, 0.0, 4.999975008322382e-07, -6.521046973847462e-36, -7.909493321994056e-37, 0.0, 0.0, 0.0, -6.521046973847459e-36, 4.99975010888681e-07, -3.861624889808379e-39, 0.0, 0.0, 0.0, -7.909493321994058e-37, 3.861583550968002e-39, 4.99975010888681e-07, 0.0, 0.0, 0.0, 0.0, 0.0, 0.0, 9.999999000473472e-10]
---
header: 
  seq: 11488
  stamp: 
    secs: 1518209047
    nsecs: 934830189
  frame_id: "swarmone/map"
child_frame_id: "swarmone/base_link"
pose: 
  pose: 
    position: 
      x: 0.829134545852
      y: 9.1781700865
      z: 0.0
    orientation: 
      x: 0.0
      y: 0.0
      z: 0.655617419717
      w: 0.755093238589
  covariance: [9878918703237.398, -666096207774.4053, 0.0, 0.0, 0.0, -5.5631680922522665e-24, -666096207774.3988, 44983410931.748726, 0.0, 0.0, 0.0, 7.88486277534948e-25, 0.0, 0.0, 4.999750011948999e-07, -3.414838527172729e-29, -6.108065255179411e-26, 0.0, 0.0, 0.0, -3.414838527172729e-29, 4.999750012013712e-07, -2.5844401038553434e-34, 0.0, 0.0, 0.0, -6.10806525517941e-26, 2.5844401021864105e-34, 4.999750012013712e-07, 0.0, -5.5631680922522665e-24, 7.884862775349481e-25, 0.0, 0.0, 0.0, 9.999980002340156e-10]
twist: 
  twist: 
    linear: 
      x: 3.2669059077e-10
      y: 0.0
      z: 0.0
    angular: 
      x: 0.0
      y: 0.0
      z: 0.0300000009998
  covariance: [0.01105037540399213, 0.0, 0.0, 0.0, 0.0, 0.0, 0.0, 50543638.175576985, 0.0, 0.0, 0.0, 0.0, 0.0, 0.0, 4.999974998609301e-07, -2.075824281649601e-36, -2.939912379474106e-37, 0.0, 0.0, 0.0, -2.0758242816496003e-36, 4.999750011713543e-07, 1.9877575163600388e-38, 0.0, 0.0, 0.0, -2.9399123794741063e-37, -1.9877575163685924e-38, 4.999750011713543e-07, 0.0, 0.0, 0.0, 0.0, 0.0, 0.0, 9.999999000082681e-10]
---
header: 
  seq: 11489
  stamp: 
    secs: 1518209048
    nsecs:  35057306
  frame_id: "swarmone/map"
child_frame_id: "swarmone/base_link"
pose: 
  pose: 
    position: 
      x: 0.829134545883
      y: 9.17817008672
      z: 0.0
    orientation: 
      x: 0.0
      y: 0.0
      z: 0.659384666726
      w: 0.751805733741
  covariance: [9883213111510.156, -666546690218.7546, 0.0, 0.0, 0.0, -2.522355867585183e-23, -666546690218.7482, 45024840066.180435, 0.0, 0.0, 0.0, 3.5750269093914044e-24, 0.0, 0.0, 4.99975055734469e-07, -1.1479732006888667e-28, -2.729161301770441e-25, 0.0, 0.0, 0.0, -1.1479732006888665e-28, 4.999750557376746e-07, 3.860106524063766e-34, 0.0, 0.0, 0.0, -2.7291613017704416e-25, -3.860106547794372e-34, 4.999750557376746e-07, 0.0, -2.522355867585183e-23, 3.5750269093914044e-24, 0.0, 0.0, 0.0, 9.999980046020192e-10]
twist: 
  twist: 
    linear: 
      x: 1.64699311852e-09
      y: 0.0
      z: 0.0
    angular: 
      x: 0.0
      y: 0.0
      z: 0.0399999990025
  covariance: [0.011076842371897749, 0.0, 0.0, 0.0, 0.0, 0.0, 0.0, 50556867.813832834, 0.0, 0.0, 0.0, 0.0, 0.0, 0.0, 4.999975053153807e-07, -8.663278226640206e-36, -1.2271449161750642e-36, 0.0, 0.0, 0.0, -8.663278226640211e-36, 4.999750557109022e-07, 2.8097802496200853e-38, 0.0, 0.0, 0.0, -1.2271449161750642e-36, -2.8098131073196575e-38, 4.999750557109022e-07, 0.0, 0.0, 0.0, 0.0, 0.0, 0.0, 9.999999002266223e-10]
---
header: 
  seq: 11490
  stamp: 
    secs: 1518209048
    nsecs: 134988070
  frame_id: "swarmone/map"
child_frame_id: "swarmone/base_link"
pose: 
  pose: 
    position: 
      x: 0.829134545872
      y: 9.17817008663
      z: 0.0
    orientation: 
      x: 0.0
      y: 0.0
      z: 0.659384674979
      w: 0.751805726503
  covariance: [9887502167817.994, -666974799373.2324, 0.0, 0.0, 0.0, 8.962319717676889e-25, -666974799373.2258, 45063252641.40044, 0.0, 0.0, 0.0, -1.178958306812861e-25, 0.0, 0.0, 4.999749815431872e-07, 4.82777924661016e-30, 9.298713036651671e-27, 0.0, 0.0, 0.0, 4.8277792466101585e-30, 4.999749815501494e-07, 1.2944202900161138e-34, 0.0, 0.0, 0.0, 9.29871303665167e-27, -1.294420290052005e-34, 4.999749815501494e-07, 0.0, 8.962319717676889e-25, -1.1789583068128609e-25, 0.0, 0.0, 0.0, 9.99997998688125e-10]
twist: 
  twist: 
    linear: 
      x: -1.0886989161e-10
      y: 0.0
      z: 0.0
    angular: 
      x: 0.0
      y: 0.0
      z: 0.0399999999999
  covariance: [0.011040879808463128, 0.0, 0.0, 0.0, 0.0, 0.0, 0.0, 50570060.63244706, 0.0, 0.0, 0.0, 0.0, 0.0, 0.0, 4.999974978923111e-07, 4.795841321045632e-38, 6.277287351820217e-39, 0.0, 0.0, 0.0, 4.795841321045631e-38, 4.999749815195419e-07, 6.522507145955702e-39, 0.0, 0.0, 0.0, 6.277287351820218e-39, -6.522507145974881e-39, 4.999749815195419e-07, 0.0, 0.0, 0.0, 0.0, 0.0, 0.0, 9.999998999307348e-10]
---
header: 
  seq: 11491
  stamp: 
    secs: 1518209048
    nsecs: 234956026
  frame_id: "swarmone/map"
child_frame_id: "swarmone/base_link"
pose: 
  pose: 
    position: 
      x: 0.829134545888
      y: 9.17817008676
      z: 0.0
    orientation: 
      x: 0.0
      y: 0.0
      z: 0.659384674979
      w: 0.751805726503
  covariance: [9891794311483.84, -667403248517.9309, 0.0, 0.0, 0.0, -1.2461755404652266e-23, -667403248517.9243, 45101701238.671486, 0.0, 0.0, 0.0, 1.639302698253255e-24, 0.0, 0.0, 4.99974991012173e-07, -6.939747234038741e-29, -1.3361491469300267e-25, 0.0, 0.0, 0.0, -6.939747234038742e-29, 4.999749910188565e-07, -7.584104457340367e-40, 0.0, 0.0, 0.0, -1.3361491469300267e-25, 7.5766881662466e-40, 4.999749910188565e-07, 0.0, -1.2461755404652265e-23, 1.639302698253255e-24, 0.0, 0.0, 0.0, 9.999979994298807e-10]
twist: 
  twist: 
    linear: 
      x: 7.77534787143e-10
      y: 0.0
      z: 0.0
    angular: 
      x: 0.0
      y: 0.0
      z: 0.0399999999999
  covariance: [0.011045457714071717, 0.0, 0.0, 0.0, 0.0, 0.0, 0.0, 50583260.65750032, 0.0, 0.0, 0.0, 0.0, 0.0, 0.0, 4.99997498841204e-07, -4.470633712750096e-36, -5.876527371852876e-37, 0.0, 0.0, 0.0, -4.470633712750098e-36, 4.999749909885861e-07, 6.028663366727665e-39, 0.0, 0.0, 0.0, -5.876527371852879e-37, -6.028663586717732e-39, 4.999749909885861e-07, 0.0, 0.0, 0.0, 0.0, 0.0, 0.0, 9.999998999679658e-10]
---
header: 
  seq: 11492
  stamp: 
    secs: 1518209048
    nsecs: 334836483
  frame_id: "swarmone/map"
child_frame_id: "swarmone/base_link"
pose: 
  pose: 
    position: 
      x: 0.829134545915
      y: 9.17817008696
      z: 0.0
    orientation: 
      x: 0.0
      y: 0.0
      z: 0.655617427277
      w: 0.755093232025
  covariance: [9896084188049.152, -667831503177.044, 0.0, 0.0, 0.0, -2.4942928175287303e-23, -667831503177.0375, 45140137893.907, 0.0, 0.0, 0.0, 3.2811601707623946e-24, 0.0, 0.0, 4.999749692089302e-07, -1.420995169466245e-28, -2.7382973887637863e-25, 0.0, 0.0, 0.0, -1.4209951694662442e-28, 4.999749692154367e-07, -2.5914016170518576e-34, 0.0, 0.0, 0.0, -2.738297388763787e-25, 2.5914015873499567e-34, 4.999749692154367e-07, 0.0, -2.494292817528731e-23, 3.2811601707623946e-24, 0.0, 0.0, 0.0, 9.99997997675341e-10]
twist: 
  twist: 
    linear: 
      x: 1.65542969906e-09
      y: 0.0
      z: 0.0
    angular: 
      x: 0.0
      y: 0.0
      z: 0.0399999999996
  covariance: [0.01103492338917337, 0.0, 0.0, 0.0, 0.0, 0.0, 0.0, 50596451.42268705, 0.0, 0.0, 0.0, 0.0, 0.0, 0.0, 4.999974966616767e-07, -8.472783685226613e-36, -1.1136650777019845e-36, 0.0, 0.0, 0.0, -8.47278368522661e-36, 4.999749691853848e-07, 1.6256894467136894e-39, 0.0, 0.0, 0.0, -1.1136650777019855e-36, -1.6261224833049802e-39, 4.999749691853848e-07, 0.0, 0.0, 0.0, 0.0, 0.0, 0.0, 9.999998998803335e-10]
---
header: 
  seq: 11493
  stamp: 
    secs: 1518209048
    nsecs: 434826612
  frame_id: "swarmone/map"
child_frame_id: "swarmone/base_link"
pose: 
  pose: 
    position: 
      x: 0.829134545937
      y: 9.17817008712
      z: 0.0
    orientation: 
      x: 0.0
      y: 0.0
      z: 0.655617419717
      w: 0.755093238589
  covariance: [9900374400263.04, -668281677273.0952, 0.0, 0.0, 0.0, -2.5638074510952316e-23, -668281677273.0889, 45181563973.33526, 0.0, 0.0, 0.0, 3.633772415318558e-24, 0.0, 0.0, 4.999749965581719e-07, -1.538319681614741e-28, -2.752076804042715e-25, 0.0, 0.0, 0.0, -1.5383196816147402e-28, 4.99974996564834e-07, 2.5858349109774575e-34, 0.0, 0.0, 0.0, -2.752076804042716e-25, -2.5858349434530617e-34, 4.99974996564834e-07, 0.0, -2.563807451095232e-23, 3.633772415318557e-24, 0.0, 0.0, 0.0, 9.999979998735219e-10]
twist: 
  twist: 
    linear: 
      x: 1.65035490994e-09
      y: 0.0
      z: 0.0
    angular: 
      x: 0.0
      y: 0.0
      z: 0.0399999999999
  covariance: [0.011048125267570196, 0.0, 0.0, 0.0, 0.0, 0.0, 0.0, 50609658.968616925, 0.0, 0.0, 0.0, 0.0, 0.0, 0.0, 4.999974993959182e-07, -8.961406963312717e-36, -1.2691377352844016e-36, 0.0, 0.0, 0.0, -8.961406963312722e-36, 4.999749965345847e-07, -2.4115933664599685e-38, 0.0, 0.0, 0.0, -1.269137735284402e-36, 2.4115677591210514e-38, 4.999749965345847e-07, 0.0, 0.0, 0.0, 0.0, 0.0, 0.0, 9.999998999901479e-10]
---
header: 
  seq: 11494
  stamp: 
    secs: 1518209048
    nsecs: 534808636
  frame_id: "swarmone/map"
child_frame_id: "swarmone/base_link"
pose: 
  pose: 
    position: 
      x: 0.829134545968
      y: 9.17817008734
      z: 0.0
    orientation: 
      x: 0.0
      y: 0.0
      z: 0.659384667459
      w: 0.751805733098
  covariance: [9904665754189.184, -668732008054.064, 0.0, 0.0, 0.0, -3.1238704091958276e-23, -668732008054.0576, 45223011520.01934, 0.0, 0.0, 0.0, 4.427570759579304e-24, 0.0, 0.0, 4.999749946372837e-07, -1.9174849020266927e-28, -3.430668858865402e-25, 0.0, 0.0, 0.0, -1.9174849020266927e-28, 4.999749946437584e-07, 1.7770294915938903e-38, 0.0, 0.0, 0.0, -3.430668858865402e-25, -1.7775278538138075e-38, 4.999749946437584e-07, 0.0, -3.123870409195828e-23, 4.427570759579305e-24, 0.0, 0.0, 0.0, 9.999979997094479e-10]
twist: 
  twist: 
    linear: 
      x: 2.08306487999e-09
      y: 0.0
      z: 0.0
    angular: 
      x: 0.0
      y: 0.0
      z: 0.0400000000002
  covariance: [0.011047202840391686, 0.0, 0.0, 0.0, 0.0, 0.0, 0.0, 50622867.74176791, 0.0, 0.0, 0.0, 0.0, 0.0, 0.0, 4.999974992050341e-07, -1.056331738246268e-35, -1.4959570022499794e-36, 0.0, 0.0, 0.0, -1.0563317382462686e-35, 4.999749946137381e-07, -2.9638017897846163e-40, 0.0, 0.0, 0.0, -1.4959570022499797e-36, 2.9590553487862957e-40, 4.999749946137381e-07, 0.0, 0.0, 0.0, 0.0, 0.0, 0.0, 9.999998999820397e-10]
---
header: 
  seq: 11495
  stamp: 
    secs: 1518209048
    nsecs: 634815931
  frame_id: "swarmone/map"
child_frame_id: "swarmone/base_link"
pose: 
  pose: 
    position: 
      x: 0.82913454597
      y: 9.17817008735
      z: 0.0
    orientation: 
      x: 0.0
      y: 0.0
      z: 0.659384674979
      w: 0.751805726503
  covariance: [9908965555131.582, -669161358891.7559, 0.0, 0.0, 0.0, -1.3633478285167435e-23, -669161358891.7493, 45261564854.11992, 0.0, 0.0, 0.0, 1.7934389549352517e-24, 0.0, 0.0, 4.999750004749674e-07, -7.043488105451275e-29, -1.3556145495162708e-25, 0.0, 0.0, 0.0, -7.043488105451275e-29, 4.999750004822684e-07, -5.169739573356363e-34, 0.0, 0.0, 0.0, -1.35561454951627e-25, 5.169739565716659e-34, 4.999750004822684e-07, 0.0, -1.3633478285167432e-23, 1.7934389549352514e-24, 0.0, 0.0, 0.0, 9.999980002235191e-10]
twist: 
  twist: 
    linear: 
      x: 7.61993502255e-10
      y: 0.0
      z: 0.0
    angular: 
      x: 0.0
      y: 0.0
      z: 0.0399999999999
  covariance: [0.011050001402467214, 0.0, 0.0, 0.0, 0.0, 0.0, 0.0, 50636082.152628295, 0.0, 0.0, 0.0, 0.0, 0.0, 0.0, 4.99997499783608e-07, -5.4274303356021567e-36, -7.134929602366988e-37, 0.0, 0.0, 0.0, -5.4274303356021546e-36, 4.999750004512512e-07, -3.888271782992339e-39, 0.0, 0.0, 0.0, -7.134929602366984e-37, 3.8882717829495705e-39, 4.999750004512512e-07, 0.0, 0.0, 0.0, 0.0, 0.0, 0.0, 9.999999000073146e-10]
---
header: 
  seq: 11496
  stamp: 
    secs: 1518209048
    nsecs: 734692574
  frame_id: "swarmone/map"
child_frame_id: "swarmone/base_link"
pose: 
  pose: 
    position: 
      x: 0.829134546013
      y: 9.17817008767
      z: 0.0
    orientation: 
      x: 0.0
      y: 0.0
      z: 0.655617427277
      w: 0.755093232025
  covariance: [9913261230107.83, -669590329624.8118, 0.0, 0.0, 0.0, -3.882987929143431e-23, -669590329624.8049, 45300089570.1623, 0.0, 0.0, 0.0, 5.107942166139148e-24, 0.0, 0.0, 4.999749681462463e-07, -2.162380333350854e-28, -4.167146282089103e-25, 0.0, 0.0, 0.0, -2.162380333350854e-28, 4.999749681529419e-07, 1.0936491810112046e-38, 0.0, 0.0, 0.0, -4.167146282089102e-25, -1.094341379069857e-38, 4.999749681529419e-07, 0.0, -3.882987929143432e-23, 5.107942166139149e-24, 0.0, 0.0, 0.0, 9.999979976007674e-10]
twist: 
  twist: 
    linear: 
      x: 2.5166729072e-09
      y: 0.0
      z: 0.0
    angular: 
      x: 0.0
      y: 0.0
      z: 0.0300000010008
  covariance: [0.011034395324466302, 0.0, 0.0, 0.0, 0.0, 0.0, 0.0, 50649281.59459913, 0.0, 0.0, 0.0, 0.0, 0.0, 0.0, 4.999974965541396e-07, -1.3519618156770777e-35, -1.7770762919070345e-36, 0.0, 0.0, 0.0, -1.3519618156770785e-35, 4.999749681226594e-07, 7.676213074071639e-39, 0.0, 0.0, 0.0, -1.7770762919070345e-36, -7.676657005336856e-39, 4.999749681226594e-07, 0.0, 0.0, 0.0, 0.0, 0.0, 0.0, 9.999998998765094e-10]
---
header: 
  seq: 11497
  stamp: 
    secs: 1518209048
    nsecs: 834487677
  frame_id: "swarmone/map"
child_frame_id: "swarmone/base_link"
pose: 
  pose: 
    position: 
      x: 0.829134546021
      y: 9.17817008773
      z: 0.0
    orientation: 
      x: 0.0
      y: 0.0
      z: 0.659384666694
      w: 0.75180573377
  covariance: [9917549023651.37, -670040387254.6439, 0.0, 0.0, 0.0, -1.8022168304440228e-23, -670040387254.6371, 45341531164.91376, 0.0, 0.0, 0.0, 2.5543467056290253e-24, 0.0, 0.0, 4.999749478527787e-07, -8.393745123214407e-29, -2.0041116975339438e-25, 0.0, 0.0, 0.0, -8.393745123214408e-29, 4.999749478558628e-07, -5.191348989437251e-34, 0.0, 0.0, 0.0, -2.0041116975339445e-25, 5.191348977398535e-34, 4.999749478558628e-07, 0.0, -1.8022168304440225e-23, 2.5543467056290257e-24, 0.0, 0.0, 0.0, 9.999979959617725e-10]
twist: 
  twist: 
    linear: 
      x: 1.19212925609e-09
      y: 0.0
      z: 0.0
    angular: 
      x: 0.0
      y: 0.0
      z: 0.0300000000002
  covariance: [0.011024606342705589, 0.0, 0.0, 0.0, 0.0, 0.0, 0.0, 50662472.5513805, 0.0, 0.0, 0.0, 0.0, 0.0, 0.0, 4.999974945262618e-07, -6.135061662952432e-36, -8.69003283520644e-37, 0.0, 0.0, 0.0, -6.135061662952437e-36, 4.99974947829255e-07, -1.7964992343853173e-38, 0.0, 0.0, 0.0, -8.690032835206443e-37, 1.7964884095272853e-38, 4.99974947829255e-07, 0.0, 0.0, 0.0, 0.0, 0.0, 0.0, 9.99999899794702e-10]
---
header: 
  seq: 11498
  stamp: 
    secs: 1518209048
    nsecs: 935081005
  frame_id: "swarmone/map"
child_frame_id: "swarmone/base_link"
pose: 
  pose: 
    position: 
      x: 0.829134546045
      y: 9.17817008791
      z: 0.0
    orientation: 
      x: 0.0
      y: 0.0
      z: 0.663135437469
      w: 0.748499426568
  covariance: [9921878529552.088, -670472805498.6642, 0.0, 0.0, 0.0, -3.543971839649596e-23, -670472805498.6573, 45380377471.78225, 0.0, 0.0, 0.0, 4.661977843682268e-24, 0.0, 0.0, 4.999751450988045e-07, -1.1519885448447752e-28, -2.9362650812467284e-25, 0.0, 0.0, 0.0, -1.1519885448447756e-28, 4.999751451038545e-07, 2.554960263586382e-34, 0.0, 0.0, 0.0, -2.9362650812467257e-25, -2.55496028941552e-34, 4.999751451038545e-07, 0.0, -3.5439718396495957e-23, 4.661977843682269e-24, 0.0, 0.0, 0.0, 9.99998011892199e-10]
twist: 
  twist: 
    linear: 
      x: 1.63080415899e-09
      y: 0.0
      z: 0.0
    angular: 
      x: 0.0
      y: 0.0
      z: 0.0499999980121
  covariance: [0.011120386440741708, 0.0, 0.0, 0.0, 0.0, 0.0, 0.0, 50675771.33554629, 0.0, 0.0, 0.0, 0.0, 0.0, 0.0, 4.999975142398922e-07, -1.6459847062193047e-35, -2.1643894196969394e-36, 0.0, 0.0, 0.0, -1.6459847062193052e-35, 4.999751450748299e-07, -1.7916758965548657e-38, 0.0, 0.0, 0.0, -2.1643894196969397e-36, 1.7915980184715675e-38, 4.999751450748299e-07, 0.0, 0.0, 0.0, 0.0, 0.0, 0.0, 9.999999005898478e-10]
---
header: 
  seq: 11499
  stamp: 
    secs: 1518209049
    nsecs:  34995317
  frame_id: "swarmone/map"
child_frame_id: "swarmone/base_link"
pose: 
  pose: 
    position: 
      x: 0.829134546056
      y: 9.17817008801
      z: 0.0
    orientation: 
      x: 0.0
      y: 0.0
      z: 0.659384683254
      w: 0.751805719245
  covariance: [9926185753265.748, -670881145760.9088, 0.0, 0.0, 0.0, -2.8834826947000353e-23, -670881145760.9019, 45416045977.71835, 0.0, 0.0, 0.0, 3.500148259488922e-24, 0.0, 0.0, 4.999749756686671e-07, -1.340926046998328e-28, -2.239066820217583e-25, 0.0, 0.0, 0.0, -1.3409260469983277e-28, 4.999749756817311e-07, 3.885104535385823e-34, 0.0, 0.0, 0.0, -2.2390668202175836e-25, -3.885104557992299e-34, 4.999749756817311e-07, 0.0, -2.883482694700035e-23, 3.500148259488921e-24, 0.0, 0.0, 0.0, 9.999979983890776e-10]
twist: 
  twist: 
    linear: 
      x: 1.19163910019e-09
      y: 0.0
      z: 0.0
    angular: 
      x: 0.0
      y: 0.0
      z: 0.0400000010001
  covariance: [0.011037977906880214, 0.0, 0.0, 0.0, 0.0, 0.0, 0.0, 50688982.65500086, 0.0, 0.0, 0.0, 0.0, 0.0, 0.0, 4.999974972895749e-07, -1.4816195666906134e-35, -1.797491388690938e-36, 0.0, 0.0, 0.0, -1.4816195666906142e-35, 4.999749756446029e-07, 2.305902904011355e-38, 0.0, 0.0, 0.0, -1.7974913886909387e-36, -2.305929660414132e-38, 4.999749756446029e-07, 0.0, 0.0, 0.0, 0.0, 0.0, 0.0, 9.999998999142578e-10]
---
header: 
  seq: 11500
  stamp: 
    secs: 1518209049
    nsecs: 134926319
  frame_id: "swarmone/map"
child_frame_id: "swarmone/base_link"
pose: 
  pose: 
    position: 
      x: 0.829134546145
      y: 9.17817008868
      z: 0.0
    orientation: 
      x: 0.0
      y: 0.0
      z: 0.659384674978
      w: 0.751805726504
  covariance: [9930489746615.816, -671311071335.8651, 0.0, 0.0, 0.0, -2.5894382316827154e-22, -671311071335.8583, 45454678373.73188, 0.0, 0.0, 0.0, 3.406281004922006e-23, 0.0, 0.0, 4.999749730121867e-07, -5.512289698129783e-28, -1.0621042926641312e-24, 0.0, 0.0, 0.0, -5.512289698129783e-28, 4.999749730258297e-07, -3.885835164404546e-34, 0.0, 0.0, 0.0, -1.0621042926641304e-24, 3.885834703020001e-34, 4.999749730258297e-07, 0.0, -2.5894382316827154e-22, 3.406281004922006e-23, 0.0, 0.0, 0.0, 9.99997998836586e-10]
twist: 
  twist: 
    linear: 
      x: 5.12982333915e-09
      y: 0.0
      z: 0.0
    angular: 
      x: 0.0
      y: 0.0
      z: 0.0399999999996
  covariance: [0.011036546961938658, 0.0, 0.0, 0.0, 0.0, 0.0, 0.0, 50702198.47775348, 0.0, 0.0, 0.0, 0.0, 0.0, 0.0, 4.999974969973865e-07, -1.6823293546711377e-34, -2.2126586470608894e-35, 0.0, 0.0, 0.0, -1.6823293546711364e-34, 4.99974972987602e-07, 2.88495064659664e-38, 0.0, 0.0, 0.0, -2.2126586470608894e-35, -2.88978639075618e-38, 4.99974972987602e-07, 0.0, 0.0, 0.0, 0.0, 0.0, 0.0, 9.999998999309685e-10]
---
header: 
  seq: 11501
  stamp: 
    secs: 1518209049
    nsecs: 234463930
  frame_id: "swarmone/map"
child_frame_id: "swarmone/base_link"
pose: 
  pose: 
    position: 
      x: 0.829134546134
      y: 9.1781700886
      z: 0.0
    orientation: 
      x: 0.0
      y: 0.0
      z: 0.659384674979
      w: 0.751805726503
  covariance: [9934778281202.67, -671739487583.1897, 0.0, 0.0, 0.0, -1.890474077702662e-23, -671739487583.1831, 45493180771.977135, 0.0, 0.0, 0.0, 2.4868559256154868e-24, 0.0, 0.0, 4.999748828288916e-07, -1.0411273649416582e-28, -2.0131805467694475e-25, 0.0, 0.0, 0.0, -1.041127364941658e-28, 4.999748828357258e-07, -5.218493877828354e-34, 0.0, 0.0, 0.0, -2.0131805467694477e-25, 5.218493861136661e-34, 4.999748828357258e-07, 0.0, -1.890474077702662e-23, 2.4868559256154868e-24, 0.0, 0.0, 0.0, 9.999979907812382e-10]
twist: 
  twist: 
    linear: 
      x: 1.15872713062e-09
      y: 0.0
      z: 0.0
    angular: 
      x: 0.0
      y: 0.0
      z: 0.0399999999999
  covariance: [0.01099336239768647, 0.0, 0.0, 0.0, 0.0, 0.0, 0.0, 50715364.55817356, 0.0, 0.0, 0.0, 0.0, 0.0, 0.0, 4.999974880200269e-07, -6.964839633644418e-36, -9.15532059111286e-37, 0.0, 0.0, 0.0, -6.964839633644418e-36, 4.999748828052849e-07, -2.0860937065891986e-38, 0.0, 0.0, 0.0, -9.155320591112864e-37, 2.0860784438962253e-38, 4.999748828052849e-07, 0.0, 0.0, 0.0, 0.0, 0.0, 0.0, 9.99999899535483e-10]
---
header: 
  seq: 11502
  stamp: 
    secs: 1518209049
    nsecs: 335074663
  frame_id: "swarmone/map"
child_frame_id: "swarmone/base_link"
pose: 
  pose: 
    position: 
      x: 0.829134546133
      y: 9.1781700886
      z: 0.0
    orientation: 
      x: 0.0
      y: 0.0
      z: 0.655617427222
      w: 0.755093232073
  covariance: [9939114557575.395, -672172705211.7041, 0.0, 0.0, 0.0, -5.5095816419787915e-24, -672172705211.6975, 45532120232.60785, 0.0, 0.0, 0.0, 7.247671851073341e-25, 0.0, 0.0, 4.999751507420661e-07, -3.0342869314556296e-29, -5.804917849099237e-26, 0.0, 0.0, 0.0, -3.0342869314556296e-29, 4.999751507487555e-07, -2.553877730332423e-34, 0.0, 0.0, 0.0, -5.804917849099237e-26, 2.553877728914596e-34, 4.999751507487555e-07, 0.0, -5.5095816419787915e-24, 7.247671851073342e-25, 0.0, 0.0, 0.0, 9.99998012212321e-10]
twist: 
  twist: 
    linear: 
      x: 2.86765021667e-10
      y: 0.0
      z: 0.0
    angular: 
      x: 0.0
      y: 0.0
      z: 0.0399999999996
  covariance: [0.011123205682978442, 0.0, 0.0, 0.0, 0.0, 0.0, 0.0, 50728674.89909771, 0.0, 0.0, 0.0, 0.0, 0.0, 0.0, 4.999975148168758e-07, -2.2241961242869643e-36, -2.9239061096689475e-37, 0.0, 0.0, 0.0, -2.224196124286964e-36, 4.999751507184584e-07, -2.3171871602803787e-38, 0.0, 0.0, 0.0, -2.9239061096689463e-37, 2.3171871602786033e-38, 4.999751507184584e-07, 0.0, 0.0, 0.0, 0.0, 0.0, 0.0, 9.99999900607045e-10]
---
header: 
  seq: 11503
  stamp: 
    secs: 1518209049
    nsecs: 434924364
  frame_id: "swarmone/map"
child_frame_id: "swarmone/base_link"
pose: 
  pose: 
    position: 
      x: 0.829134546173
      y: 9.17817008888
      z: 0.0
    orientation: 
      x: 0.0
      y: 0.0
      z: 0.65938466745
      w: 0.751805733107
  covariance: [9943413653234.75, -672624138934.5952, 0.0, 0.0, 0.0, -4.674478389132994e-23, -672624138934.5886, 45573725015.75347, 0.0, 0.0, 0.0, 6.625285600810227e-24, 0.0, 0.0, 4.999749596969454e-07, -2.0953447127529344e-28, -3.754139552263961e-25, 0.0, 0.0, 0.0, -2.0953447127529335e-28, 4.999749597060177e-07, -5.186040485291544e-34, 0.0, 0.0, 0.0, -3.754139552263959e-25, 5.186040425240346e-34, 4.999749597060177e-07, 0.0, -4.674478389132995e-23, 6.625285600810227e-24, 0.0, 0.0, 0.0, 9.99997997089995e-10]
twist: 
  twist: 
    linear: 
      x: 2.04936218832e-09
      y: 0.0
      z: 0.0
    angular: 
      x: 0.0
      y: 0.0
      z: 0.0400000000003
  covariance: [0.011030268797861858, 0.0, 0.0, 0.0, 0.0, 0.0, 0.0, 50741886.86127117, 0.0, 0.0, 0.0, 0.0, 0.0, 0.0, 4.999974956936214e-07, -2.3025025319639117e-35, -3.2619871055226725e-36, 0.0, 0.0, 0.0, -2.3025025319639115e-35, 4.999749596729194e-07, 6.618822676774178e-39, 0.0, 0.0, 0.0, -3.261987105522673e-36, -6.619933564566105e-39, 4.999749596729194e-07, 0.0, 0.0, 0.0, 0.0, 0.0, 0.0, 9.999998998494937e-10]
---
header: 
  seq: 11504
  stamp: 
    secs: 1518209049
    nsecs: 534704208
  frame_id: "swarmone/map"
child_frame_id: "swarmone/base_link"
pose: 
  pose: 
    position: 
      x: 0.829134546183
      y: 9.17817008896
      z: 0.0
    orientation: 
      x: 0.0
      y: 0.0
      z: 0.666869623048
      w: 0.745174413044
  covariance: [9947717105640.28, -673054145897.1794, 0.0, 0.0, 0.0, -1.9265674550968067e-23, -673054145897.1729, 45612387771.887405, 0.0, 0.0, 0.0, 2.5343367268024732e-24, 0.0, 0.0, 4.999749437542465e-07, -1.049397921019614e-28, -2.0242700167858068e-25, 0.0, 0.0, 0.0, -1.0493979210196138e-28, 4.999749437611391e-07, 2.596771021257248e-34, 0.0, 0.0, 0.0, -2.0242700167858057e-25, -2.596771036822788e-34, 4.999749437611391e-07, 0.0, -1.926567455096806e-23, 2.5343367268024732e-24, 0.0, 0.0, 0.0, 9.999979956600617e-10]
twist: 
  twist: 
    linear: 
      x: 1.1686817294e-09
      y: 0.0
      z: 0.0
    angular: 
      x: 0.0
      y: 0.0
      z: 0.0400000000005
  covariance: [0.011022635227392335, 0.0, 0.0, 0.0, 0.0, 0.0, 0.0, 50755091.871496044, 0.0, 0.0, 0.0, 0.0, 0.0, 0.0, 4.99997494113224e-07, -7.128577567712348e-36, -9.370857728977989e-37, 0.0, 0.0, 0.0, -7.128577567712342e-36, 4.999749437306201e-07, 3.984220451584039e-39, 0.0, 0.0, 0.0, -9.37085772897798e-37, -3.984221323325902e-39, 4.999749437306201e-07, 0.0, 0.0, 0.0, 0.0, 0.0, 0.0, 9.999998997793781e-10]
---
header: 
  seq: 11505
  stamp: 
    secs: 1518209049
    nsecs: 634315491
  frame_id: "swarmone/map"
child_frame_id: "swarmone/base_link"
pose: 
  pose: 
    position: 
      x: 0.829134546182
      y: 9.17817008895
      z: 0.0
    orientation: 
      x: 0.0
      y: 0.0
      z: 0.655617442456
      w: 0.755093218846
  covariance: [9952025223696.219, -673440926148.5471, 0.0, 0.0, 0.0, -1.4358732306460953e-23, -673440926148.5405, 45645126628.39099, 0.0, 0.0, 0.0, 1.597414178576196e-24, 0.0, 0.0, 4.999748954611596e-07, -3.1851207744224717e-29, -7.261423830022912e-26, 0.0, 0.0, 0.0, -3.1851207744224717e-29, 4.999748954736606e-07, -1.303572617257045e-34, 0.0, 0.0, 0.0, -7.261423830022907e-26, 1.3035726154142376e-34, 4.999748954736606e-07, 0.0, -1.4358732306460956e-23, 1.5974141785761958e-24, 0.0, 0.0, 0.0, 9.99997992367226e-10]
twist: 
  twist: 
    linear: 
      x: 2.99004514481e-10
      y: 0.0
      z: 0.0
    angular: 
      x: 0.0
      y: 0.0
      z: 0.0399999999972
  covariance: [0.010999224261569159, 0.0, 0.0, 0.0, 0.0, 0.0, 0.0, 50768276.858961076, 0.0, 0.0, 0.0, 0.0, 0.0, 0.0, 4.999974892479295e-07, -1.0717899178575265e-35, -1.192036716778779e-36, 0.0, 0.0, 0.0, -1.0717899178575274e-35, 4.99974895436702e-07, 1.0589192447488149e-38, 0.0, 0.0, 0.0, -1.1920367167787795e-36, -1.0589192447402611e-38, 4.99974895436702e-07, 0.0, 0.0, 0.0, 0.0, 0.0, 0.0, 9.999998996097823e-10]
---
header: 
  seq: 11506
  stamp: 
    secs: 1518209049
    nsecs: 734973431
  frame_id: "swarmone/map"
child_frame_id: "swarmone/base_link"
pose: 
  pose: 
    position: 
      x: 0.829134546281
      y: 9.17817008967
      z: 0.0
    orientation: 
      x: 0.0
      y: 0.0
      z: 0.65938466751
      w: 0.751805733054
  covariance: [9956363630687.57, -673896579331.0186, 0.0, 0.0, 0.0, -7.94344372601584e-23, -673896579331.0118, 45687137709.04072, 0.0, 0.0, 0.0, 1.125851247342617e-23, 0.0, 0.0, 4.999751623964472e-07, -4.713323444062996e-28, -8.376497347470129e-25, 0.0, 0.0, 0.0, -4.713323444062999e-28, 4.999751624031123e-07, -2.5516993936692706e-34, 0.0, 0.0, 0.0, -8.376497347470125e-25, 2.551699075291919e-34, 4.999751624031123e-07, 0.0, -7.943443726015842e-23, 1.125851247342617e-23, 0.0, 0.0, 0.0, 9.999980131445861e-10]
twist: 
  twist: 
    linear: 
      x: 5.12440441036e-09
      y: 0.0
      z: 0.0
    angular: 
      x: 0.0
      y: 0.0
      z: 0.0400000000002
  covariance: [0.011128913033995096, 0.0, 0.0, 0.0, 0.0, 0.0, 0.0, 50781602.705976635, 0.0, 0.0, 0.0, 0.0, 0.0, 0.0, 4.999975159825532e-07, -2.7380069382124575e-35, -3.876649587737321e-36, 0.0, 0.0, 0.0, -2.7380069382124564e-35, 4.999751623728395e-07, 8.448859942517832e-39, 0.0, 0.0, 0.0, -3.876649587737318e-36, -8.450745561366471e-39, 4.999751623728395e-07, 0.0, 0.0, 0.0, 0.0, 0.0, 0.0, 9.999999006536588e-10]
---
header: 
  seq: 11507
  stamp: 
    secs: 1518209049
    nsecs: 834857464
  frame_id: "swarmone/map"
child_frame_id: "swarmone/base_link"
pose: 
  pose: 
    position: 
      x: 0.829134546279
      y: 9.17817008965
      z: 0.0
    orientation: 
      x: 0.0
      y: 0.0
      z: 0.655617427277
      w: 0.755093232026
  covariance: [9960676068344.23, -674327574647.3301, 0.0, 0.0, 0.0, -2.6321599471935788e-23, -674327574647.3234, 45725905011.62208, 0.0, 0.0, 0.0, 3.462520721204331e-24, 0.0, 0.0, 4.999749698379246e-07, -1.4182773413353012e-28, -2.732995621749824e-25, 0.0, 0.0, 0.0, -1.4182773413353012e-28, 4.999749698448933e-07, 3.886897872880153e-34, 0.0, 0.0, 0.0, -2.7329956217498224e-25, -3.8868979024632725e-34, 4.999749698448933e-07, 0.0, -2.6321599471935785e-23, 3.462520721204331e-24, 0.0, 0.0, 0.0, 9.999979977517982e-10]
twist: 
  twist: 
    linear: 
      x: 1.58929475269e-09
      y: 0.0
      z: 0.0
    angular: 
      x: 0.0
      y: 0.0
      z: 0.0399999999995
  covariance: [0.011035226026286893, 0.0, 0.0, 0.0, 0.0, 0.0, 0.0, 50794828.40231788, 0.0, 0.0, 0.0, 0.0, 0.0, 0.0, 4.999974967215416e-07, -9.841355967008639e-36, -1.2936812615044878e-36, 0.0, 0.0, 0.0, -9.841355967008639e-36, 4.999749698142793e-07, 2.7622259173671525e-38, 0.0, 0.0, 0.0, -1.2936812615044868e-36, -2.7622372066988807e-38, 4.999749698142793e-07, 0.0, 0.0, 0.0, 0.0, 0.0, 0.0, 9.999998998839183e-10]
---
header: 
  seq: 11508
  stamp: 
    secs: 1518209049
    nsecs: 934810638
  frame_id: "swarmone/map"
child_frame_id: "swarmone/base_link"
pose: 
  pose: 
    position: 
      x: 0.82913454631
      y: 9.17817008987
      z: 0.0
    orientation: 
      x: 0.0
      y: 0.0
      z: 0.655617419717
      w: 0.755093238589
  covariance: [9964987093701.537, -674780417972.2399, 0.0, 0.0, 0.0, -9.638299770740653e-23, -674780417972.2334, 45767670045.19997, 0.0, 0.0, 0.0, 1.3660567376217183e-23, 0.0, 0.0, 4.999749796155861e-07, -2.378249324589502e-28, -4.25770525196393e-25, 0.0, 0.0, 0.0, -2.378249324589501e-28, 4.999749796287905e-07, -2.5889460838565085e-34, 0.0, 0.0, 0.0, -4.257705251963931e-25, 2.588946007082975e-34, 4.999749796287905e-07, 0.0, -9.638299770740653e-23, 1.3660567376217183e-23, 0.0, 0.0, 0.0, 9.999979992634443e-10]
twist: 
  twist: 
    linear: 
      x: 2.02819194408e-09
      y: 0.0
      z: 0.0
    angular: 
      x: 0.0
      y: 0.0
      z: 0.0399999999996
  covariance: [0.011039738247379773, 0.0, 0.0, 0.0, 0.0, 0.0, 0.0, 50808065.552250385, 0.0, 0.0, 0.0, 0.0, 0.0, 0.0, 4.9999749766037e-07, -6.402566655186286e-35, -9.07287836796915e-36, 0.0, 0.0, 0.0, -6.402566655186284e-35, 4.999749795910421e-07, 2.161820888119995e-38, 0.0, 0.0, 0.0, -9.072878367969147e-36, -2.1627866949390565e-38, 4.999749795910421e-07, 0.0, 0.0, 0.0, 0.0, 0.0, 0.0, 9.999998999531682e-10]
---
header: 
  seq: 11509
  stamp: 
    secs: 1518209050
    nsecs:  34839392
  frame_id: "swarmone/map"
child_frame_id: "swarmone/base_link"
pose: 
  pose: 
    position: 
      x: 0.829134546338
      y: 9.17817009007
      z: 0.0
    orientation: 
      x: 0.0
      y: 0.0
      z: 0.659384667463
      w: 0.751805733095
  covariance: [9969302874149.414, -675233800538.1565, 0.0, 0.0, 0.0, -3.1734506751936555e-23, -675233800538.15, 45809491988.9955, 0.0, 0.0, 0.0, 4.4978419865136394e-24, 0.0, 0.0, 4.999750062130718e-07, -1.9041062726655365e-28, -3.4051636273882195e-25, 0.0, 0.0, 0.0, -1.9041062726655372e-28, 4.999750062197288e-07, -2.583552810568187e-34, 0.0, 0.0, 0.0, -3.40516362738822e-25, 2.5835527614635798e-34, 4.999750062197288e-07, 0.0, -3.173450675193656e-23, 4.497841986513639e-24, 0.0, 0.0, 0.0, 9.99998000645846e-10]
twist: 
  twist: 
    linear: 
      x: 2.02441547783e-09
      y: 0.0
      z: 0.0
    angular: 
      x: 0.0
      y: 0.0
      z: 0.0400000000002
  covariance: [0.011052801053987312, 0.0, 0.0, 0.0, 0.0, 0.0, 0.0, 50821315.013482325, 0.0, 0.0, 0.0, 0.0, 0.0, 0.0, 4.999975003616072e-07, -1.1194365906620198e-35, -1.5853949851641658e-36, 0.0, 0.0, 0.0, -1.1194365906620194e-35, 4.999750061894847e-07, -1.8368764641945607e-38, 0.0, 0.0, 0.0, -1.585394985164165e-36, 1.8368247373379876e-38, 4.999750061894847e-07, 0.0, 0.0, 0.0, 0.0, 0.0, 0.0, 9.999999000287646e-10]
---
header: 
  seq: 11510
  stamp: 
    secs: 1518209050
    nsecs: 134443045
  frame_id: "swarmone/map"
child_frame_id: "swarmone/base_link"
pose: 
  pose: 
    position: 
      x: 0.829134546331
      y: 9.17817009002
      z: 0.0
    orientation: 
      x: 0.0
      y: 0.0
      z: 0.651833789282
      w: 0.758361860295
  covariance: [9973607679710.822, -675664138248.3368, 0.0, 0.0, 0.0, -5.629920501025306e-24, -675664138248.3302, 45848218352.188126, 0.0, 0.0, 0.0, 7.405979625148015e-25, 0.0, 0.0, 4.999748993216511e-07, -3.0012924726062284e-29, -5.799670882380022e-26, 0.0, 0.0, 0.0, -3.0012924726062284e-29, 4.999748993287472e-07, -1.3027449125645906e-34, 0.0, 0.0, 0.0, -5.799670882380019e-26, 1.3027449111774809e-34, 4.999748993287472e-07, 0.0, -5.629920501025307e-24, 7.405979625148015e-25, 0.0, 0.0, 0.0, 9.999979921163408e-10]
twist: 
  twist: 
    linear: 
      x: 2.72028385668e-10
      y: 0.0
      z: 0.0
    angular: 
      x: 0.0
      y: 0.0
      z: 0.0399999999992
  covariance: [0.011001260120722254, 0.0, 0.0, 0.0, 0.0, 0.0, 0.0, 50834510.45595808, 0.0, 0.0, 0.0, 0.0, 0.0, 0.0, 4.999974896678611e-07, -2.4744338139284463e-36, -3.2530845375603355e-37, 0.0, 0.0, 0.0, -2.474433813928446e-36, 4.999748992979879e-07, 9.521313062363432e-39, 0.0, 0.0, 0.0, -3.2530845375603367e-37, -9.5213130623935e-39, 4.999748992979879e-07, 0.0, 0.0, 0.0, 0.0, 0.0, 0.0, 9.999998996020956e-10]
---
header: 
  seq: 11511
  stamp: 
    secs: 1518209050
    nsecs: 235188007
  frame_id: "swarmone/map"
child_frame_id: "swarmone/base_link"
pose: 
  pose: 
    position: 
      x: 0.829134546373
      y: 9.17817009031
      z: 0.0
    orientation: 
      x: 0.0
      y: 0.0
      z: 0.666869608399
      w: 0.745174426154
  covariance: [9977950994642.906, -676142669906.16, 0.0, 0.0, 0.0, -3.271500241525091e-23, -676142669906.1532, 45893362501.73652, 0.0, 0.0, 0.0, 4.971015596722026e-24, 0.0, 0.0, 4.999751837992708e-07, -2.05833676950657e-28, -3.4141925650514544e-25, 0.0, 0.0, 0.0, -2.0583367695065702e-28, 4.999751838059954e-07, -3.820505557897332e-34, 0.0, 0.0, 0.0, -3.4141925650514535e-25, 3.820505504038586e-34, 4.999751838059954e-07, 0.0, -3.2715002415250904e-23, 4.971015596722025e-24, 0.0, 0.0, 0.0, 9.999980148618189e-10]
twist: 
  twist: 
    linear: 
      x: 2.03435617481e-09
      y: 0.0
      z: 0.0
    angular: 
      x: 0.0
      y: 0.0
      z: 0.0400000000012
  covariance: [0.011139444757584547, 0.0, 0.0, 0.0, 0.0, 0.0, 0.0, 50847859.421868, 0.0, 0.0, 0.0, 0.0, 0.0, 0.0, 4.999975181226846e-07, -1.164697042926427e-35, -1.7683942280845603e-36, 0.0, 0.0, 0.0, -1.1646970429264262e-35, 4.999751837756436e-07, 2.397292164781189e-39, 0.0, 0.0, 0.0, -1.768394228084559e-36, -2.397693452558832e-39, 4.999751837756436e-07, 0.0, 0.0, 0.0, 0.0, 0.0, 0.0, 9.999999007394732e-10]
---
header: 
  seq: 11512
  stamp: 
    secs: 1518209050
    nsecs: 335068941
  frame_id: "swarmone/map"
child_frame_id: "swarmone/base_link"
pose: 
  pose: 
    position: 
      x: 0.82913454633
      y: 9.17817008996
      z: 0.0
    orientation: 
      x: 0.0
      y: 0.0
      z: 0.659384690032
      w: 0.751805713301
  covariance: [9982281287038.018, -676531682225.656, 0.0, 0.0, 0.0, 2.817122391362452e-23, -676531682225.6492, 45926323355.86075, 0.0, 0.0, 0.0, -3.1340843546780034e-24, 0.0, 0.0, 4.999749691683662e-07, 1.3120567225224142e-28, 2.982401401302647e-25, 0.0, 0.0, 0.0, 1.3120567225224138e-28, 4.999749691751866e-07, -2.5915377663931733e-34, 0.0, 0.0, 0.0, 2.9824014013026467e-25, 2.5915377365157375e-34, 4.999749691751866e-07, 0.0, 2.8171223913624505e-23, -3.1340843546780034e-24, 0.0, 0.0, 0.0, 9.999979976877585e-10]
twist: 
  twist: 
    linear: 
      x: -1.90763378208e-09
      y: 0.0
      z: 0.0
    angular: 
      x: 0.0
      y: 0.0
      z: 0.0399999999992
  covariance: [0.011034930166025537, 0.0, 0.0, 0.0, 0.0, 0.0, 0.0, 50861096.20847787, 0.0, 0.0, 0.0, 0.0, 0.0, 0.0, 4.999974966557634e-07, 9.455871481117214e-36, 1.0511684566416917e-36, 0.0, 0.0, 0.0, 9.455871481117218e-36, 4.999749691447592e-07, 1.416213138219631e-38, 0.0, 0.0, 0.0, 1.0511684566416924e-36, -1.416233601958591e-38, 4.999749691447592e-07, 0.0, 0.0, 0.0, 0.0, 0.0, 0.0, 9.999998998808114e-10]
---
header: 
  seq: 11513
  stamp: 
    secs: 1518209050
    nsecs: 435008049
  frame_id: "swarmone/map"
child_frame_id: "swarmone/base_link"
pose: 
  pose: 
    position: 
      x: 0.82913454643
      y: 9.17817009072
      z: 0.0
    orientation: 
      x: 0.0
      y: 0.0
      z: 0.663135438168
      w: 0.748499425949
  covariance: [9986605094872.291, -676964015224.5961, 0.0, 0.0, 0.0, -7.284401757378595e-23, -676964015224.5892, 45965245849.63019, 0.0, 0.0, 0.0, 9.58238700343463e-24, 0.0, 0.0, 4.999749837393343e-07, -4.011602369179883e-28, -7.726009403672747e-25, 0.0, 0.0, 0.0, -4.0116023691798844e-28, 4.99974983746114e-07, -2.588446039204359e-34, 0.0, 0.0, 0.0, -7.726009403672749e-25, 2.5884457881762764e-34, 4.99974983746114e-07, 0.0, -7.284401757378594e-23, 9.582387003434629e-24, 0.0, 0.0, 0.0, 9.999979988533286e-10]
twist: 
  twist: 
    linear: 
      x: 4.6883400457e-09
      y: 0.0
      z: 0.0
    angular: 
      x: 0.0
      y: 0.0
      z: 0.0400000000002
  covariance: [0.011041951271336354, 0.0, 0.0, 0.0, 0.0, 0.0, 0.0, 50874343.00367553, 0.0, 0.0, 0.0, 0.0, 0.0, 0.0, 4.999974981131616e-07, -2.5496447250569803e-35, -3.351352967925811e-36, 0.0, 0.0, 0.0, -2.54964472505698e-35, 4.999749837157272e-07, 1.206760850660003e-38, 0.0, 0.0, 0.0, -3.3513529679258095e-36, -1.206902173028151e-38, 4.999749837157272e-07, 0.0, 0.0, 0.0, 0.0, 0.0, 0.0, 9.999998999390904e-10]
---
header: 
  seq: 11514
  stamp: 
    secs: 1518209050
    nsecs: 534897089
  frame_id: "swarmone/map"
child_frame_id: "swarmone/base_link"
pose: 
  pose: 
    position: 
      x: 0.829134546399
      y: 9.17817009048
      z: 0.0
    orientation: 
      x: 0.0
      y: 0.0
      z: 0.864924218398
      w: 0.501902477011
  covariance: [9990933706105.465, -677374868598.2673, 0.0, 0.0, 0.0, 1.2150656626073846e-24, -677374868598.2603, 46001209199.78878, 0.0, 0.0, 0.0, -1.4749132111184513e-25, 0.0, 0.0, 4.999749712532113e-07, 6.240690769074284e-30, 1.301509897706661e-26, 0.0, 0.0, 0.0, 6.240690769074284e-30, 4.999749712599225e-07, -1.2952867929300574e-34, 0.0, 0.0, 0.0, 1.301509897706662e-26, 1.2952867928651452e-34, 4.999749712599225e-07, 0.0, 1.2150656626073847e-24, -1.4749132111184518e-25, 0.0, 0.0, 0.0, 9.999979978493027e-10]
twist: 
  twist: 
    linear: 
      x: -1.54707817305e-10
      y: 0.0
      z: 0.0
    angular: 
      x: 0.0
      y: 0.0
      z: 0.04000000002
  covariance: [0.01103591240635969, 0.0, 0.0, 0.0, 0.0, 0.0, 0.0, 50887585.46060296, 0.0, 0.0, 0.0, 0.0, 0.0, 0.0, 4.999974968649004e-07, 6.367887633133757e-38, 7.689665442285268e-39, 0.0, 0.0, 0.0, 6.367887633133758e-38, 4.999749712296242e-07, -2.2462128178270742e-38, 0.0, 0.0, 0.0, 7.689665442285267e-39, 2.2462128178171881e-38, 4.999749712296242e-07, 0.0, 0.0, 0.0, 0.0, 0.0, 0.0, 9.999998998889364e-10]
---
header: 
  seq: 11515
  stamp: 
    secs: 1518209050
    nsecs: 634811163
  frame_id: "swarmone/map"
child_frame_id: "swarmone/base_link"
pose: 
  pose: 
    position: 
      x: 0.826657073149
      y: 9.18583735653
      z: 0.0
    orientation: 
      x: 0.0
      y: 0.0
      z: 0.597196094799
      w: 0.802095271372
  covariance: [9994721664677.418, -676421973802.2887, 0.0, 0.0, 0.0, -9.213409740294077e-16, -676421973802.2817, 45853164069.36731, 0.0, 0.0, 0.0, -5.265502478534373e-16, 0.0, 0.0, 4.999749769320089e-07, 1.986694205297834e-20, -1.0054989896571702e-17, 0.0, 0.0, 0.0, 1.986694205297834e-20, 4.999749769378702e-07, 7.983108856514876e-27, 0.0, 0.0, 0.0, -1.0054989896571702e-17, 7.983110928409256e-27, 4.999749769378702e-07, 0.0, -9.213409740294077e-16, -5.265502478534374e-16, 0.0, 0.0, 0.0, 9.99997998361444e-10]
twist: 
  twist: 
    linear: 
      x: 0.0597889752833
      y: 0.0
      z: 0.0
    angular: 
      x: 0.0
      y: 0.0
      z: 0.0300000009709
  covariance: [0.01103861158938859, 0.0, 0.0, 0.0, 0.0, 0.0, 0.0, 50900833.53497378, 0.0, 0.0, 0.0, 0.0, 0.0, 0.0, 4.999974974266626e-07, -4.8554574052333404e-29, 2.7596596307238773e-29, 0.0, 0.0, 0.0, -4.8554574052333404e-29, 4.999749769081716e-07, 5.898001132923769e-35, 0.0, 0.0, 0.0, 2.759659630723876e-29, 5.888539700424138e-35, 4.999749769081716e-07, 0.0, 0.0, 0.0, 0.0, 0.0, 0.0, 9.999998999140194e-10]
---
header: 
  seq: 11516
  stamp: 
    secs: 1518209050
    nsecs: 734665394
  frame_id: "swarmone/map"
child_frame_id: "swarmone/base_link"
pose: 
  pose: 
    position: 
      x: 0.833852375228
      y: 9.21585204841
      z: 0.0
    orientation: 
      x: 0.0
      y: 0.0
      z: 0.60119843291
      w: 0.799099771159
  covariance: [9998900289063.098, -677190058217.9199, 0.0, 0.0, 0.0, -3.582503998910637e-15, -677190058217.913, 45938637474.37426, 0.0, 0.0, 0.0, 1.0721627932584783e-15, 0.0, 0.0, 4.999749624752726e-07, -3.3664283066137645e-20, -3.9314057802068104e-17, 0.0, 0.0, 0.0, -3.366428306613762e-20, 4.999749624774455e-07, -5.28598573618138e-26, 0.0, 0.0, 0.0, -3.93140578020681e-17, -5.285985762103007e-26, 4.999749624774453e-07, 0.0, -3.582503998910637e-15, 1.072162793258478e-15, 0.0, 0.0, 0.0, 9.99997997152288e-10]
twist: 
  twist: 
    linear: 
      x: 0.241497712996
      y: 0.0
      z: 0.0
    angular: 
      x: 0.0
      y: 0.0
      z: 3.00460311492e-09
  covariance: [0.011031651295892548, 0.0, 0.0, 0.0, 0.0, 0.0, 0.0, 50914075.971545875, 0.0, 0.0, 0.0, 0.0, 0.0, 0.0, 4.99997495986225e-07, -1.976525784955103e-28, -5.892868599575977e-29, 0.0, 0.0, 0.0, -1.9765257849551024e-28, 4.999749624507608e-07, -5.196606393500119e-34, 0.0, 0.0, 0.0, -5.892868599575978e-29, -5.196846997688772e-34, 4.999749624507608e-07, 0.0, 0.0, 0.0, 0.0, 0.0, 0.0, 9.999998998540376e-10]
---
header: 
  seq: 11517
  stamp: 
    secs: 1518209050
    nsecs: 834337234
  frame_id: "swarmone/map"
child_frame_id: "swarmone/base_link"
pose: 
  pose: 
    position: 
      x: 0.838951954519
      y: 9.23171102568
      z: 0.0
    orientation: 
      x: 0.0
      y: 0.0
      z: 0.59719544941
      w: 0.802095751893
  covariance: [10003084969048.818, -677936635889.3561, 0.0, 0.0, 0.0, -2.9225612704753235e-15, -677936635889.3491, 46021189173.40657, 0.0, 0.0, 0.0, 8.429155892918678e-16, 0.0, 0.0, 4.999749167639367e-07, -2.719080165542941e-27, -3.266967405759573e-17, 0.0, 0.0, 0.0, -2.7190801655429542e-27, 4.999749167565384e-07, -3.4358084066203423e-33, 0.0, 0.0, 0.0, -3.266967405759572e-17, -3.6869266643061524e-33, 4.999749167565384e-07, 0.0, -2.922561270475323e-15, 8.429155892918678e-16, 0.0, 0.0, 0.0, 9.999979934852548e-10]
twist: 
  twist: 
    linear: 
      x: 0.20141712398
      y: 0.0
      z: 0.0
    angular: 
      x: 0.0
      y: 0.0
      z: 0.0299999969898
  covariance: [0.011009633125603605, 0.0, 0.0, 0.0, 0.0, 0.0, 0.0, 50927296.51024632, 0.0, 0.0, 0.0, 0.0, 0.0, 0.0, 4.999974914154053e-07, -1.6249330533669603e-28, -4.6865776073669547e-29, 0.0, 0.0, 0.0, -1.6249330533669617e-28, 4.999749167397394e-07, -3.4031573039573717e-34, 0.0, 0.0, 0.0, -4.686577607366956e-29, -3.4031105823489022e-34, 4.999749167397394e-07, 0.0, 0.0, 0.0, 0.0, 0.0, 0.0, 9.999998996707799e-10]
---
header: 
  seq: 11518
  stamp: 
    secs: 1518209050
    nsecs: 934813976
  frame_id: "swarmone/map"
child_frame_id: "swarmone/base_link"
pose: 
  pose: 
    position: 
      x: 0.84270026222
      y: 9.24228906523
      z: 0.0
    orientation: 
      x: 0.0
      y: 0.0
      z: 0.64421759819
      w: 0.764842262288
  covariance: [10007292494244.14, -678710248872.4039, 0.0, 0.0, 0.0, -2.1708035697017935e-15, -678710248872.3967, 46107381457.41382, 0.0, 0.0, 0.0, 6.496773703589891e-16, 0.0, 0.0, 4.999751176559651e-07, -2.062763871664233e-20, -2.3940485141203633e-17, 0.0, 0.0, 0.0, -2.0627638716642328e-20, 4.999751176585623e-07, -1.984701567422835e-26, 0.0, 0.0, 0.0, -2.394048514120363e-17, -1.9847017466643802e-26, 4.999751176585623e-07, 0.0, -2.170803569701793e-15, 6.496773703589891e-16, 0.0, 0.0, 0.0, 9.999980095604696e-10]
twist: 
  twist: 
    linear: 
      x: 0.146839400221
      y: 0.0
      z: 0.0
    angular: 
      x: 0.0
      y: 0.0
      z: 0.0699999960226
  covariance: [0.011106999420405978, 0.0, 0.0, 0.0, 0.0, 0.0, 0.0, 50940626.12775797, 0.0, 0.0, 0.0, 0.0, 0.0, 0.0, 4.999975115081538e-07, -1.1961327245235161e-28, -3.5660506196013305e-29, 0.0, 0.0, 0.0, -1.1961327245235155e-28, 4.999751176320366e-07, -1.9181883758332659e-34, 0.0, 0.0, 0.0, -3.5660506196013294e-29, -1.9188120405352667e-34, 4.999751176320366e-07, 0.0, 0.0, 0.0, 0.0, 0.0, 0.0, 9.99999900474499e-10]
---
header: 
  seq: 11519
  stamp: 
    secs: 1518209051
    nsecs:  34669399
  frame_id: "swarmone/map"
child_frame_id: "swarmone/base_link"
pose: 
  pose: 
    position: 
      x: 0.843920225445
      y: 9.24868496601
      z: 0.0
    orientation: 
      x: 0.0
      y: 0.0
      z: 0.64421769259
      w: 0.764842182776
  covariance: [10011595218066.912, -679228646036.2913, 0.0, 0.0, 0.0, -1.4995149323170553e-15, -679228646036.284, 46158206385.049515, 0.0, 0.0, 0.0, 2.586305843456339e-16, 0.0, 0.0, 4.999749627198499e-07, -1.874101518945212e-20, -1.5885908843309945e-17, 0.0, 0.0, 0.0, -1.8741015189452118e-20, 4.999749627366202e-07, -1.1891129666295947e-26, 0.0, 0.0, 0.0, -1.5885908843309945e-17, -1.1891130703315435e-26, 4.999749627366202e-07, 0.0, -1.4995149323170552e-15, 2.586305843456338e-16, 0.0, 0.0, 0.0, 9.99997997177152e-10]
twist: 
  twist: 
    linear: 
      x: 0.0946625372793
      y: 0.0
      z: 0.0
    angular: 
      x: 0.0
      y: 0.0
      z: 7.00990621105e-09
  covariance: [0.011031782133884314, 0.0, 0.0, 0.0, 0.0, 0.0, 0.0, 50953875.62299252, 0.0, 0.0, 0.0, 0.0, 0.0, 0.0, 4.999974960101632e-07, -8.27304457386492e-29, -1.4146560792857757e-29, 0.0, 0.0, 0.0, -8.273044573864924e-29, 4.999749626960776e-07, -5.213257466424312e-35, 0.0, 0.0, 0.0, -1.414656079285775e-29, -5.216874197660043e-35, 4.999749626960776e-07, 0.0, 0.0, 0.0, 0.0, 0.0, 0.0, 9.999998998552333e-10]
---
header: 
  seq: 11520
  stamp: 
    secs: 1518209051
    nsecs: 134928226
  frame_id: "swarmone/map"
child_frame_id: "swarmone/base_link"
pose: 
  pose: 
    position: 
      x: 0.844538194366
      y: 9.25180980514
      z: 0.0
    orientation: 
      x: 0.0
      y: 0.0
      z: 0.844161640558
      w: 0.536088728299
  covariance: [10015916816825.11, -679749371171.8523, 0.0, 0.0, 0.0, -8.4779939651796e-16, -679749371171.8452, 46209272449.753555, 0.0, 0.0, 0.0, 1.4622565185241785e-16, 0.0, 0.0, 4.999750634649886e-07, -1.0658771110872137e-27, -8.884308372360433e-18, 0.0, 0.0, 0.0, -1.065877111087184e-27, 4.999750634583019e-07, -2.9355323092775195e-34, 0.0, 0.0, 0.0, -8.884308372360433e-18, -4.7436561994813414e-34, 4.999750634583019e-07, 0.0, -8.477993965179602e-16, 1.4622565185241785e-16, 0.0, 0.0, 0.0, 9.99998005235995e-10]
twist: 
  twist: 
    linear: 
      x: 0.0523570919418
      y: 0.0
      z: 0.0
    angular: 
      x: 0.0
      y: 0.0
      z: 0.089999991043
  covariance: [0.011080592697349158, 0.0, 0.0, 0.0, 0.0, 0.0, 0.0, 50967180.95581595, 0.0, 0.0, 0.0, 0.0, 0.0, 0.0, 4.999975060867722e-07, -4.618823397451195e-29, -7.96639469475807e-30, 0.0, 0.0, 0.0, -4.618823397451199e-29, 4.999750634413152e-07, -1.647259351862008e-35, 0.0, 0.0, 0.0, -7.966394694758075e-30, -1.6453346398247745e-35, 4.999750634413152e-07, 0.0, 0.0, 0.0, 0.0, 0.0, 0.0, 9.999999002581784e-10]
---
header: 
  seq: 11521
  stamp: 
    secs: 1518209051
    nsecs: 234529257
  frame_id: "swarmone/map"
child_frame_id: "swarmone/base_link"
pose: 
  pose: 
    position: 
      x: 0.840741880973
      y: 9.26254511951
      z: 0.0
    orientation: 
      x: 0.0
      y: 0.0
      z: 0.651834227053
      w: 0.758361484018
  covariance: [10019861289717.549, -678957829270.9346, 0.0, 0.0, 0.0, -1.4720797789684079e-15, -678957829270.9274, 46082394685.26447, 0.0, 0.0, 0.0, -6.915943812502725e-16, 0.0, 0.0, 4.999748986608486e-07, 6.305807826610739e-20, -1.6680276780501465e-17, 0.0, 0.0, 0.0, 6.30580782661074e-20, 4.999748986822585e-07, 4.190324792859492e-26, 0.0, 0.0, 0.0, -1.668027678050146e-17, 4.1903246886197657e-26, 4.999748986822585e-07, 0.0, -1.4720797789684079e-15, -6.915943812502724e-16, 0.0, 0.0, 0.0, 9.999979920634692e-10]
twist: 
  twist: 
    linear: 
      x: 0.0982396839161
      y: 0.0
      z: 0.0
    angular: 
      x: 0.0
      y: 0.0
      z: -0.029999987972
