header: 
  seq: 6896
  stamp: 
    secs: 1518208588
    nsecs: 735094547
  frame_id: "swarmone/map"
child_frame_id: "swarmone/base_link"
pose: 
  pose: 
    position: 
      x: 0.233575485066
      y: 2.03603188312
      z: 0.0
    orientation: 
      x: 0.0
      y: 0.0
      z: 0.674287914582
      w: 0.738468556033
  covariance: [772125351357.5046, -55484579431.46004, 0.0, 0.0, 0.0, -1.6704422285956264e-22, -55484579431.459564, 4028212688.632554, 0.0, 0.0, 0.0, 1.520870474524221e-23, 0.0, 0.0, 4.999749815491949e-07, -6.163090374651994e-28, -1.7075279755310155e-24, 0.0, 0.0, 0.0, -6.163090374651993e-28, 4.999749815563067e-07, 1.2943852156991617e-34, 0.0, 0.0, 0.0, -1.707527975531014e-24, -1.294386053957085e-34, 4.999749815563067e-07, 0.0, -1.6704422285956262e-22, 1.520870474524221e-23, 0.0, 0.0, 0.0, 9.999979986938525e-10]
twist: 
  twist: 
    linear: 
      x: 9.86603257982e-09
      y: 0.0
      z: 0.0
    angular: 
      x: 0.0
      y: 0.0
      z: 0.0300000010006
  covariance: [0.011040863921807385, 0.0, 0.0, 0.0, 0.0, 0.0, 0.0, 10933591.47739134, 0.0, 0.0, 0.0, 0.0, 0.0, 0.0, 4.999974978923299e-07, -6.313564596084714e-35, -5.7442617098600405e-36, 0.0, 0.0, 0.0, -6.313564596084718e-35, 4.999749815255313e-07, 1.0132499432595384e-39, 0.0, 0.0, 0.0, -5.744261709860042e-36, -1.0205551196796714e-39, 4.999749815255313e-07, 0.0, 0.0, 0.0, 0.0, 0.0, 0.0, 9.999998999309735e-10]
---
header: 
  seq: 6897
  stamp: 
    secs: 1518208588
    nsecs: 835165501
  frame_id: "swarmone/map"
child_frame_id: "swarmone/base_link"
pose: 
  pose: 
    position: 
      x: 0.233575485174
      y: 2.0360318843
      z: 0.0
    orientation: 
      x: 0.0
      y: 0.0
      z: 0.677971805316
      w: 0.735087907122
  covariance: [772686143417.6016, -55530759125.964, 0.0, 0.0, 0.0, -5.38889833533117e-22, -55530759125.963524, 4031973034.3039684, 0.0, 0.0, 0.0, 4.9063329953022e-23, 0.0, 0.0, 4.999750090736515e-07, -6.406297488345711e-28, -2.3616650189025174e-24, 0.0, 0.0, 0.0, -6.406297488345712e-28, 4.999750090827297e-07, 6.455878714942103e-35, 0.0, 0.0, 0.0, -2.361665018902517e-24, -6.455890841420788e-35, 4.999750090827297e-07, 0.0, -5.388898335331169e-22, 4.906332995302199e-23, 0.0, 0.0, 0.0, 9.99998001618434e-10]
twist: 
  twist: 
    linear: 
      x: 1.11917567521e-08
      y: 0.0
      z: 0.0
    angular: 
      x: 0.0
      y: 0.0
      z: 0.0399999990014
  covariance: [0.011053982356338157, 0.0, 0.0, 0.0, 0.0, 0.0, 0.0, 10938351.688421447, 0.0, 0.0, 0.0, 0.0, 0.0, 0.0, 4.9999750060688e-07, -3.5981082280265e-34, -3.275417256546106e-35, 0.0, 0.0, 0.0, -3.5981082280265e-34, 4.999750090491073e-07, 2.1603277712166504e-38, 0.0, 0.0, 0.0, -3.275417256546107e-35, -2.175670157793134e-38, 4.999750090491073e-07, 0.0, 0.0, 0.0, 0.0, 0.0, 0.0, 9.999999000709186e-10]
---
header: 
  seq: 6898
  stamp: 
    secs: 1518208588
    nsecs: 935153961
  frame_id: "swarmone/map"
child_frame_id: "swarmone/base_link"
pose: 
  pose: 
    position: 
      x: 0.233575485259
      y: 2.03603188536
      z: 0.0
    orientation: 
      x: 0.0
      y: 0.0
      z: 0.674287921967
      w: 0.738468549289
  covariance: [773247281015.9213, -55574142517.0464, 0.0, 0.0, 0.0, -1.8909229290461753e-22, -55574142517.04594, 4035319635.7177, 0.0, 0.0, 0.0, 1.5311175828834787e-23, 0.0, 0.0, 4.999749957654835e-07, -6.013149405017765e-28, -1.8705960594409993e-24, 0.0, 0.0, 0.0, -6.013149405017767e-28, 4.9997499577286e-07, 6.464658448231758e-35, 0.0, 0.0, 0.0, -1.8705960594410008e-24, -6.464667459082936e-35, 4.9997499577286e-07, 0.0, -1.8909229290461756e-22, 1.5311175828834784e-23, 0.0, 0.0, 0.0, 9.999979998468047e-10]
twist: 
  twist: 
    linear: 
      x: 1.07559040794e-08
      y: 0.0
      z: 0.0
    angular: 
      x: 0.0
      y: 0.0
      z: 0.0300000009996
  covariance: [0.011047726300886273, 0.0, 0.0, 0.0, 0.0, 0.0, 0.0, 10943109.355148567, 0.0, 0.0, 0.0, 0.0, 0.0, 0.0, 4.999974993125608e-07, -7.401315836369187e-35, -5.9899225353680496e-36, 0.0, 0.0, 0.0, -7.401315836369185e-35, 4.999749957417674e-07, -2.7144112186856833e-38, 0.0, 0.0, 0.0, -5.989922535368051e-36, 2.7135560892221405e-38, 4.999749957417674e-07, 0.0, 0.0, 0.0, 0.0, 0.0, 0.0, 9.999998999884786e-10]
---
header: 
  seq: 6899
  stamp: 
    secs: 1518208589
    nsecs:  35154819
  frame_id: "swarmone/map"
child_frame_id: "swarmone/base_link"
pose: 
  pose: 
    position: 
      x: 0.233575485379
      y: 2.03603188668
      z: 0.0
    orientation: 
      x: 0.0
      y: 0.0
      z: 0.670587165281
      w: 0.741830744685
  covariance: [773808331228.347, -55620346708.65507, 0.0, 0.0, 0.0, -2.1239932892117665e-22, -55620346708.654594, 4039082293.180622, 0.0, 0.0, 0.0, 1.9338130880849842e-23, 0.0, 0.0, 4.999749989732583e-07, -5.815531013276569e-28, -2.1446898005946488e-24, 0.0, 0.0, 0.0, -5.815531013276571e-28, 4.999749989770172e-07, 2.585285037088437e-34, 0.0, 0.0, 0.0, -2.1446898005946495e-24, -2.5852860320664492e-34, 4.999749989770172e-07, 0.0, -2.123993289211767e-22, 1.933813088084984e-23, 0.0, 0.0, 0.0, 9.999980000928798e-10]
twist: 
  twist: 
    linear: 
      x: 1.25103219733e-08
      y: 0.0
      z: 0.0
    angular: 
      x: 0.0
      y: 0.0
      z: 0.0399999989996
  covariance: [0.011049283874575655, 0.0, 0.0, 0.0, 0.0, 0.0, 0.0, 10947868.991421297, 0.0, 0.0, 0.0, 0.0, 0.0, 0.0, 4.999974996345262e-07, -8.039423867583312e-35, -7.315778746185979e-36, 0.0, 0.0, 0.0, -8.039423867583315e-35, 4.999749989495769e-07, -6.230018561303107e-39, 0.0, 0.0, 0.0, -7.315778746185984e-36, 6.218418746596263e-39, 4.999749989495769e-07, 0.0, 0.0, 0.0, 0.0, 0.0, 0.0, 9.999999000008777e-10]
---
header: 
  seq: 6900
  stamp: 
    secs: 1518208589
    nsecs: 135135651
  frame_id: "swarmone/map"
child_frame_id: "swarmone/base_link"
pose: 
  pose: 
    position: 
      x: 0.233575485468
      y: 2.03603188754
      z: 0.0
    orientation: 
      x: 0.0
      y: 0.0
      z: 0.677971798692
      w: 0.735087913231
  covariance: [774369055410.1072, -55669356114.13736, 0.0, 0.0, 0.0, -1.6928415818483304e-22, -55669356114.13688, 4043260125.264347, 0.0, 0.0, 0.0, 1.7121119484024754e-23, 0.0, 0.0, 4.999749939650444e-07, -6.865104275169942e-28, -1.7130193642212092e-24, 0.0, 0.0, 0.0, -6.865104275169946e-28, 4.999749939722243e-07, -2.4958552285211142e-39, 0.0, 0.0, 0.0, -1.7130193642212103e-24, 2.4017978626860157e-39, 4.999749939722243e-07, 0.0, -1.6928415818483304e-22, 1.712111948402476e-23, 0.0, 0.0, 0.0, 9.999979996922663e-10]
twist: 
  twist: 
    linear: 
      x: 9.87227655192e-09
      y: 0.0
      z: 0.0
    angular: 
      x: 0.0
      y: 0.0
      z: 0.0300000010007
  covariance: [0.011046861013732697, 0.0, 0.0, 0.0, 0.0, 0.0, 0.0, 10952629.053986348, 0.0, 0.0, 0.0, 0.0, 0.0, 0.0, 4.999974991336004e-07, -6.471589223471614e-35, -6.540780942763308e-36, 0.0, 0.0, 0.0, -6.471589223471617e-35, 4.999749939413629e-07, -2.7298038550131573e-39, 0.0, 0.0, 0.0, -6.540780942763311e-36, 2.721386062015414e-39, 4.999749939413629e-07, 0.0, 0.0, 0.0, 0.0, 0.0, 0.0, 9.99999899980847e-10]
---
header: 
  seq: 6901
  stamp: 
    secs: 1518208589
    nsecs: 235181808
  frame_id: "swarmone/map"
child_frame_id: "swarmone/base_link"
pose: 
  pose: 
    position: 
      x: 0.233575485544
      y: 2.03603188848
      z: 0.0
    orientation: 
      x: 0.0
      y: 0.0
      z: 0.674287921225
      w: 0.738468549967
  covariance: [774931494806.1561, -55712846327.82802, 0.0, 0.0, 0.0, -1.6256268250312228e-22, -55712846327.827545, 4046615489.915169, 0.0, 0.0, 0.0, 1.3163052219291334e-23, 0.0, 0.0, 4.999750102939643e-07, -3.958510670576248e-28, -1.6393221369205882e-24, 0.0, 0.0, 0.0, -3.9585106705762458e-28, 4.999750102977271e-07, 4.8760451930708815e-39, 0.0, 0.0, 0.0, -1.6393221369205882e-24, -4.927772304582092e-39, 4.999750102977271e-07, 0.0, -1.625626825031223e-22, 1.3163052219291335e-23, 0.0, 0.0, 0.0, 9.999980009984372e-10]
twist: 
  twist: 
    linear: 
      x: 9.44746058886e-09
      y: 0.0
      z: 0.0
    angular: 
      x: 0.0
      y: 0.0
      z: 0.039999999
  covariance: [0.01105476585709782, 0.0, 0.0, 0.0, 0.0, 0.0, 0.0, 10957393.607657265, 0.0, 0.0, 0.0, 0.0, 0.0, 0.0, 4.999975007668328e-07, -6.213475124780791e-35, -5.028646408223328e-36, 0.0, 0.0, 0.0, -6.213475124780791e-35, 4.999750102702826e-07, 2.121057179407251e-39, 0.0, 0.0, 0.0, -5.028646408223327e-36, -2.1272187628979896e-39, 4.999750102702826e-07, 0.0, 0.0, 0.0, 0.0, 0.0, 0.0, 9.999999000461559e-10]
---
header: 
  seq: 6902
  stamp: 
    secs: 1518208589
    nsecs: 335082054
  frame_id: "swarmone/map"
child_frame_id: "swarmone/base_link"
pose: 
  pose: 
    position: 
      x: 0.233575485669
      y: 2.03603188987
      z: 0.0
    orientation: 
      x: 0.0
      y: 0.0
      z: 0.674287914582
      w: 0.738468556033
  covariance: [775492956639.9734, -55759090484.57423, 0.0, 0.0, 0.0, -2.0071134203014172e-22, -55759090484.573746, 4050382013.8958435, 0.0, 0.0, 0.0, 1.8273959429985496e-23, 0.0, 0.0, 4.999749740073316e-07, -7.650347760203203e-28, -2.120217959581403e-24, 0.0, 0.0, 0.0, -7.650347760203201e-28, 4.999749740141765e-07, 1.2950927726187427e-34, 0.0, 0.0, 0.0, -2.1202179595814028e-24, -1.295094065886527e-34, 4.999749740141765e-07, 0.0, -2.0071134203014175e-22, 1.82739594299855e-23, 0.0, 0.0, 0.0, 9.999979980748404e-10]
twist: 
  twist: 
    linear: 
      x: 1.25268134821e-08
      y: 0.0
      z: 0.0
    angular: 
      x: 0.0
      y: 0.0
      z: 0.0399999999999
  covariance: [0.011037228916057658, 0.0, 0.0, 0.0, 0.0, 0.0, 0.0, 10962152.591020426, 0.0, 0.0, 0.0, 0.0, 0.0, 0.0, 4.9999749713976e-07, -7.203873285453391e-35, -6.553873167946248e-36, 0.0, 0.0, 0.0, -7.203873285453394e-35, 4.999749739837246e-07, 1.1647871327057761e-38, 0.0, 0.0, 0.0, -6.553873167946244e-36, -1.1657371920311966e-38, 4.999749739837246e-07, 0.0, 0.0, 0.0, 0.0, 0.0, 0.0, 9.999998999001657e-10]
---
header: 
  seq: 6903
  stamp: 
    secs: 1518208589
    nsecs: 435070992
  frame_id: "swarmone/map"
child_frame_id: "swarmone/base_link"
pose: 
  pose: 
    position: 
      x: 0.233575485765
      y: 2.03603189092
      z: 0.0
    orientation: 
      x: 0.0
      y: 0.0
      z: 0.674287914582
      w: 0.738468556033
  covariance: [776055242793.5936, -55805404218.470436, 0.0, 0.0, 0.0, -5.311529020234425e-22, -55805404218.469955, 4054154386.4267254, 0.0, 0.0, 0.0, 4.8358676912113314e-23, 0.0, 0.0, 4.999749887421135e-07, -8.526967188771072e-28, -2.361848700025535e-24, 0.0, 0.0, 0.0, -8.526967188771072e-28, 4.99974988755335e-07, -2.5871611338465e-34, 0.0, 0.0, 0.0, -2.361848700025535e-24, 2.58715952527688e-34, 4.99974988755335e-07, 0.0, -5.311529020234425e-22, 4.835867691211332e-23, 0.0, 0.0, 0.0, 9.999979999762567e-10]
twist: 
  twist: 
    linear: 
      x: 1.12011319801e-08
      y: 0.0
      z: 0.0
    angular: 
      x: 0.0
      y: 0.0
      z: 0.0399999999996
  covariance: [0.011044140525627957, 0.0, 0.0, 0.0, 0.0, 0.0, 0.0, 10966917.17899949, 0.0, 0.0, 0.0, 0.0, 0.0, 0.0, 4.999974985736877e-07, -3.5456565739337883e-34, -3.2274849781071537e-35, 0.0, 0.0, 0.0, -3.5456565739337857e-34, 4.999749887175769e-07, -2.0910791080519688e-38, 0.0, 0.0, 0.0, -3.2274849781071526e-35, 2.076141535884e-38, 4.999749887175769e-07, 0.0, 0.0, 0.0, 0.0, 0.0, 0.0, 9.999998999889518e-10]
---
header: 
  seq: 6904
  stamp: 
    secs: 1518208589
    nsecs: 535039902
  frame_id: "swarmone/map"
child_frame_id: "swarmone/base_link"
pose: 
  pose: 
    position: 
      x: 0.233575485867
      y: 2.03603189203
      z: 0.0
    orientation: 
      x: 0.0
      y: 0.0
      z: 0.681638748312
      w: 0.731688879784
  covariance: [776617742237.6534, -55851737912.05254, 0.0, 0.0, 0.0, -1.8035570001506253e-22, -55851737912.05206, 4057928613.032563, 0.0, 0.0, 0.0, 1.6420666412674122e-23, 0.0, 0.0, 4.999749911974001e-07, -6.874458433778569e-28, -1.9038838903916122e-24, 0.0, 0.0, 0.0, -6.874458433778568e-28, 4.999749912042356e-07, -1.2932939542564174e-34, 0.0, 0.0, 0.0, -1.903883890391613e-24, 1.2932929059574165e-34, 4.999749912042356e-07, 0.0, -1.803557000150625e-22, 1.6420666412674125e-23, 0.0, 0.0, 0.0, 9.999979994499191e-10]
twist: 
  twist: 
    linear: 
      x: 1.11996148573e-08
      y: 0.0
      z: 0.0
    angular: 
      x: 0.0
      y: 0.0
      z: 0.0400000000005
  covariance: [0.01104552365229161, 0.0, 0.0, 0.0, 0.0, 0.0, 0.0, 10971682.192635963, 0.0, 0.0, 0.0, 0.0, 0.0, 0.0, 4.999974988591222e-07, -6.498059418386639e-35, -5.911832472138224e-36, 0.0, 0.0, 0.0, -6.498059418386639e-35, 4.999749911737929e-07, -7.313824054451127e-39, 0.0, 0.0, 0.0, -5.911832472138221e-36, 7.305752353708026e-39, 4.999749911737929e-07, 0.0, 0.0, 0.0, 0.0, 0.0, 0.0, 9.999998999689202e-10]
---
header: 
  seq: 6905
  stamp: 
    secs: 1518208589
    nsecs: 634830713
  frame_id: "swarmone/map"
child_frame_id: "swarmone/base_link"
pose: 
  pose: 
    position: 
      x: 0.233575485922
      y: 2.03603189284
      z: 0.0
    orientation: 
      x: 0.0
      y: 0.0
      z: 0.674287929382
      w: 0.738468542519
  covariance: [777180475561.5311, -55892427395.0037, 0.0, 0.0, 0.0, -1.5124215542696158e-22, -55892427395.00322, 4060869650.6895175, 0.0, 0.0, 0.0, 1.072522602369454e-23, 0.0, 0.0, 4.999749464543703e-07, -4.393067432889798e-28, -1.562321534772318e-24, 0.0, 0.0, 0.0, -4.393067432889798e-28, 4.999749464614342e-07, -1.297946007841455e-34, 0.0, 0.0, 0.0, -1.5623215347723176e-24, 1.2979454634176637e-34, 4.999749464614342e-07, 0.0, -1.5124215542696155e-22, 1.072522602369454e-23, 0.0, 0.0, 0.0, 9.999979958813021e-10]
twist: 
  twist: 
    linear: 
      x: 9.0133944596e-09
      y: 0.0
      z: 0.0
    angular: 
      x: 0.0
      y: 0.0
      z: 0.0399999999992
  covariance: [0.011023916384847832, 0.0, 0.0, 0.0, 0.0, 0.0, 0.0, 10976440.093557367, 0.0, 0.0, 0.0, 0.0, 0.0, 0.0, 4.999974943827e-07, -5.664574325872751e-35, -4.01420786681305e-36, 0.0, 0.0, 0.0, -5.664574325872749e-35, 4.999749464307251e-07, -1.3265792306511103e-38, 0.0, 0.0, 0.0, -4.014207866813047e-36, 1.3261154362048985e-38, 4.999749464307251e-07, 0.0, 0.0, 0.0, 0.0, 0.0, 0.0, 9.999998997903927e-10]
---
header: 
  seq: 6906
  stamp: 
    secs: 1518208589
    nsecs: 734686613
  frame_id: "swarmone/map"
child_frame_id: "swarmone/base_link"
pose: 
  pose: 
    position: 
      x: 0.233575486094
      y: 2.03603189474
      z: 0.0
    orientation: 
      x: 0.0
      y: 0.0
      z: 0.677971806035
      w: 0.735087906459
  covariance: [777742990355.5875, -55938763859.148674, 0.0, 0.0, 0.0, -7.5374578764635255e-22, -55938763859.148186, 4064644267.413756, 0.0, 0.0, 0.0, 6.862454410048039e-23, 0.0, 0.0, 4.999749553500416e-07, -1.2048886048257799e-27, -3.341810774525751e-24, 0.0, 0.0, 0.0, -1.2048886048257799e-27, 4.999749553633105e-07, 1.2970357999435615e-34, 0.0, 0.0, 0.0, -3.341810774525755e-24, -1.2970390103006656e-34, 4.999749553633105e-07, 0.0, -7.537457876463525e-22, 6.862454410048037e-23, 0.0, 0.0, 0.0, 9.999979973123424e-10]
twist: 
  twist: 
    linear: 
      x: 1.60336008375e-08
      y: 0.0
      z: 0.0
    angular: 
      x: 0.0
      y: 0.0
      z: 0.0400000000006
  covariance: [0.01102799206065763, 0.0, 0.0, 0.0, 0.0, 0.0, 0.0, 10981202.4744744, 0.0, 0.0, 0.0, 0.0, 0.0, 0.0, 4.99997495233533e-07, -4.975968316317659e-34, -4.5298529371884437e-35, 0.0, 0.0, 0.0, -4.975968316317661e-34, 4.999749553255027e-07, -3.0441882517099895e-39, 0.0, 0.0, 0.0, -4.529852937188443e-35, 2.751060419772268e-39, 4.999749553255027e-07, 0.0, 0.0, 0.0, 0.0, 0.0, 0.0, 9.999998998557075e-10]
---
header: 
  seq: 6907
  stamp: 
    secs: 1518208589
    nsecs: 834284067
  frame_id: "swarmone/map"
child_frame_id: "swarmone/base_link"
pose: 
  pose: 
    position: 
      x: 0.233575486163
      y: 2.03603189561
      z: 0.0
    orientation: 
      x: 0.0
      y: 0.0
      z: 0.677971813396
      w: 0.73508789967
  covariance: [778304856691.5591, -55982218616.193535, 0.0, 0.0, 0.0, -1.9097486301065397e-22, -55982218616.19306, 4067997648.101442, 0.0, 0.0, 0.0, 1.546361881278906e-23, 0.0, 0.0, 4.999748977051872e-07, -6.200459318018326e-28, -1.9363992548669303e-24, 0.0, 0.0, 0.0, -6.20045931801833e-28, 4.999748977124449e-07, -1.3031494439864244e-34, 0.0, 0.0, 0.0, -1.9363992548669303e-24, 1.3031484887692145e-34, 4.999748977124449e-07, 0.0, -1.909748630106539e-22, 1.546361881278906e-23, 0.0, 0.0, 0.0, 9.9999799199232e-10]
twist: 
  twist: 
    linear: 
      x: 1.11775041235e-08
      y: 0.0
      z: 0.0
    angular: 
      x: 0.0
      y: 0.0
      z: 0.0399999999999
  covariance: [0.01100044041274007, 0.0, 0.0, 0.0, 0.0, 0.0, 0.0, 10985953.901432691, 0.0, 0.0, 0.0, 0.0, 0.0, 0.0, 4.999974895056035e-07, -7.317915819799922e-35, -5.922364135758709e-36, 0.0, 0.0, 0.0, -7.317915819799925e-35, 4.99974897681506e-07, 2.2539975886382838e-39, 0.0, 0.0, 0.0, -5.922364135758712e-36, -2.262499471761927e-39, 4.99974897681506e-07, 0.0, 0.0, 0.0, 0.0, 0.0, 0.0, 9.999998995958468e-10]
---
header: 
  seq: 6908
  stamp: 
    secs: 1518208589
    nsecs: 935170174
  frame_id: "swarmone/map"
child_frame_id: "swarmone/base_link"
pose: 
  pose: 
    position: 
      x: 0.233575486254
      y: 2.03603189674
      z: 0.0
    orientation: 
      x: 0.0
      y: 0.0
      z: 0.674287921901
      w: 0.738468549349
  covariance: [778874323676.8456, -56026262156.2036, 0.0, 0.0, 0.0, -1.8833430058643745e-22, -56026262156.203125, 4071396545.3164186, 0.0, 0.0, 0.0, 1.524979013841305e-23, 0.0, 0.0, 4.999752184144509e-07, -6.179770023604199e-28, -1.9053753829175004e-24, 0.0, 0.0, 0.0, -6.179770023604198e-28, 4.999752184214444e-07, -3.810097736342331e-34, 0.0, 0.0, 0.0, -1.9053753829174997e-24, 3.8100967867579305e-34, 4.999752184214444e-07, 0.0, -1.8833430058643745e-22, 1.5249790138413052e-23, 0.0, 0.0, 0.0, 9.999980176410936e-10]
twist: 
  twist: 
    linear: 
      x: 1.11795272129e-08
      y: 0.0
      z: 0.0
    angular: 
      x: 0.0
      y: 0.0
      z: 0.0399999999995
  covariance: [0.011156457139797637, 0.0, 0.0, 0.0, 0.0, 0.0, 0.0, 10990768.202347588, 0.0, 0.0, 0.0, 0.0, 0.0, 0.0, 4.999975215837631e-07, -6.930017883879998e-35, -5.607379463765474e-36, 0.0, 0.0, 0.0, -6.930017883879997e-35, 4.999752183907865e-07, 6.43879549982401e-39, 0.0, 0.0, 0.0, -5.607379463765477e-36, -6.446579537171755e-39, 4.999752183907865e-07, 0.0, 0.0, 0.0, 0.0, 0.0, 0.0, 9.999999008783428e-10]
---
header: 
  seq: 6909
  stamp: 
    secs: 1518208590
    nsecs:  35173416
  frame_id: "swarmone/map"
child_frame_id: "swarmone/base_link"
pose: 
  pose: 
    position: 
      x: 0.233575486361
      y: 2.03603189791
      z: 0.0
    orientation: 
      x: 0.0
      y: 0.0
      z: 0.674287914582
      w: 0.738468556033
  covariance: [779438650328.3943, -56072752153.90948, 0.0, 0.0, 0.0, -1.9246922669909031e-22, -56072752153.909004, 4075184087.62966, 0.0, 0.0, 0.0, 1.752354331224639e-23, 0.0, 0.0, 4.999749996766455e-07, -7.177659147851414e-28, -1.9871858745414726e-24, 0.0, 0.0, 0.0, -7.177659147851415e-28, 4.999749996836582e-07, 1.292706114211803e-34, 0.0, 0.0, 0.0, -1.9871858745414726e-24, -1.2927072527124227e-34, 4.999749996836582e-07, 0.0, -1.9246922669909034e-22, 1.7523543312246386e-23, 0.0, 0.0, 0.0, 9.999980001386558e-10]
twist: 
  twist: 
    linear: 
      x: 1.1618948865e-08
      y: 0.0
      z: 0.0
    angular: 
      x: 0.0
      y: 0.0
      z: 0.0399999999999
  covariance: [0.011049658203878734, 0.0, 0.0, 0.0, 0.0, 0.0, 0.0, 10995541.76073593, 0.0, 0.0, 0.0, 0.0, 0.0, 0.0, 4.999974997060333e-07, -7.168614504249851e-35, -6.522072784145146e-36, 0.0, 0.0, 0.0, -7.168614504249851e-35, 4.999749996530001e-07, -1.1514193377301794e-38, 0.0, 0.0, 0.0, -6.522072784145147e-36, 1.1504853811630449e-38, 4.999749996530001e-07, 0.0, 0.0, 0.0, 0.0, 0.0, 0.0, 9.99999900003262e-10]
---
header: 
  seq: 6910
  stamp: 
    secs: 1518208590
    nsecs: 135087729
  frame_id: "swarmone/map"
child_frame_id: "swarmone/base_link"
pose: 
  pose: 
    position: 
      x: 0.233575486444
      y: 2.03603189882
      z: 0.0
    orientation: 
      x: 0.0
      y: 0.0
      z: 0.674287914582
      w: 0.738468556033
  covariance: [780002801723.0416, -56119229754.650955, 0.0, 0.0, 0.0, -1.646854177354463e-22, -56119229754.65048, 4078970825.1292586, 0.0, 0.0, 0.0, 1.4993946609034383e-23, 0.0, 0.0, 4.999749774237058e-07, -6.141542676497559e-28, -1.7018369511598142e-24, 0.0, 0.0, 0.0, -6.141542676497558e-28, 4.999749774307307e-07, 1.294699005678035e-34, 0.0, 0.0, 0.0, -1.701836951159814e-24, -1.2946998380621283e-34, 4.999749774307307e-07, 0.0, -1.646854177354463e-22, 1.4993946609034383e-23, 0.0, 0.0, 0.0, 9.999979983585997e-10]
twist: 
  twist: 
    linear: 
      x: 9.86619266476e-09
      y: 0.0
      z: 0.0
    angular: 
      x: 0.0
      y: 0.0
      z: 0.0399999999999
  covariance: [0.01103889254662797, 0.0, 0.0, 0.0, 0.0, 0.0, 0.0, 11000312.45427192, 0.0, 0.0, 0.0, 0.0, 0.0, 0.0, 4.999974974802774e-07, -6.137376951764888e-35, -5.583880576721665e-36, 0.0, 0.0, 0.0, -6.137376951764892e-35, 4.999749774000605e-07, 5.068966173240835e-39, 0.0, 0.0, 0.0, -5.5838805767216634e-36, -5.076032366714409e-39, 4.999749774000605e-07, 0.0, 0.0, 0.0, 0.0, 0.0, 0.0, 9.999998999142584e-10]
---
header: 
  seq: 6911
  stamp: 
    secs: 1518208590
    nsecs: 234680176
  frame_id: "swarmone/map"
child_frame_id: "swarmone/base_link"
pose: 
  pose: 
    position: 
      x: 0.233575486556
      y: 2.03603190006
      z: 0.0
    orientation: 
      x: 0.0
      y: 0.0
      z: 0.677971806015
      w: 0.735087906477
  covariance: [780565460820.3055, -56165586093.71877, 0.0, 0.0, 0.0, -5.424618084968397e-22, -56165586093.71829, 4082747863.9487376, 0.0, 0.0, 0.0, 4.93883089893303e-23, 0.0, 0.0, 4.999748893107056e-07, -8.821633108499907e-28, -2.453142440592481e-24, 0.0, 0.0, 0.0, -8.821633108499907e-28, 4.99974889323918e-07, 2.6079632098261224e-34, 0.0, 0.0, 0.0, -2.4531424405924814e-24, -2.6079649403891785e-34, 4.99974889323918e-07, 0.0, -5.424618084968398e-22, 4.9388308989330304e-23, 0.0, 0.0, 0.0, 9.999979920103339e-10]
twist: 
  twist: 
    linear: 
      x: 1.16283909712e-08
      y: 0.0
      z: 0.0
    angular: 
      x: 0.0
      y: 0.0
      z: 0.0300000010047
  covariance: [0.010996280433302344, 0.0, 0.0, 0.0, 0.0, 0.0, 0.0, 11005069.152509859, 0.0, 0.0, 0.0, 0.0, 0.0, 0.0, 4.999974886286312e-07, -3.6404311419570497e-34, -3.3137513404885813e-35, 0.0, 0.0, 0.0, -3.6404311419570493e-34, 4.999748892861769e-07, 1.2659992494677357e-39, 0.0, 0.0, 0.0, -3.3137513404885797e-35, -1.4244959192484458e-39, 4.999748892861769e-07, 0.0, 0.0, 0.0, 0.0, 0.0, 0.0, 9.999998995907954e-10]
---
header: 
  seq: 6912
  stamp: 
    secs: 1518208590
    nsecs: 334543943
  frame_id: "swarmone/map"
child_frame_id: "swarmone/base_link"
pose: 
  pose: 
    position: 
      x: 0.233575486614
      y: 2.03603190078
      z: 0.0
    orientation: 
      x: 0.0
      y: 0.0
      z: 0.67058717272
      w: 0.741830737961
  covariance: [781130464482.067, -56209291533.02931, 0.0, 0.0, 0.0, -1.4822197925123703e-22, -56209291533.028824, 4086121270.6632066, 0.0, 0.0, 0.0, 1.2001856188574064e-23, 0.0, 0.0, 4.999749646506523e-07, -3.6092955091178014e-28, -1.497425661792301e-24, 0.0, 0.0, 0.0, -3.609295509117801e-28, 4.999749646544341e-07, -1.2960547073218317e-34, 0.0, 0.0, 0.0, -1.497425661792301e-24, 1.29605427417427e-34, 4.999749646544341e-07, 0.0, -1.4822197925123699e-22, 1.200185618857406e-23, 0.0, 0.0, 0.0, 9.999979973473708e-10]
twist: 
  twist: 
    linear: 
      x: 8.56486501575e-09
      y: 0.0
      z: 0.0
    angular: 
      x: 0.0
      y: 0.0
      z: 0.0399999989979
  covariance: [0.011032662188843752, 0.0, 0.0, 0.0, 0.0, 0.0, 0.0, 11009840.186109548, 0.0, 0.0, 0.0, 0.0, 0.0, 0.0, 4.999974962015495e-07, -5.698795962066396e-35, -4.612793213665507e-36, 0.0, 0.0, 0.0, -5.698795962066394e-35, 4.999749646269708e-07, 9.614982918055754e-40, 0.0, 0.0, 0.0, -4.6127932136655074e-36, -9.66583084848474e-40, 4.999749646269708e-07, 0.0, 0.0, 0.0, 0.0, 0.0, 0.0, 9.999998998636013e-10]
---
header: 
  seq: 6913
  stamp: 
    secs: 1518208590
    nsecs: 435267687
  frame_id: "swarmone/map"
child_frame_id: "swarmone/base_link"
pose: 
  pose: 
    position: 
      x: 0.233575486775
      y: 2.03603190241
      z: 0.0
    orientation: 
      x: 0.0
      y: 0.0
      z: 0.674287907251
      w: 0.738468562727
  covariance: [781699627333.8624, -56259059712.86622, 0.0, 0.0, 0.0, -2.2398004701142434e-22, -56259059712.86573, 4090366266.114131, 0.0, 0.0, 0.0, 2.2652972796988657e-23, 0.0, 0.0, 4.999751785710612e-07, -9.379902671474147e-28, -2.3233117574751922e-24, 0.0, 0.0, 0.0, -9.37990267147414e-28, 4.999751785778733e-07, -1.2039660600726045e-38, 0.0, 0.0, 0.0, -2.3233117574751907e-24, 1.186429948168054e-38, 4.999751785778733e-07, 0.0, -2.2398004701142443e-22, 2.2652972796988657e-23, 0.0, 0.0, 0.0, 9.99998014443602e-10]
twist: 
  twist: 
    linear: 
      x: 1.38402412222e-08
      y: 0.0
      z: 0.0
    angular: 
      x: 0.0
      y: 0.0
      z: 0.0400000000002
  covariance: [0.01113687024450852, 0.0, 0.0, 0.0, 0.0, 0.0, 0.0, 11014653.702006916, 0.0, 0.0, 0.0, 0.0, 0.0, 0.0, 4.999975175997563e-07, -7.993934540314701e-35, -8.078771561200927e-36, 0.0, 0.0, 0.0, -7.9939345403147e-35, 4.99975178547434e-07, 1.2214472238141995e-38, 0.0, 0.0, 0.0, -8.078771561200927e-36, -1.2227835652312785e-38, 4.99975178547434e-07, 0.0, 0.0, 0.0, 0.0, 0.0, 0.0, 9.999999007185623e-10]
---
header: 
  seq: 6914
  stamp: 
    secs: 1518208590
    nsecs: 534741163
  frame_id: "swarmone/map"
child_frame_id: "swarmone/base_link"
pose: 
  pose: 
    position: 
      x: 0.233575486825
      y: 2.03603190296
      z: 0.0
    orientation: 
      x: 0.0
      y: 0.0
      z: 0.677971806006
      w: 0.735087906485
  covariance: [782262591700.9478, -56305447648.95414, 0.0, 0.0, 0.0, -1.3699293169332306e-22, -56305447648.95365, 4094146515.9174905, 0.0, 0.0, 0.0, 1.247266413751281e-23, 0.0, 0.0, 4.999748665260513e-07, -5.1088396314982e-28, -1.42192201463015e-24, 0.0, 0.0, 0.0, -5.108839631498202e-28, 4.999748665331367e-07, -1.3063603562529817e-34, 0.0, 0.0, 0.0, -1.42192201463015e-24, 1.3063597758767379e-34, 4.999748665331367e-07, 0.0, -1.3699293169332306e-22, 1.2472664137512813e-23, 0.0, 0.0, 0.0, 9.999979894876824e-10]
twist: 
  twist: 
    linear: 
      x: 8.12537648484e-09
      y: 0.0
      z: 0.0
    angular: 
      x: 0.0
      y: 0.0
      z: 0.0300000010055
  covariance: [0.010985584160344312, 0.0, 0.0, 0.0, 0.0, 0.0, 0.0, 11019408.845304167, 0.0, 0.0, 0.0, 0.0, 0.0, 0.0, 4.99997486388203e-07, -5.222455896325978e-35, -4.751569583979465e-36, 0.0, 0.0, 0.0, -5.222455896325976e-35, 4.999748665024063e-07, -1.1532258992909452e-38, 0.0, 0.0, 0.0, -4.751569583979467e-36, 1.1527460354767793e-38, 4.999748665024063e-07, 0.0, 0.0, 0.0, 0.0, 0.0, 0.0, 9.999998994707093e-10]
---
header: 
  seq: 6915
  stamp: 
    secs: 1518208590
    nsecs: 635262489
  frame_id: "swarmone/map"
child_frame_id: "swarmone/base_link"
pose: 
  pose: 
    position: 
      x: 0.23357548692
      y: 2.03603190411
      z: 0.0
    orientation: 
      x: 0.0
      y: 0.0
      z: 0.67428792119
      w: 0.738468549999
  covariance: [782832305596.03, -56349523616.10542, 0.0, 0.0, 0.0, -1.7454229830697518e-22, -56349523616.104935, 4097549044.8823366, 0.0, 0.0, 0.0, 1.4133060815931874e-23, 0.0, 0.0, 4.999751284804828e-07, -4.295413974031587e-28, -1.7704536498548055e-24, 0.0, 0.0, 0.0, -4.295413974031589e-28, 4.999751284841207e-07, 6.395893868974895e-35, 0.0, 0.0, 0.0, -1.7704536498548055e-24, -6.395899993500964e-35, 4.999751284841207e-07, 0.0, -1.7454229830697523e-22, 1.413306081593188e-23, 0.0, 0.0, 0.0, 9.999980104471253e-10]
twist: 
  twist: 
    linear: 
      x: 1.03401295145e-08
      y: 0.0
      z: 0.0
    angular: 
      x: 0.0
      y: 0.0
      z: 0.0399999990048
  covariance: [0.011112310909044505, 0.0, 0.0, 0.0, 0.0, 0.0, 0.0, 11024215.469160771, 0.0, 0.0, 0.0, 0.0, 0.0, 0.0, 4.999975125885084e-07, -6.468582415939464e-35, -5.2349929961937565e-36, 0.0, 0.0, 0.0, -6.468582415939464e-35, 4.999751284568187e-07, 9.373730415033596e-39, 0.0, 0.0, 0.0, -5.2349929961937565e-36, -9.380341292775951e-39, 4.999751284568187e-07, 0.0, 0.0, 0.0, 0.0, 0.0, 0.0, 9.999999005186417e-10]
---
header: 
  seq: 6916
  stamp: 
    secs: 1518208590
    nsecs: 735155821
  frame_id: "swarmone/map"
child_frame_id: "swarmone/base_link"
pose: 
  pose: 
    position: 
      x: 0.233575487042
      y: 2.03603190545
      z: 0.0
    orientation: 
      x: 0.0
      y: 0.0
      z: 0.677971806038
      w: 0.735087906456
  covariance: [783398301833.2115, -56396164335.03823, 0.0, 0.0, 0.0, -2.09652006313444e-22, -56396164335.03774, 4101350192.58031, 0.0, 0.0, 0.0, 1.908796478532884e-23, 0.0, 0.0, 4.999749721141804e-07, -7.735122202780103e-28, -2.1438761278787868e-24, 0.0, 0.0, 0.0, -7.735122202780105e-28, 4.999749721212974e-07, -1.2952945717702206e-34, 0.0, 0.0, 0.0, -2.143876127878786e-24, 1.2952932431316913e-34, 4.999749721212974e-07, 0.0, -2.0965200631344404e-22, 1.9087964785328844e-23, 0.0, 0.0, 0.0, 9.999979979391306e-10]
twist: 
  twist: 
    linear: 
      x: 1.25348558959e-08
      y: 0.0
      z: 0.0
    angular: 
      x: 0.0
      y: 0.0
      z: 0.0400000000002
  covariance: [0.011036336903957857, 0.0, 0.0, 0.0, 0.0, 0.0, 0.0, 11028993.448713535, 0.0, 0.0, 0.0, 0.0, 0.0, 0.0, 4.999974969486321e-07, -7.876428944968318e-35, -7.16614153295822e-36, 0.0, 0.0, 0.0, -7.876428944968322e-35, 4.999749720905167e-07, -2.663842788182853e-40, 0.0, 0.0, 0.0, -7.166141532958218e-36, 2.5516049457304395e-40, 4.999749720905167e-07, 0.0, 0.0, 0.0, 0.0, 0.0, 0.0, 9.999998998932373e-10]
---
header: 
  seq: 6917
  stamp: 
    secs: 1518208590
    nsecs: 835040808
  frame_id: "swarmone/map"
child_frame_id: "swarmone/base_link"
pose: 
  pose: 
    position: 
      x: 0.233575487121
      y: 2.03603190644
      z: 0.0
    orientation: 
      x: 0.0
      y: 0.0
      z: 0.670587173458
      w: 0.741830737293
  covariance: [783965065386.2927, -56440014971.271996, 0.0, 0.0, 0.0, -1.866564928762048e-22, -56440014971.27149, 4104735575.13537, 0.0, 0.0, 0.0, 1.5113939231502722e-23, 0.0, 0.0, 4.999749699154451e-07, -5.997288760684209e-28, -1.867582755406745e-24, 0.0, 0.0, 0.0, -5.997288760684206e-28, 4.999749699227501e-07, 3.2389212263213926e-34, 0.0, 0.0, 0.0, -1.867582755406745e-24, -3.2389221233585325e-34, 4.999749699227501e-07, 0.0, -1.866564928762048e-22, 1.5113939231502725e-23, 0.0, 0.0, 0.0, 9.999979977737737e-10]
twist: 
  twist: 
    linear: 
      x: 1.07709961481e-08
      y: 0.0
      z: 0.0
    angular: 
      x: 0.0
      y: 0.0
      z: 0.0399999999992
  covariance: [0.011035253618764316, 0.0, 0.0, 0.0, 0.0, 0.0, 0.0, 11033772.409307485, 0.0, 0.0, 0.0, 0.0, 0.0, 0.0, 4.99997496727573e-07, -7.204273225830771e-35, -5.829536643729621e-36, 0.0, 0.0, 0.0, -7.204273225830777e-35, 4.999749698917463e-07, 5.4227797370407176e-39, 0.0, 0.0, 0.0, -5.8295366437296246e-36, -5.4308629074047487e-39, 4.999749698917463e-07, 0.0, 0.0, 0.0, 0.0, 0.0, 0.0, 9.99999899884874e-10]
---
header: 
  seq: 6918
  stamp: 
    secs: 1518208590
    nsecs: 934871197
  frame_id: "swarmone/map"
child_frame_id: "swarmone/base_link"
pose: 
  pose: 
    position: 
      x: 0.233575487247
      y: 2.0360319077
      z: 0.0
    orientation: 
      x: 0.0
      y: 0.0
      z: 0.67797179867
      w: 0.735087913252
  covariance: [784530815371.881, -56489493792.521454, 0.0, 0.0, 0.0, -2.0803204108037809e-22, -56489493792.520966, 4108956950.807914, 0.0, 0.0, 0.0, 2.1040007298379126e-23, 0.0, 0.0, 4.999749562256014e-07, -8.348769208227062e-28, -2.0863648054774745e-24, 0.0, 0.0, 0.0, -8.348769208227065e-28, 4.99974956232889e-07, -3.890940670449763e-34, 0.0, 0.0, 0.0, -2.086364805477476e-24, 3.890939278710751e-34, 4.99974956232889e-07, 0.0, -2.0803204108037813e-22, 2.104000729837913e-23, 0.0, 0.0, 0.0, 9.999979966787107e-10]
twist: 
  twist: 
    linear: 
      x: 1.20863969696e-08
      y: 0.0
      z: 0.0
    angular: 
      x: 0.0
      y: 0.0
      z: 0.0300000010022
  covariance: [0.011028633905784211, 0.0, 0.0, 0.0, 0.0, 0.0, 0.0, 11038550.136869818, 0.0, 0.0, 0.0, 0.0, 0.0, 0.0, 4.999974953583023e-07, -8.00274996419377e-35, -8.088380925906143e-36, 0.0, 0.0, 0.0, -8.002749964193772e-35, 4.999749562019025e-07, -2.49675817702822e-38, 0.0, 0.0, 0.0, -8.088380925906145e-36, 2.4954856272439316e-38, 4.999749562019025e-07, 0.0, 0.0, 0.0, 0.0, 0.0, 0.0, 9.999998998301203e-10]
---
header: 
  seq: 6919
  stamp: 
    secs: 1518208591
    nsecs:  34737110
  frame_id: "swarmone/map"
child_frame_id: "swarmone/base_link"
pose: 
  pose: 
    position: 
      x: 0.233575487313
      y: 2.03603190852
      z: 0.0
    orientation: 
      x: 0.0
      y: 0.0
      z: 0.674287921238
      w: 0.738468549955
  covariance: [785098125805.4829, -56533390849.77979, 0.0, 0.0, 0.0, -1.8296118178474215e-22, -56533390849.77931, 4112346264.814101, 0.0, 0.0, 0.0, 1.481475172940916e-23, 0.0, 0.0, 4.999749647002456e-07, -4.073014636244784e-28, -1.6898145188026466e-24, 0.0, 0.0, 0.0, -4.073014636244785e-28, 4.999749647046733e-07, -1.3530514816559447e-38, 0.0, 0.0, 0.0, -1.6898145188026466e-24, 1.3475878662954905e-38, 4.999749647046733e-07, 0.0, -1.8296118178474215e-22, 1.481475172940916e-23, 0.0, 0.0, 0.0, 9.999979973989753e-10]
twist: 
  twist: 
    linear: 
      x: 9.45170218039e-09
      y: 0.0
      z: 0.0
    angular: 
      x: 0.0
      y: 0.0
      z: 0.0299999999995
  covariance: [0.01103268450556728, 0.0, 0.0, 0.0, 0.0, 0.0, 0.0, 11043330.944314249, 0.0, 0.0, 0.0, 0.0, 0.0, 0.0, 4.999974962016964e-07, -7.804271431371601e-35, -6.316382537299871e-36, 0.0, 0.0, 0.0, -7.804271431371601e-35, 4.999749646764216e-07, 1.8449947592146804e-38, 0.0, 0.0, 0.0, -6.316382537299875e-36, -1.8459087031677058e-38, 4.999749646764216e-07, 0.0, 0.0, 0.0, 0.0, 0.0, 0.0, 9.999998998657528e-10]
---
header: 
  seq: 6920
  stamp: 
    secs: 1518208591
    nsecs: 135273218
  frame_id: "swarmone/map"
child_frame_id: "swarmone/base_link"
pose: 
  pose: 
    position: 
      x: 0.233575487423
      y: 2.03603190973
      z: 0.0
    orientation: 
      x: 0.0
      y: 0.0
      z: 0.67797180535
      w: 0.735087907091
  covariance: [785669083374.1865, -56580447547.3029, 0.0, 0.0, 0.0, -1.884861247946687e-22, -56580447547.30243, 4116182030.8992314, 0.0, 0.0, 0.0, 1.7160928317331725e-23, 0.0, 0.0, 4.999751321375538e-07, -5.215666954269278e-28, -1.913251657416328e-24, 0.0, 0.0, 0.0, -5.215666954269277e-28, 4.999751321411812e-07, -1.9183810343968637e-34, 0.0, 0.0, 0.0, -1.913251657416327e-24, 1.918380232774276e-34, 4.999751321411812e-07, 0.0, -1.8848612479466864e-22, 1.7160928317331722e-23, 0.0, 0.0, 0.0, 9.999980107396604e-10]
twist: 
  twist: 
    linear: 
      x: 1.12171421676e-08
      y: 0.0
      z: 0.0
    angular: 
      x: 0.0
      y: 0.0
      z: 0.0399999990056
  covariance: [0.011114098407106806, 0.0, 0.0, 0.0, 0.0, 0.0, 0.0, 11048145.229603702, 0.0, 0.0, 0.0, 0.0, 0.0, 0.0, 4.999975129542912e-07, -6.985590470289976e-35, -6.356658740003622e-36, 0.0, 0.0, 0.0, -6.985590470289972e-35, 4.999751321138896e-07, -1.3885929621987251e-39, 0.0, 0.0, 0.0, -6.356658740003621e-36, 1.3796165844085229e-39, 4.999751321138896e-07, 0.0, 0.0, 0.0, 0.0, 0.0, 0.0, 9.999999005332687e-10]
---
header: 
  seq: 6921
  stamp: 
    secs: 1518208591
    nsecs: 234764814
  frame_id: "swarmone/map"
child_frame_id: "swarmone/base_link"
pose: 
  pose: 
    position: 
      x: 0.233575487508
      y: 2.03603191078
      z: 0.0
    orientation: 
      x: 0.0
      y: 0.0
      z: 0.670587173517
      w: 0.74183073724
  covariance: [786234922518.8834, -56624233698.95397, 0.0, 0.0, 0.0, -1.8158947998364817e-22, -56624233698.95349, 4119563031.326509, 0.0, 0.0, 0.0, 1.4703656874704738e-23, 0.0, 0.0, 4.999748710495183e-07, -5.958450220236002e-28, -1.8627877125887627e-24, 0.0, 0.0, 0.0, -5.958450220236002e-28, 4.999748710567025e-07, 6.527244358118503e-35, 0.0, 0.0, 0.0, -1.8627877125887627e-24, -6.52725321280173e-35, 4.999748710567025e-07, 0.0, -1.8158947998364817e-22, 1.470365687470474e-23, 0.0, 0.0, 0.0, 9.999979898548083e-10]
twist: 
  twist: 
    linear: 
      x: 1.077794944e-08
      y: 0.0
      z: 0.0
    angular: 
      x: 0.0
      y: 0.0
      z: 0.0399999999992
  covariance: [0.010987743113539951, 0.0, 0.0, 0.0, 0.0, 0.0, 0.0, 11052910.87451209, 0.0, 0.0, 0.0, 0.0, 0.0, 0.0, 4.99997486840057e-07, -6.912293790628012e-35, -5.593198130268702e-36, 0.0, 0.0, 0.0, -6.912293790628012e-35, 4.999748710258549e-07, -3.250851792947006e-39, 0.0, 0.0, 0.0, -5.5931981302687005e-36, 3.243150965103656e-39, 4.999748710258549e-07, 0.0, 0.0, 0.0, 0.0, 0.0, 0.0, 9.99999899489018e-10]
---
header: 
  seq: 6922
  stamp: 
    secs: 1518208591
    nsecs: 335266352
  frame_id: "swarmone/map"
child_frame_id: "swarmone/base_link"
pose: 
  pose: 
    position: 
      x: 0.233575487629
      y: 2.03603191198
      z: 0.0
    orientation: 
      x: 0.0
      y: 0.0
      z: 0.677971798768
      w: 0.735087913161
  covariance: [786805795631.5509, -56674167674.77778, 0.0, 0.0, 0.0, -1.9810087632046648e-22, -56674167674.77729, 4123824069.726715, 0.0, 0.0, 0.0, 2.0035587932937913e-23, 0.0, 0.0, 4.999751235298765e-07, -8.033710130151275e-28, -1.994270189669411e-24, 0.0, 0.0, 0.0, -8.0337101301512735e-28, 4.999751235369852e-07, -1.2797121651851239e-34, 0.0, 0.0, 0.0, -1.994270189669411e-24, 1.2797108794323364e-34, 4.999751235369852e-07, 0.0, -1.9810087632046652e-22, 2.003558793293792e-23, 0.0, 0.0, 0.0, 9.999980100563239e-10]
twist: 
  twist: 
    linear: 
      x: 1.16554756732e-08
      y: 0.0
      z: 0.0
    angular: 
      x: 0.0
      y: 0.0
      z: 0.0300000009955
  covariance: [0.011109884106617122, 0.0, 0.0, 0.0, 0.0, 0.0, 0.0, 11057726.28676352, 0.0, 0.0, 0.0, 0.0, 0.0, 0.0, 4.999975120927784e-07, -7.411613378695935e-35, -7.490734953118045e-36, 0.0, 0.0, 0.0, -7.411613378695937e-35, 4.999751235061945e-07, -3.1949318044705514e-39, 0.0, 0.0, 0.0, -7.490734953118044e-36, 3.184108341928127e-39, 4.999751235061945e-07, 0.0, 0.0, 0.0, 0.0, 0.0, 0.0, 9.999999004990538e-10]
---
header: 
  seq: 6923
  stamp: 
    secs: 1518208591
    nsecs: 434990168
  frame_id: "swarmone/map"
child_frame_id: "swarmone/base_link"
pose: 
  pose: 
    position: 
      x: 0.233575487702
      y: 2.03603191289
      z: 0.0
    orientation: 
      x: 0.0
      y: 0.0
      z: 0.674287921248
      w: 0.738468549946
  covariance: [787373612112.033, -56718110968.96858, 0.0, 0.0, 0.0, -1.7455815846233117e-22, -56718110968.96809, 4127217553.444796, 0.0, 0.0, 0.0, 1.4134350002295942e-23, 0.0, 0.0, 4.99974929406141e-07, -4.163251726651012e-28, -1.7296765304354384e-24, 0.0, 0.0, 0.0, -4.16325172665101e-28, 4.999749294100871e-07, -6.499680656498464e-35, 0.0, 0.0, 0.0, -1.729676530435439e-24, 6.499674888736154e-35, 4.999749294100871e-07, 0.0, -1.7455815846233115e-22, 1.4134350002295945e-23, 0.0, 0.0, 0.0, 9.999979945386838e-10]
twist: 
  twist: 
    linear: 
      x: 9.89940062419e-09
      y: 0.0
      z: 0.0
    angular: 
      x: 0.0
      y: 0.0
      z: 0.0299999999995
  covariance: [0.011015739384884584, 0.0, 0.0, 0.0, 0.0, 0.0, 0.0, 11062505.817640241, 0.0, 0.0, 0.0, 0.0, 0.0, 0.0, 4.999974926752351e-07, -6.901341601052151e-35, -5.5854258587075276e-36, 0.0, 0.0, 0.0, -6.901341601052152e-35, 4.999749293824251e-07, 1.8983892917250525e-39, 0.0, 0.0, 0.0, -5.585425858707529e-36, -1.9058442621685122e-39, 4.999749293824251e-07, 0.0, 0.0, 0.0, 0.0, 0.0, 0.0, 9.999998997230707e-10]
---
header: 
  seq: 6924
  stamp: 
    secs: 1518208591
    nsecs: 534654617
  frame_id: "swarmone/map"
child_frame_id: "swarmone/base_link"
pose: 
  pose: 
    position: 
      x: 0.23357548782
      y: 2.03603191419
      z: 0.0
    orientation: 
      x: 0.0
      y: 0.0
      z: 0.674287913844
      w: 0.738468556707
  covariance: [787940929685.1703, -56764874702.67365, 0.0, 0.0, 0.0, -2.197692139442958e-22, -56764874702.67317, 4131030146.879783, 0.0, 0.0, 0.0, 2.0009123101306284e-23, 0.0, 0.0, 4.999749143085122e-07, -5.718173639939728e-28, -2.1159098231353175e-24, 0.0, 0.0, 0.0, -5.718173639939725e-28, 4.999749143126737e-07, -4.554794268629051e-34, 0.0, 0.0, 0.0, -2.1159098231353164e-24, 4.554793305397099e-34, 4.999749143126737e-07, 0.0, -2.197692139442958e-22, 2.0009123101306284e-23, 0.0, 0.0, 0.0, 9.999979933469297e-10]
twist: 
  twist: 
    linear: 
      x: 1.20974699454e-08
      y: 0.0
      z: 0.0
    angular: 
      x: 0.0
      y: 0.0
      z: 0.0399999989965
  covariance: [0.011008440660817425, 0.0, 0.0, 0.0, 0.0, 0.0, 0.0, 11067283.879059054, 0.0, 0.0, 0.0, 0.0, 0.0, 0.0, 4.999974911635227e-07, -8.892403090066631e-35, -8.092450362591364e-36, 0.0, 0.0, 0.0, -8.892403090066629e-35, 4.999749142847478e-07, 6.904229082160295e-39, 0.0, 0.0, 0.0, -8.092450362591364e-36, -6.91775861325581e-39, 4.999749142847478e-07, 0.0, 0.0, 0.0, 0.0, 0.0, 0.0, 9.999998996633394e-10]
---
header: 
  seq: 6925
  stamp: 
    secs: 1518208591
    nsecs: 635266066
  frame_id: "swarmone/map"
child_frame_id: "swarmone/base_link"
pose: 
  pose: 
    position: 
      x: 0.233575487912
      y: 2.03603191521
      z: 0.0
    orientation: 
      x: 0.0
      y: 0.0
      z: 0.67797180609
      w: 0.735087906408
  covariance: [788513969444.3973, -56812112141.49213, 0.0, 0.0, 0.0, -1.7883854218682712e-22, -56812112141.49164, 4134881565.8170314, 0.0, 0.0, 0.0, 1.6282532172225177e-23, 0.0, 0.0, 4.999751508130825e-07, -6.669349061829617e-28, -1.8353366840779827e-24, 0.0, 0.0, 0.0, -6.669349061829613e-28, 4.999751508200125e-07, -2.5537855366099257e-34, 0.0, 0.0, 0.0, -1.835336684077982e-24, 2.5537845542111414e-34, 4.999751508200125e-07, 0.0, -1.788385421868272e-22, 1.6282532172225177e-23, 0.0, 0.0, 0.0, 9.99998012228358e-10]
twist: 
  twist: 
    linear: 
      x: 1.07743333951e-08
      y: 0.0
      z: 0.0
    angular: 
      x: 0.0
      y: 0.0
      z: 0.0400000000002
  covariance: [0.011123244981735154, 0.0, 0.0, 0.0, 0.0, 0.0, 0.0, 11072108.73627882, 0.0, 0.0, 0.0, 0.0, 0.0, 0.0, 4.999975148228046e-07, -6.529996761320526e-35, -5.941004334303694e-36, 0.0, 0.0, 0.0, -6.52999676132053e-35, 4.999751507894365e-07, -2.791371717369929e-39, 0.0, 0.0, 0.0, -5.9410043343036974e-36, 2.7836400303356897e-39, 4.999751507894365e-07, 0.0, 0.0, 0.0, 0.0, 0.0, 0.0, 9.999999006077515e-10]
---
header: 
  seq: 6926
  stamp: 
    secs: 1518208591
    nsecs: 734772682
  frame_id: "swarmone/map"
child_frame_id: "swarmone/base_link"
pose: 
  pose: 
    position: 
      x: 0.233575487989
      y: 2.03603191615
      z: 0.0
    orientation: 
      x: 0.0
      y: 0.0
      z: 0.670587173515
      w: 0.741830737242
  covariance: [789081532432.6676, -56856040758.379395, 0.0, 0.0, 0.0, -1.769430924781954e-22, -56856040758.37889, 4138274335.4784365, 0.0, 0.0, 0.0, 1.432742250075305e-23, 0.0, 0.0, 4.999748746254178e-07, -5.569750018884248e-28, -1.741024128911661e-24, 0.0, 0.0, 0.0, -5.5697500188842435e-28, 4.999748746329464e-07, 1.9582882211042474e-34, 0.0, 0.0, 0.0, -1.7410241289116607e-24, -1.9582889934589055e-34, 4.999748746329464e-07, 0.0, -1.769430924781954e-22, 1.432742250075305e-23, 0.0, 0.0, 0.0, 9.999979901620556e-10]
twist: 
  twist: 
    linear: 
      x: 9.90210023524e-09
      y: 0.0
      z: 0.0
    angular: 
      x: 0.0
      y: 0.0
      z: 0.0399999999991
  covariance: [0.010989443810303815, 0.0, 0.0, 0.0, 0.0, 0.0, 0.0, 11076881.989981726, 0.0, 0.0, 0.0, 0.0, 0.0, 0.0, 4.999974871954577e-07, -7.119525336208579e-35, -5.761136883487838e-36, 0.0, 0.0, 0.0, -7.119525336208587e-35, 4.999748746016854e-07, -6.486203786485394e-39, 0.0, 0.0, 0.0, -5.761136883487839e-36, 6.478425309458623e-39, 4.999748746016854e-07, 0.0, 0.0, 0.0, 0.0, 0.0, 0.0, 9.999998995041898e-10]
---
header: 
  seq: 6927
  stamp: 
    secs: 1518208591
    nsecs: 835292816
  frame_id: "swarmone/map"
child_frame_id: "swarmone/base_link"
pose: 
  pose: 
    position: 
      x: 0.233575488108
      y: 2.03603191734
      z: 0.0
    orientation: 
      x: 0.0
      y: 0.0
      z: 0.677971798771
      w: 0.735087913158
  covariance: [789654164042.6348, -56906137711.808, 0.0, 0.0, 0.0, -1.857003663404653e-22, -56906137711.80749, 4142550352.540715, 0.0, 0.0, 0.0, 1.8781424615553175e-23, 0.0, 0.0, 4.999751282385682e-07, -7.692887090970573e-28, -1.909303713869535e-24, 0.0, 0.0, 0.0, -7.692887090970574e-28, 4.999751282454975e-07, -4.765267083136577e-39, 0.0, 0.0, 0.0, -1.9093037138695358e-24, 4.646833369758751e-39, 4.999751282454975e-07, 0.0, -1.857003663404653e-22, 1.8781424615553178e-23, 0.0, 0.0, 0.0, 9.999980104225777e-10]
twist: 
  twist: 
    linear: 
      x: 1.12240785841e-08
      y: 0.0
      z: 0.0
    angular: 
      x: 0.0
      y: 0.0
      z: 0.0400000000005
  covariance: [0.011112195661274176, 0.0, 0.0, 0.0, 0.0, 0.0, 0.0, 11081705.253998639, 0.0, 0.0, 0.0, 0.0, 0.0, 0.0, 4.999975125648872e-07, -6.769587150609456e-35, -6.841568181734691e-36, 0.0, 0.0, 0.0, -6.769587150609458e-35, 4.999751282149224e-07, 3.273883977889708e-38, 0.0, 0.0, 0.0, -6.84156818173469e-36, -3.2748194530983767e-38, 4.999751282149224e-07, 0.0, 0.0, 0.0, 0.0, 0.0, 0.0, 9.999999005174617e-10]
---
header: 
  seq: 6928
  stamp: 
    secs: 1518208591
    nsecs: 934756517
  frame_id: "swarmone/map"
child_frame_id: "swarmone/base_link"
pose: 
  pose: 
    position: 
      x: 0.233575488172
      y: 2.03603191814
      z: 0.0
    orientation: 
      x: 0.0
      y: 0.0
      z: 0.674287922006
      w: 0.738468549254
  covariance: [790222138255.042, -56950102245.16526, 0.0, 0.0, 0.0, -1.5562163512280183e-22, -56950102245.16476, 4145946242.284011, 0.0, 0.0, 0.0, 1.2600995038700995e-23, 0.0, 0.0, 4.999748639473768e-07, -5.052649896538322e-28, -1.5800526497335436e-24, 0.0, 0.0, 0.0, -5.052649896538325e-28, 4.999748639546531e-07, 6.531626710584036e-35, 0.0, 0.0, 0.0, -1.5800526497335436e-24, -6.531633058125723e-35, 4.999748639546531e-07, 0.0, -1.556216351228018e-22, 1.2600995038700995e-23, 0.0, 0.0, 0.0, 9.999979892919915e-10]
twist: 
  twist: 
    linear: 
      x: 9.03415523953e-09
      y: 0.0
      z: 0.0
    angular: 
      x: 0.0
      y: 0.0
      z: 0.0300000010049
  covariance: [0.010984342606926042, 0.0, 0.0, 0.0, 0.0, 0.0, 0.0, 11086479.205089025, 0.0, 0.0, 0.0, 0.0, 0.0, 0.0, 4.999974861291154e-07, -6.047477534241804e-35, -4.893498465423267e-36, 0.0, 0.0, 0.0, -6.047477534241802e-35, 4.999748639236956e-07, -1.2511730116730645e-39, 0.0, 0.0, 0.0, -4.8934984654232655e-36, 1.2453240235414025e-39, 4.999748639236956e-07, 0.0, 0.0, 0.0, 0.0, 0.0, 0.0, 9.999998994608292e-10]
---
header: 
  seq: 6929
  stamp: 
    secs: 1518208592
    nsecs:  35254002
  frame_id: "swarmone/map"
child_frame_id: "swarmone/base_link"
pose: 
  pose: 
    position: 
      x: 0.233575488295
      y: 2.0360319195
      z: 0.0
    orientation: 
      x: 0.0
      y: 0.0
      z: 0.674287913844
      w: 0.738468556707
  covariance: [790795853751.1224, -56997402541.469246, 0.0, 0.0, 0.0, -1.9989294558863022e-22, -56997402541.46874, 4149803504.2141314, 0.0, 0.0, 0.0, 1.8199476760715428e-23, 0.0, 0.0, 4.999751226327955e-07, -5.590884433471529e-28, -2.0516728081871435e-24, 0.0, 0.0, 0.0, -5.5908844334715315e-28, 4.999751226363499e-07, -2.5596231886026187e-34, 0.0, 0.0, 0.0, -2.051672808187143e-24, 2.5596222657364716e-34, 4.999751226363499e-07, 0.0, -1.9989294558863015e-22, 1.8199476760715425e-23, 0.0, 0.0, 0.0, 9.999980099741606e-10]
twist: 
  twist: 
    linear: 
      x: 1.21145246437e-08
      y: 0.0
      z: 0.0
    angular: 
      x: 0.0
      y: 0.0
      z: 0.0399999990049
  covariance: [0.011109449264697823, 0.0, 0.0, 0.0, 0.0, 0.0, 0.0, 11091304.166893663, 0.0, 0.0, 0.0, 0.0, 0.0, 0.0, 4.999975120041942e-07, -7.263054345905111e-35, -6.609082846712468e-36, 0.0, 0.0, 0.0, -7.263054345905111e-35, 4.999751226091497e-07, -7.923787893408036e-39, 0.0, 0.0, 0.0, -6.609082846712468e-36, 7.914278756289845e-39, 4.999751226091497e-07, 0.0, 0.0, 0.0, 0.0, 0.0, 0.0, 9.999999004950407e-10]
---
header: 
  seq: 6930
  stamp: 
    secs: 1518208592
    nsecs: 134820461
  frame_id: "swarmone/map"
child_frame_id: "swarmone/base_link"
pose: 
  pose: 
    position: 
      x: 0.233575488381
      y: 2.03603192044
      z: 0.0
    orientation: 
      x: 0.0
      y: 0.0
      z: 0.674287914582
      w: 0.738468556033
  covariance: [791364582787.2986, -57044293715.0138, 0.0, 0.0, 0.0, -1.7448185679492278e-22, -57044293715.013306, 4153627604.3034616, 0.0, 0.0, 0.0, 1.588587175867416e-23, 0.0, 0.0, 4.999748899447652e-07, -6.43753529559822e-28, -1.7900702511296698e-24, 0.0, 0.0, 0.0, -6.437535295598216e-28, 4.999748899519272e-07, -2.6077393058072445e-34, 0.0, 0.0, 0.0, -1.7900702511296698e-24, 2.6077383872662893e-34, 4.999748899519272e-07, 0.0, -1.744818567949227e-22, 1.588587175867416e-23, 0.0, 0.0, 0.0, 9.999979913662687e-10]
twist: 
  twist: 
    linear: 
      x: 1.03515780227e-08
      y: 0.0
      z: 0.0
    angular: 
      x: 0.0
      y: 0.0
      z: 0.0300000010042
  covariance: [0.010996792513556558, 0.0, 0.0, 0.0, 0.0, 0.0, 0.0, 11096085.809817774, 0.0, 0.0, 0.0, 0.0, 0.0, 0.0, 4.999974887299766e-07, -6.637642029297756e-35, -6.039144516321431e-36, 0.0, 0.0, 0.0, -6.637642029297757e-35, 4.999748899211019e-07, 2.0578807961532649e-38, 0.0, 0.0, 0.0, -6.039144516321433e-36, -2.0586665774510286e-38, 4.999748899211019e-07, 0.0, 0.0, 0.0, 0.0, 0.0, 0.0, 9.999998995645916e-10]
---
header: 
  seq: 6931
  stamp: 
    secs: 1518208592
    nsecs: 235295773
  frame_id: "swarmone/map"
child_frame_id: "swarmone/base_link"
pose: 
  pose: 
    position: 
      x: 0.23357548847
      y: 2.03603192142
      z: 0.0
    orientation: 
      x: 0.0
      y: 0.0
      z: 0.674287913844
      w: 0.738468556707
  covariance: [791938834903.5249, -57091642084.41864, 0.0, 0.0, 0.0, -4.817293837350413e-22, -57091642084.41814, 4157489181.0468864, 0.0, 0.0, 0.0, 4.3859142183576557e-23, 0.0, 0.0, 4.999751096256803e-07, -5.702729521798195e-28, -2.0938621992516654e-24, 0.0, 0.0, 0.0, -5.702729521798193e-28, 4.999751096347287e-07, -2.562270843309352e-34, 0.0, 0.0, 0.0, -2.0938621992516654e-24, 2.5622698852384735e-34, 4.999751096347287e-07, 0.0, -4.817293837350413e-22, 4.385914218357655e-23, 0.0, 0.0, 0.0, 9.999980096625154e-10]
twist: 
  twist: 
    linear: 
      x: 9.91797026278e-09
      y: 0.0
      z: 0.0
    angular: 
      x: 0.0
      y: 0.0
      z: 0.0399999990044
  covariance: [0.01110289716614303, 0.0, 0.0, 0.0, 0.0, 0.0, 0.0, 11100912.492984101, 0.0, 0.0, 0.0, 0.0, 0.0, 0.0, 4.99997510664333e-07, -3.1926318809664503e-34, -2.906303491410551e-35, 0.0, 0.0, 0.0, -3.192631880966449e-34, 4.999751096011332e-07, -1.195017380493162e-38, 0.0, 0.0, 0.0, -2.906303491410551e-35, 1.182765189133817e-38, 4.999751096011332e-07, 0.0, 0.0, 0.0, 0.0, 0.0, 0.0, 9.99999900473078e-10]
---
header: 
  seq: 6932
  stamp: 
    secs: 1518208592
    nsecs: 334759712
  frame_id: "swarmone/map"
child_frame_id: "swarmone/base_link"
pose: 
  pose: 
    position: 
      x: 0.233575488566
      y: 2.03603192247
      z: 0.0
    orientation: 
      x: 0.0
      y: 0.0
      z: 0.674287914582
      w: 0.738468556033
  covariance: [792507634895.3743, -57138543168.30229, 0.0, 0.0, 0.0, -1.7458380461660193e-22, -57138543168.301796, 4161314497.551347, 0.0, 0.0, 0.0, 1.589515369716501e-23, 0.0, 0.0, 4.999748640619133e-07, -6.441261202465566e-28, -1.792945460722494e-24, 0.0, 0.0, 0.0, -6.441261202465566e-28, 4.999748640690896e-07, -2.6129869030046843e-34, 0.0, 0.0, 0.0, -1.7929454607224932e-24, 2.6129859834042827e-34, 4.999748640690896e-07, 0.0, -1.745838046166019e-22, 1.589515369716501e-23, 0.0, 0.0, 0.0, 9.99997989295859e-10]
twist: 
  twist: 
    linear: 
      x: 1.03637906638e-08
      y: 0.0
      z: 0.0
    angular: 
      x: 0.0
      y: 0.0
      z: 0.0300000010053
  covariance: [0.010984393105926731, 0.0, 0.0, 0.0, 0.0, 0.0, 0.0, 11105691.969820073, 0.0, 0.0, 0.0, 0.0, 0.0, 0.0, 4.999974861411503e-07, -6.657375845328528e-35, -6.05710877544122e-36, 0.0, 0.0, 0.0, -6.657375845328524e-35, 4.999748640382501e-07, -1.2633301590511166e-38, 0.0, 0.0, 0.0, -6.057108775441222e-36, 1.2625388056728012e-38, 4.999748640382501e-07, 0.0, 0.0, 0.0, 0.0, 0.0, 0.0, 9.999998994610704e-10]
---
header: 
  seq: 6933
  stamp: 
    secs: 1518208592
    nsecs: 435397625
  frame_id: "swarmone/map"
child_frame_id: "swarmone/base_link"
pose: 
  pose: 
    position: 
      x: 0.233575488655
      y: 2.03603192345
      z: 0.0
    orientation: 
      x: 0.0
      y: 0.0
      z: 0.674287913844
      w: 0.738468556707
  covariance: [793083480978.6785, -57186027352.79844, 0.0, 0.0, 0.0, -1.6282602606680997e-22, -57186027352.797935, 4165187582.541206, 0.0, 0.0, 0.0, 1.4824684639570414e-23, 0.0, 0.0, 4.999751574007506e-07, -4.603851031336864e-28, -1.687108371846594e-24, 0.0, 0.0, 0.0, -4.603851031336864e-28, 4.999751574042129e-07, 1.914428922165197e-34, 0.0, 0.0, 0.0, -1.687108371846594e-24, -1.9144295470101708e-34, 4.999751574042129e-07, 0.0, -1.6282602606680997e-22, 1.4824684639570417e-23, 0.0, 0.0, 0.0, 9.99998012750139e-10]
twist: 
  twist: 
    linear: 
      x: 9.92821949056e-09
      y: 0.0
      z: 0.0
    angular: 
      x: 0.0
      y: 0.0
      z: 0.0399999990062
  covariance: [0.011126483734137806, 0.0, 0.0, 0.0, 0.0, 0.0, 0.0, 11110529.254881445, 0.0, 0.0, 0.0, 0.0, 0.0, 0.0, 4.999975154822896e-07, -5.860925713834623e-35, -5.33319455082854e-36, 0.0, 0.0, 0.0, -5.860925713834628e-35, 4.999751573771235e-07, 2.1664913924267122e-39, 0.0, 0.0, 0.0, -5.333194550828543e-36, -2.172591853496286e-39, 4.999751573771235e-07, 0.0, 0.0, 0.0, 0.0, 0.0, 0.0, 9.999999006338886e-10]
---
header: 
  seq: 6934
  stamp: 
    secs: 1518208592
    nsecs: 534825325
  frame_id: "swarmone/map"
child_frame_id: "swarmone/base_link"
pose: 
  pose: 
    position: 
      x: 0.233575488723
      y: 2.0360319242
      z: 0.0
    orientation: 
      x: 0.0
      y: 0.0
      z: 0.677971806003
      w: 0.735087906488
  covariance: [793652730920.1918, -57232969595.914, 0.0, 0.0, 0.0, -1.4143824435412466e-22, -57232969595.9135, 4169016664.1053147, 0.0, 0.0, 0.0, 1.2877382299557243e-23, 0.0, 0.0, 4.99974854845536e-07, -5.1634750025151245e-28, -1.437795087463719e-24, 0.0, 0.0, 0.0, -5.163475002515125e-28, 4.999748548528055e-07, -2.6151619571676083e-34, 0.0, 0.0, 0.0, -1.4377950874637196e-24, 2.615161365056484e-34, 4.999748548528055e-07, 0.0, -1.414382443541247e-22, 1.2877382299557243e-23, 0.0, 0.0, 0.0, 9.999979885639243e-10]
twist: 
  twist: 
    linear: 
      x: 8.18634471989e-09
      y: 0.0
      z: 0.0
    angular: 
      x: 0.0
      y: 0.0
      z: 0.0400000000002
  covariance: [0.010979994044383982, 0.0, 0.0, 0.0, 0.0, 0.0, 0.0, 11115309.748790946, 0.0, 0.0, 0.0, 0.0, 0.0, 0.0, 4.999974852187405e-07, -5.523316983300472e-35, -5.025406882342611e-36, 0.0, 0.0, 0.0, -5.523316983300476e-35, 4.999748548218547e-07, -2.3283273006073743e-39, 0.0, 0.0, 0.0, -5.025406882342613e-36, 2.3229195908186443e-39, 4.999748548218547e-07, 0.0, 0.0, 0.0, 0.0, 0.0, 0.0, 9.999998994244256e-10]
---
header: 
  seq: 6935
  stamp: 
    secs: 1518208592
    nsecs: 635307550
  frame_id: "swarmone/map"
child_frame_id: "swarmone/base_link"
pose: 
  pose: 
    position: 
      x: 0.233575488833
      y: 2.03603192554
      z: 0.0
    orientation: 
      x: 0.0
      y: 0.0
      z: 0.677971813396
      w: 0.73508789967
  covariance: [794228845750.2528, -57277577159.00149, 0.0, 0.0, 0.0, -5.698853089834369e-22, -57277577159.000984, 4172463320.313279, 0.0, 0.0, 0.0, 4.614398416772297e-23, 0.0, 0.0, 4.999751112237461e-07, -7.933126677684139e-28, -2.456594330036081e-24, 0.0, 0.0, 0.0, -7.933126677684137e-28, 4.999751112370457e-07, 2.5620216882896986e-34, 0.0, 0.0, 0.0, -2.4565943300360796e-24, -2.5620232538628523e-34, 4.999751112370457e-07, 0.0, -5.698853089834367e-22, 4.6143984167722955e-23, 0.0, 0.0, 0.0, 9.99998009801384e-10]
twist: 
  twist: 
    linear: 
      x: 1.171200926e-08
      y: 0.0
      z: 0.0
    angular: 
      x: 0.0
      y: 0.0
      z: 0.0399999999996
  covariance: [0.011103670760888674, 0.0, 0.0, 0.0, 0.0, 0.0, 0.0, 11120142.337343294, 0.0, 0.0, 0.0, 0.0, 0.0, 0.0, 4.999975108238902e-07, -3.742106825475258e-34, -3.029254550813955e-35, 0.0, 0.0, 0.0, -3.7421068254752584e-34, 4.999751111991942e-07, 9.205302610631446e-39, 0.0, 0.0, 0.0, -3.029254550813955e-35, -9.355454762605177e-39, 4.999751111991942e-07, 0.0, 0.0, 0.0, 0.0, 0.0, 0.0, 9.999999004799265e-10]
---
header: 
  seq: 6936
  stamp: 
    secs: 1518208592
    nsecs: 734778643
  frame_id: "swarmone/map"
child_frame_id: "swarmone/base_link"
pose: 
  pose: 
    position: 
      x: 0.233575488972
      y: 2.03603192724
      z: 0.0
    orientation: 
      x: 0.0
      y: 0.0
      z: 0.674287922005
      w: 0.738468549254
  covariance: [794799492541.4781, -57321762633.95893, 0.0, 0.0, 0.0, -2.5582320273136174e-22, -57321762633.95844, 4175877467.6380525, 0.0, 0.0, 0.0, 2.0714498656179505e-23, 0.0, 0.0, 4.999748659236075e-07, -8.484632191959135e-28, -2.6530855969175903e-24, 0.0, 0.0, 0.0, -8.484632191959132e-28, 4.999748659307053e-07, -1.959552954377169e-34, 0.0, 0.0, 0.0, -2.6530855969175906e-24, 1.959551159683066e-34, 4.999748659307053e-07, 0.0, -2.558232027313618e-22, 2.071449865617951e-23, 0.0, 0.0, 0.0, 9.999979894394919e-10]
twist: 
  twist: 
    linear: 
      x: 1.56363670211e-08
      y: 0.0
      z: 0.0
    angular: 
      x: 0.0
      y: 0.0
      z: 0.0300000010049
  covariance: [0.010985282520815619, 0.0, 0.0, 0.0, 0.0, 0.0, 0.0, 11124927.675927822, 0.0, 0.0, 0.0, 0.0, 0.0, 0.0, 4.999974863279462e-07, -9.492151656036153e-35, -7.68052438367028e-36, 0.0, 0.0, 0.0, -9.492151656036149e-35, 4.999748658999628e-07, -8.703532937088153e-39, 0.0, 0.0, 0.0, -7.680524383670282e-36, 8.689239354405649e-39, 4.999748658999628e-07, 0.0, 0.0, 0.0, 0.0, 0.0, 0.0, 9.999998994682995e-10]
---
header: 
  seq: 6937
  stamp: 
    secs: 1518208592
    nsecs: 835276842
  frame_id: "swarmone/map"
child_frame_id: "swarmone/base_link"
pose: 
  pose: 
    position: 
      x: 0.233575489072
      y: 2.03603192832
      z: 0.0
    orientation: 
      x: 0.0
      y: 0.0
      z: 0.677971805347
      w: 0.735087907093
  covariance: [795375868532.845, -57369296482.19948, 0.0, 0.0, 0.0, -2.0963401451454268e-22, -57369296482.19899, 4179755203.7355785, 0.0, 0.0, 0.0, 1.9086359905768256e-23, 0.0, 0.0, 4.999751227567782e-07, -5.800878795635988e-28, -2.128724003382022e-24, 0.0, 0.0, 0.0, -5.800878795635987e-28, 4.999751227604096e-07, -1.2797161182461868e-34, 0.0, 0.0, 0.0, -2.128724003382023e-24, 1.2797151282772097e-34, 4.999751227604096e-07, 0.0, -2.0963401451454266e-22, 1.9086359905768253e-23, 0.0, 0.0, 0.0, 9.999980099892767e-10]
twist: 
  twist: 
    linear: 
      x: 1.25326506945e-08
      y: 0.0
      z: 0.0
    angular: 
      x: 0.0
      y: 0.0
      z: 0.0300000000002
  covariance: [0.01110949822451194, 0.0, 0.0, 0.0, 0.0, 0.0, 0.0, 11129763.820407432, 0.0, 0.0, 0.0, 0.0, 0.0, 0.0, 4.999975120160195e-07, -7.717737728352377e-35, -7.022928507965176e-36, 0.0, 0.0, 0.0, -7.717737728352377e-35, 4.99975122733114e-07, 9.259893358192644e-39, 0.0, 0.0, 0.0, -7.022928507965179e-36, -9.270739635323214e-39, 4.99975122733114e-07, 0.0, 0.0, 0.0, 0.0, 0.0, 0.0, 9.999999004957488e-10]
---
header: 
  seq: 6938
  stamp: 
    secs: 1518208592
    nsecs: 934724569
  frame_id: "swarmone/map"
child_frame_id: "swarmone/base_link"
pose: 
  pose: 
    position: 
      x: 0.233575489151
      y: 2.03603192931
      z: 0.0
    orientation: 
      x: 0.0
      y: 0.0
      z: 0.674287921269
      w: 0.738468549927
  covariance: [795947040076.6558, -57413525604.56335, 0.0, 0.0, 0.0, -1.815129196496207e-22, -57413525604.56286, 4183172978.245145, 0.0, 0.0, 0.0, 1.4697488558981812e-23, 0.0, 0.0, 4.999748599639241e-07, -4.4669677899610825e-28, -1.86098377035135e-24, 0.0, 0.0, 0.0, -4.466967789961082e-28, 4.999748599676727e-07, 6.536354192955489e-35, 0.0, 0.0, 0.0, -1.86098377035135e-24, -6.536360787731209e-35, 4.999748599676727e-07, 0.0, -1.8151291964962076e-22, 1.4697488558981815e-23, 0.0, 0.0, 0.0, 9.999979889680543e-10]
twist: 
  twist: 
    linear: 
      x: 1.07685746767e-08
      y: 0.0
      z: 0.0
    angular: 
      x: 0.0
      y: 0.0
      z: 0.039999998994
