header: 
  seq: 6199
  stamp: 
    secs: 1518208519
    nsecs:  34302473
  frame_id: "swarmone/map"
child_frame_id: "swarmone/base_link"
pose: 
  pose: 
    position: 
      x: 0.102581079869
      y: 1.02137180998
      z: 0.0
    orientation: 
      x: 0.0
      y: 0.0
      z: 0.659384667447
      w: 0.751805733109
  covariance: [454179679943.2004, -30338460058.371742, 0.0, 0.0, 0.0, -1.7188088116341807e-22, -30338460058.371704, 2057239313.519674, 0.0, 0.0, 0.0, 2.4361259883462068e-23, 0.0, 0.0, 4.999749527131177e-07, -9.375363652806513e-28, -1.6802007850272793e-24, 0.0, 0.0, 0.0, -9.375363652806513e-28, 4.999749527205943e-07, -1.2972471671201977e-34, 0.0, 0.0, 0.0, -1.680200785027281e-24, 1.297245910232492e-34, 4.999749527205943e-07, 0.0, -1.7188088116341805e-22, 2.436125988346206e-23, 0.0, 0.0, 0.0, 9.999979964135976e-10]
twist: 
  twist: 
    linear: 
      x: 9.60447135181e-09
      y: 0.0
      z: 0.0
    angular: 
      x: 0.0
      y: 0.0
      z: 0.030000001002
  covariance: [0.01102686801269955, 0.0, 0.0, 0.0, 0.0, 0.0, 0.0, 7942277.429499089, 0.0, 0.0, 0.0, 0.0, 0.0, 0.0, 4.999974950053293e-07, -6.861887836505969e-35, -9.719349984163667e-36, 0.0, 0.0, 0.0, -6.861887836505971e-35, 4.999749526893692e-07, -1.6837592156097475e-38, 0.0, 0.0, 0.0, -9.719349984163671e-36, 1.6824613711478204e-38, 4.999749526893692e-07, 0.0, 0.0, 0.0, 0.0, 0.0, 0.0, 9.999998998167218e-10]
---
header: 
  seq: 6200
  stamp: 
    secs: 1518208519
    nsecs: 135137320
  frame_id: "swarmone/map"
child_frame_id: "swarmone/base_link"
pose: 
  pose: 
    position: 
      x: 0.102581080021
      y: 1.02137181113
      z: 0.0
    orientation: 
      x: 0.0
      y: 0.0
      z: 0.655617426451
      w: 0.755093232743
  covariance: [454547423846.8986, -30375318660.31147, 0.0, 0.0, 0.0, -1.8435166873809361e-22, -30375318660.311436, 2060572928.382576, 0.0, 0.0, 0.0, 2.425088219568643e-23, 0.0, 0.0, 4.999752057631522e-07, -7.292940157883385e-28, -1.8543391501211963e-24, 0.0, 0.0, 0.0, -7.292940157883382e-28, 4.999752057667799e-07, 1.2713858698823008e-34, 0.0, 0.0, 0.0, -1.8543391501211952e-24, -1.2713869667547497e-34, 4.999752057667799e-07, 0.0, -1.8435166873809361e-22, 2.4250882195686428e-23, 0.0, 0.0, 0.0, 9.999980166342723e-10]
twist: 
  twist: 
    linear: 
      x: 1.09171289411e-08
      y: 0.0
      z: 0.0
    angular: 
      x: 0.0
      y: 0.0
      z: 0.0399999990078
  covariance: [0.011150221858782788, 0.0, 0.0, 0.0, 0.0, 0.0, 0.0, 7946153.494223324, 0.0, 0.0, 0.0, 0.0, 0.0, 0.0, 4.999975203178089e-07, -6.855449946575524e-35, -9.013393864378912e-36, 0.0, 0.0, 0.0, -6.855449946575524e-35, 4.999752057394696e-07, 3.898299516398014e-39, 0.0, 0.0, 0.0, -9.013393864378912e-36, -3.910762180880442e-39, 4.999752057394696e-07, 0.0, 0.0, 0.0, 0.0, 0.0, 0.0, 9.999999008279536e-10]
---
header: 
  seq: 6201
  stamp: 
    secs: 1518208519
    nsecs: 234650373
  frame_id: "swarmone/map"
child_frame_id: "swarmone/base_link"
pose: 
  pose: 
    position: 
      x: 0.102581080137
      y: 1.02137181195
      z: 0.0
    orientation: 
      x: 0.0
      y: 0.0
      z: 0.655617419717
      w: 0.755093238589
  covariance: [454910085121.80066, -30413520380.239147, 0.0, 0.0, 0.0, -1.5126585396019326e-22, -30413520380.239117, 2064116577.933799, 0.0, 0.0, 0.0, 2.1439424511302038e-23, 0.0, 0.0, 4.99974876522397e-07, -8.781619307344667e-28, -1.5785596249145837e-24, 0.0, 0.0, 0.0, -8.781619307344665e-28, 4.999748765293979e-07, -1.3054099276001603e-34, 0.0, 0.0, 0.0, -1.5785596249145834e-24, 1.3054088310111833e-34, 4.999748765293979e-07, 0.0, -1.5126585396019324e-22, 2.1439424511302032e-23, 0.0, 0.0, 0.0, 9.99997990287309e-10]
twist: 
  twist: 
    linear: 
      x: 9.15405921136e-09
      y: 0.0
      z: 0.0
    angular: 
      x: 0.0
      y: 0.0
      z: 0.0399999999999
  covariance: [0.010990359822173305, 0.0, 0.0, 0.0, 0.0, 0.0, 0.0, 7949979.985792387, 0.0, 0.0, 0.0, 0.0, 0.0, 0.0, 4.999974873880461e-07, -5.699289714770442e-35, -8.072057652457648e-36, 0.0, 0.0, 0.0, -5.699289714770436e-35, 4.999748764987521e-07, -2.7529142934134293e-38, 0.0, 0.0, 0.0, -8.072057652457647e-36, 2.7520050348222006e-38, 4.999748764987521e-07, 0.0, 0.0, 0.0, 0.0, 0.0, 0.0, 9.999998995106909e-10]
---
header: 
  seq: 6202
  stamp: 
    secs: 1518208519
    nsecs: 335365772
  frame_id: "swarmone/map"
child_frame_id: "swarmone/base_link"
pose: 
  pose: 
    position: 
      x: 0.102581080284
      y: 1.02137181299
      z: 0.0
    orientation: 
      x: 0.0
      y: 0.0
      z: 0.651833781584
      w: 0.758361866912
  covariance: [455277364340.0839, -30452214407.9906, 0.0, 0.0, 0.0, -1.674796858898522e-22, -30452214407.990578, 2067707013.2797346, 0.0, 0.0, 0.0, 2.3737471711548883e-23, 0.0, 0.0, 4.999751764088076e-07, -9.619279927857693e-28, -1.708574244003518e-24, 0.0, 0.0, 0.0, -9.619279927857691e-28, 4.999751764157341e-07, -3.823089145470278e-34, 0.0, 0.0, 0.0, -1.7085742440035175e-24, 3.8230878250176977e-34, 4.999751764157341e-07, 0.0, -1.6747968588985225e-22, 2.3737471711548877e-23, 0.0, 0.0, 0.0, 9.999980142809917e-10]
twist: 
  twist: 
    linear: 
      x: 1.00345952207e-08
      y: 0.0
      z: 0.0
    angular: 
      x: 0.0
      y: 0.0
      z: 0.0300000009924
  covariance: [0.011135818455351896, 0.0, 0.0, 0.0, 0.0, 0.0, 0.0, 7953853.960711045, 0.0, 0.0, 0.0, 0.0, 0.0, 0.0, 4.999975173823319e-07, -6.163580584234078e-35, -8.729578227389635e-36, 0.0, 0.0, 0.0, -6.16358058423408e-35, 4.999751763851434e-07, 1.9533751919014545e-39, 0.0, 0.0, 0.0, -8.729578227389633e-36, -1.9642718684714485e-39, 4.999751763851434e-07, 0.0, 0.0, 0.0, 0.0, 0.0, 0.0, 9.999999007103364e-10]
---
header: 
  seq: 6203
  stamp: 
    secs: 1518208519
    nsecs: 435178041
  frame_id: "swarmone/map"
child_frame_id: "swarmone/base_link"
pose: 
  pose: 
    position: 
      x: 0.102581080452
      y: 1.0213718141
      z: 0.0
    orientation: 
      x: 0.0
      y: 0.0
      z: 0.655617411398
      w: 0.755093245813
  covariance: [455641050079.0604, -30492393736.05852, 0.0, 0.0, 0.0, -1.8117656778975882e-22, -30492393736.0585, 2071520464.3172958, 0.0, 0.0, 0.0, 2.7529647758022937e-23, 0.0, 0.0, 4.999749517868315e-07, -8.367001246967415e-28, -1.8658589746151828e-24, 0.0, 0.0, 0.0, -8.367001246967415e-28, 4.999749517904589e-07, 1.2975685679461949e-34, 0.0, 0.0, 0.0, -1.8658589746151828e-24, -1.2975698135397492e-34, 4.999749517904589e-07, 0.0, -1.8117656778975884e-22, 2.752964775802295e-23, 0.0, 0.0, 0.0, 9.999979963131136e-10]
twist: 
  twist: 
    linear: 
      x: 1.09058987117e-08
      y: 0.0
      z: 0.0
    angular: 
      x: 0.0
      y: 0.0
      z: 0.0399999989984
  covariance: [0.011026544093126754, 0.0, 0.0, 0.0, 0.0, 0.0, 0.0, 7957694.438567287, 0.0, 0.0, 0.0, 0.0, 0.0, 0.0, 4.999974949154737e-07, -6.830055445490336e-35, -1.0372728498871482e-35, 0.0, 0.0, 0.0, -6.830055445490335e-35, 4.99974951763168e-07, 2.0853539456325836e-38, 0.0, 0.0, 0.0, -1.0372728498871481e-35, -2.0867622006208033e-38, 4.99974951763168e-07, 0.0, 0.0, 0.0, 0.0, 0.0, 0.0, 9.999998998119358e-10]
---
header: 
  seq: 6204
  stamp: 
    secs: 1518208519
    nsecs: 534799099
  frame_id: "swarmone/map"
child_frame_id: "swarmone/base_link"
pose: 
  pose: 
    position: 
      x: 0.10258108056
      y: 1.02137181485
      z: 0.0
    orientation: 
      x: 0.0
      y: 0.0
      z: 0.655617419717
      w: 0.755093238589
  covariance: [456004805351.40265, -30530728672.98022, 0.0, 0.0, 0.0, -3.9414309474562866e-22, -30530728672.9802, 2075079929.8826985, 0.0, 0.0, 0.0, 5.586280842041405e-23, 0.0, 0.0, 4.999748968755677e-07, -1.0244459104249731e-27, -1.8400719258545467e-24, 0.0, 0.0, 0.0, -1.0244459104249733e-27, 4.999748968885215e-07, -2.605873007471912e-34, 0.0, 0.0, 0.0, -1.8400719258545464e-24, 2.605871503316302e-34, 4.999748968885215e-07, 0.0, -3.9414309474562856e-22, 5.586280842041404e-23, 0.0, 0.0, 0.0, 9.999979925813557e-10]
twist: 
  twist: 
    linear: 
      x: 8.70735704288e-09
      y: 0.0
      z: 0.0
    angular: 
      x: 0.0
      y: 0.0
      z: 0.0399999999996
  covariance: [0.010999925766229721, 0.0, 0.0, 0.0, 0.0, 0.0, 0.0, 7961528.791660276, 0.0, 0.0, 0.0, 0.0, 0.0, 0.0, 4.999974893862519e-07, -2.647810640654299e-34, -3.7518825613325126e-35, 0.0, 0.0, 0.0, -2.647810640654299e-34, 4.999748968510554e-07, -3.8385359297752497e-38, 0.0, 0.0, 0.0, -3.7518825613325126e-35, 3.825481238838232e-38, 4.999748968510554e-07, 0.0, 0.0, 0.0, 0.0, 0.0, 0.0, 9.999998996196324e-10]
---
header: 
  seq: 6205
  stamp: 
    secs: 1518208519
    nsecs: 634538412
  frame_id: "swarmone/map"
child_frame_id: "swarmone/base_link"
pose: 
  pose: 
    position: 
      x: 0.1025810807
      y: 1.02137181585
      z: 0.0
    orientation: 
      x: 0.0
      y: 0.0
      z: 0.651833781658
      w: 0.758361866848
  covariance: [456369225563.6983, -30569139683.298717, 0.0, 0.0, 0.0, -1.5365293816073326e-22, -30569139683.2987, 2078647571.150588, 0.0, 0.0, 0.0, 2.1777763700155314e-23, 0.0, 0.0, 4.9997493362536e-07, -9.117185771478877e-28, -1.6351680463777613e-24, 0.0, 0.0, 0.0, -9.117185771478875e-28, 4.999749336321484e-07, -1.2991660069384462e-34, 0.0, 0.0, 0.0, -1.6351680463777604e-24, 1.299164814209423e-34, 4.999749336321484e-07, 0.0, -1.536529381607333e-22, 2.1777763700155317e-23, 0.0, 0.0, 0.0, 9.999979948445803e-10]
twist: 
  twist: 
    linear: 
      x: 9.59249594494e-09
      y: 0.0
      z: 0.0
    angular: 
      x: 0.0
      y: 0.0
      z: 0.0399999999996
  covariance: [0.011017734347708977, 0.0, 0.0, 0.0, 0.0, 0.0, 0.0, 7965368.930040654, 0.0, 0.0, 0.0, 0.0, 0.0, 0.0, 4.99997493100727e-07, -5.54382417737887e-35, -7.851580461981367e-36, 0.0, 0.0, 0.0, -5.543824177378872e-35, 4.999749336017533e-07, -5.4177050477625844e-39, 0.0, 0.0, 0.0, -7.851580461981369e-36, 5.408792842766559e-39, 4.999749336017533e-07, 0.0, 0.0, 0.0, 0.0, 0.0, 0.0, 9.999998997386515e-10]
---
header: 
  seq: 6206
  stamp: 
    secs: 1518208519
    nsecs: 735353231
  frame_id: "swarmone/map"
child_frame_id: "swarmone/base_link"
pose: 
  pose: 
    position: 
      x: 0.102581080883
      y: 1.02137181705
      z: 0.0
    orientation: 
      x: 0.0
      y: 0.0
      z: 0.655617412228
      w: 0.755093245092
  covariance: [456737271679.3465, -30609819063.852436, 0.0, 0.0, 0.0, -1.8817297285912519e-22, -30609819063.852413, 2082512317.704966, 0.0, 0.0, 0.0, 2.8592714701299853e-23, 0.0, 0.0, 4.999752008902879e-07, -1.158679660140318e-27, -1.920600848321957e-24, 0.0, 0.0, 0.0, -1.1586796601403175e-27, 4.999752008971812e-07, 7.325405286223354e-40, 0.0, 0.0, 0.0, -1.920600848321957e-24, -9.124272442182247e-40, 4.999752008971812e-07, 0.0, -1.8817297285912519e-22, 2.859271470129986e-23, 0.0, 0.0, 0.0, 9.999980162393064e-10]
twist: 
  twist: 
    linear: 
      x: 1.13444434894e-08
      y: 0.0
      z: 0.0
    angular: 
      x: 0.0
      y: 0.0
      z: 0.0400000000002
  covariance: [0.011147848265864523, 0.0, 0.0, 0.0, 0.0, 0.0, 0.0, 7969251.731969181, 0.0, 0.0, 0.0, 0.0, 0.0, 0.0, 4.999975198309853e-07, -6.897935296322654e-35, -1.0473768485127047e-35, 0.0, 0.0, 0.0, -6.897935296322653e-35, 4.999752008666235e-07, 7.239890915409105e-39, 0.0, 0.0, 0.0, -1.0473768485127047e-35, -7.253917418838868e-39, 4.999752008666235e-07, 0.0, 0.0, 0.0, 0.0, 0.0, 0.0, 9.999999008082529e-10]
---
header: 
  seq: 6207
  stamp: 
    secs: 1518208519
    nsecs: 834378481
  frame_id: "swarmone/map"
child_frame_id: "swarmone/base_link"
pose: 
  pose: 
    position: 
      x: 0.102581080969
      y: 1.02137181766
      z: 0.0
    orientation: 
      x: 0.0
      y: 0.0
      z: 0.651833781713
      w: 0.758361866801
  covariance: [457099548017.54596, -30648016416.289177, 0.0, 0.0, 0.0, -1.435319766089077e-22, -30648016416.28915, 2086062462.7455297, 0.0, 0.0, 0.0, 2.0343278946938282e-23, 0.0, 0.0, 4.999747523721499e-07, -7.75158905587997e-28, -1.400266178671918e-24, 0.0, 0.0, 0.0, -7.751589055879974e-28, 4.999747523798202e-07, -2.479636884167954e-38, 0.0, 0.0, 0.0, -1.4002661786719179e-24, 2.471010893884833e-38, 4.999747523798202e-07, 0.0, -1.4353197660890773e-22, 2.0343278946938288e-23, 0.0, 0.0, 0.0, 9.99997980393726e-10]
twist: 
  twist: 
    linear: 
      x: 7.82894868835e-09
      y: 0.0
      z: 0.0
    angular: 
      x: 0.0
      y: 0.0
      z: 0.0399999999995
  covariance: [0.01093121567227498, 0.0, 0.0, 0.0, 0.0, 0.0, 0.0, 7973066.83826092, 0.0, 0.0, 0.0, 0.0, 0.0, 0.0, 4.999974749664522e-07, -6.011917009180054e-35, -8.515680650842162e-36, 0.0, 0.0, 0.0, -6.011917009180055e-35, 4.99974752348386e-07, 1.2028595895865013e-38, 0.0, 0.0, 0.0, -8.515680650842166e-36, -1.2038181133051035e-38, 4.99974752348386e-07, 0.0, 0.0, 0.0, 0.0, 0.0, 0.0, 9.999998990156743e-10]
---
header: 
  seq: 6208
  stamp: 
    secs: 1518208519
    nsecs: 935240269
  frame_id: "swarmone/map"
child_frame_id: "swarmone/base_link"
pose: 
  pose: 
    position: 
      x: 0.102581081136
      y: 1.02137181877
      z: 0.0
    orientation: 
      x: 0.0
      y: 0.0
      z: 0.648033840133
      w: 0.761611542745
  covariance: [457468238093.1128, -30688779473.04274, 0.0, 0.0, 0.0, -1.8845744934808447e-22, -30688779473.042713, 2089937772.9420536, 0.0, 0.0, 0.0, 2.863592428347862e-23, 0.0, 0.0, 4.999752119610502e-07, -1.059746717129e-27, -1.7558351758963936e-24, 0.0, 0.0, 0.0, -1.0597467171290005e-27, 4.999752119686845e-07, 1.2709322560857537e-34, 0.0, 0.0, 0.0, -1.755835175896394e-24, -1.2709337597110633e-34, 4.999752119686845e-07, 0.0, -1.8845744934808445e-22, 2.8635924283478615e-23, 0.0, 0.0, 0.0, 9.999980171716878e-10]
twist: 
  twist: 
    linear: 
      x: 1.00331982155e-08
      y: 0.0
      z: 0.0
    angular: 
      x: 0.0
      y: 0.0
      z: 0.0399999999995
  covariance: [0.011153266660325286, 0.0, 0.0, 0.0, 0.0, 0.0, 0.0, 7976953.951618938, 0.0, 0.0, 0.0, 0.0, 0.0, 0.0, 4.999975209335031e-07, -7.687089674863357e-35, -1.1673356341773252e-35, 0.0, 0.0, 0.0, -7.687089674863358e-35, 4.999752119372395e-07, -2.677837554146725e-38, 0.0, 0.0, 0.0, -1.1673356341773246e-35, 2.6761691060034196e-38, 4.999752119372395e-07, 0.0, 0.0, 0.0, 0.0, 0.0, 0.0, 9.999999008544435e-10]
---
header: 
  seq: 6209
  stamp: 
    secs: 1518208520
    nsecs:  35284996
  frame_id: "swarmone/map"
child_frame_id: "swarmone/base_link"
pose: 
  pose: 
    position: 
      x: 0.102581081277
      y: 1.02137181963
      z: 0.0
    orientation: 
      x: 0.0
      y: 0.0
      z: 0.648033832582
      w: 0.76161154917
  covariance: [457833602637.53094, -30731053798.767143, 0.0, 0.0, 0.0, -1.4430050843686053e-22, -30731053798.767124, 2094039384.2943254, 0.0, 0.0, 0.0, 2.3404955226760274e-23, 0.0, 0.0, 4.999750102039686e-07, -9.908246123331055e-28, -1.5528216440245752e-24, 0.0, 0.0, 0.0, -9.908246123331057e-28, 4.999750102105828e-07, -1.291486243632429e-34, 0.0, 0.0, 0.0, -1.552821644024575e-24, 1.291485010422038e-34, 4.999750102105828e-07, 0.0, -1.4430050843686053e-22, 2.3404955226760268e-23, 0.0, 0.0, 0.0, 9.999980009650897e-10]
twist: 
  twist: 
    linear: 
      x: 9.15221148853e-09
      y: 0.0
      z: 0.0
    angular: 
      x: 0.0
      y: 0.0
      z: 0.0399999999999
  covariance: [0.011054776801653862, 0.0, 0.0, 0.0, 0.0, 0.0, 0.0, 7980810.824155876, 0.0, 0.0, 0.0, 0.0, 0.0, 0.0, 4.999975007607793e-07, -5.15942355049502e-35, -8.361891955263482e-36, 0.0, 0.0, 0.0, -5.159423550495023e-35, 4.999750101803817e-07, 2.8065628735921534e-38, 0.0, 0.0, 0.0, -8.361891955263483e-36, -2.807474257950271e-38, 4.999750101803817e-07, 0.0, 0.0, 0.0, 0.0, 0.0, 0.0, 9.99999900044727e-10]
---
header: 
  seq: 6210
  stamp: 
    secs: 1518208520
    nsecs: 135058165
  frame_id: "swarmone/map"
child_frame_id: "swarmone/base_link"
pose: 
  pose: 
    position: 
      x: 0.102581081309
      y: 1.02137181981
      z: 0.0
    orientation: 
      x: 0.0
      y: 0.0
      z: 0.655617404582
      w: 0.755093251731
  covariance: [458198208644.39795, -30773247710.10767, 0.0, 0.0, 0.0, -6.725807629809058e-23, -30773247710.107647, 2098134865.0922549, 0.0, 0.0, 0.0, 1.0908988115276497e-23, 0.0, 0.0, 4.99974942077683e-07, -4.517132994578097e-28, -7.098485820172748e-25, 0.0, 0.0, 0.0, -4.517132994578096e-28, 4.999749420845172e-07, 2.596561726595364e-34, 0.0, 0.0, 0.0, -7.098485820172749e-25, -2.596561984369215e-34, 4.999749420845172e-07, 0.0, -6.725807629809056e-23, 1.0908988115276496e-23, 0.0, 0.0, 0.0, 9.999979955259495e-10]
twist: 
  twist: 
    linear: 
      x: 3.90389203653e-09
      y: 0.0
      z: 0.0
    angular: 
      x: 0.0
      y: 0.0
      z: 0.0400000000005
  covariance: [0.011021857765402383, 0.0, 0.0, 0.0, 0.0, 0.0, 0.0, 7984658.4656498525, 0.0, 0.0, 0.0, 0.0, 0.0, 0.0, 4.999974939455328e-07, -2.5902016788566896e-35, -4.198269850707782e-36, 0.0, 0.0, 0.0, -2.5902016788566907e-35, 4.999749420540567e-07, -8.78512973963602e-39, 0.0, 0.0, 0.0, -4.198269850707783e-36, 8.782956641925056e-39, 4.999749420540567e-07, 0.0, 0.0, 0.0, 0.0, 0.0, 0.0, 9.999998997726726e-10]
---
header: 
  seq: 6211
  stamp: 
    secs: 1518208520
    nsecs: 234683752
  frame_id: "swarmone/map"
child_frame_id: "swarmone/base_link"
pose: 
  pose: 
    position: 
      x: 0.102581081424
      y: 1.02137182061
      z: 0.0
    orientation: 
      x: 0.0
      y: 0.0
      z: 0.655617419717
      w: 0.755093238589
  covariance: [458563616935.86304, -30811802215.476868, 0.0, 0.0, 0.0, -3.202228974622331e-22, -30811802215.47684, 2101723367.2175398, 0.0, 0.0, 0.0, 4.538589689915337e-23, 0.0, 0.0, 4.999748973152095e-07, -7.901495440915494e-28, -1.4192146776467965e-24, 0.0, 0.0, 0.0, -7.901495440915494e-28, 4.999748973284692e-07, -5.264431378911681e-38, 0.0, 0.0, 0.0, -1.4192146776467965e-24, 5.255483106915927e-38, 4.999748973284692e-07, 0.0, -3.20222897462233e-22, 4.538589689915336e-23, 0.0, 0.0, 0.0, 9.999979926840501e-10]
twist: 
  twist: 
    linear: 
      x: 6.58096667167e-09
      y: 0.0
      z: 0.0
    angular: 
      x: 0.0
      y: 0.0
      z: 0.0399999999996
  covariance: [0.011000112541944137, 0.0, 0.0, 0.0, 0.0, 0.0, 0.0, 7988501.64956688, 0.0, 0.0, 0.0, 0.0, 0.0, 0.0, 4.999974894283624e-07, -2.1865088889007008e-34, -3.098176187923231e-35, 0.0, 0.0, 0.0, -2.1865088889007016e-34, 4.999748972906658e-07, 2.779821787038985e-38, 0.0, 0.0, 0.0, -3.0981761879232293e-35, -2.788499153895952e-38, 4.999748972906658e-07, 0.0, 0.0, 0.0, 0.0, 0.0, 0.0, 9.99999899624196e-10]
---
header: 
  seq: 6212
  stamp: 
    secs: 1518208520
    nsecs: 334499598
  frame_id: "swarmone/map"
child_frame_id: "swarmone/base_link"
pose: 
  pose: 
    position: 
      x: 0.102581081598
      y: 1.02137182183
      z: 0.0
    orientation: 
      x: 0.0
      y: 0.0
      z: 0.655617419717
      w: 0.755093238589
  covariance: [458929957328.442, -30850460842.45727, 0.0, 0.0, 0.0, -5.133555101590207e-22, -30850460842.457245, 2105322662.4246018, 0.0, 0.0, 0.0, 7.275895729032517e-23, 0.0, 0.0, 4.999749448879448e-07, -1.2405536995962132e-27, -2.2239963513125665e-24, 0.0, 0.0, 0.0, -1.2405536995962132e-27, 4.99974944901292e-07, 5.192764937208308e-34, 0.0, 0.0, 0.0, -2.223996351312568e-24, -5.192767137214712e-34, 4.99974944901292e-07, 0.0, -5.133555101590207e-22, 7.275895729032518e-23, 0.0, 0.0, 0.0, 9.99997996515281e-10]
twist: 
  twist: 
    linear: 
      x: 1.05399297755e-08
      y: 0.0
      z: 0.0
    angular: 
      x: 0.0
      y: 0.0
      z: 0.0399999999996
  covariance: [0.011022939294895909, 0.0, 0.0, 0.0, 0.0, 0.0, 0.0, 7992353.40947326, 0.0, 0.0, 0.0, 0.0, 0.0, 0.0, 4.999974941860502e-07, -3.4160891101004865e-34, -4.840709468591342e-35, 0.0, 0.0, 0.0, -3.4160891101004857e-34, 4.999749448633888e-07, 5.4279276777075e-38, 0.0, 0.0, 0.0, -4.840709468591343e-35, -5.449538339276611e-38, 4.999749448633888e-07, 0.0, 0.0, 0.0, 0.0, 0.0, 0.0, 9.99999899815521e-10]
---
header: 
  seq: 6213
  stamp: 
    secs: 1518208520
    nsecs: 434464931
  frame_id: "swarmone/map"
child_frame_id: "swarmone/base_link"
pose: 
  pose: 
    position: 
      x: 0.102581081726
      y: 1.02137182274
      z: 0.0
    orientation: 
      x: 0.0
      y: 0.0
      z: 0.651833781641
      w: 0.758361866863
  covariance: [459297081436.2417, -30889208200.171406, 0.0, 0.0, 0.0, -1.9498928382385867e-22, -30889208200.171375, 2108931334.8404438, 0.0, 0.0, 0.0, 2.763647315576058e-23, 0.0, 0.0, 4.999749893274937e-07, -9.674722515332382e-28, -1.731330055568255e-24, 0.0, 0.0, 0.0, -9.67472251533238e-28, 4.999749893357293e-07, -2.587223995967502e-34, 0.0, 0.0, 0.0, -1.7313300555682547e-24, 2.587222661628696e-34, 4.999749893357293e-07, 0.0, -1.9498928382385874e-22, 2.7636473155760586e-23, 0.0, 0.0, 0.0, 9.99997999395493e-10]
twist: 
  twist: 
    linear: 
      x: 9.65097957089e-09
      y: 0.0
      z: 0.0
    angular: 
      x: 0.0
      y: 0.0
      z: 0.0399999999994
  covariance: [0.011044531994170863, 0.0, 0.0, 0.0, 0.0, 0.0, 0.0, 7996212.178643135, 0.0, 0.0, 0.0, 0.0, 0.0, 0.0, 4.999974986625241e-07, -8.66504408238028e-35, -1.227460240755408e-35, 0.0, 0.0, 0.0, -8.665044082380276e-35, 4.999749893036023e-07, -6.891646533713582e-39, 0.0, 0.0, 0.0, -1.227460240755408e-35, 6.872250744161079e-39, 4.999749893036023e-07, 0.0, 0.0, 0.0, 0.0, 0.0, 0.0, 9.999998999653412e-10]
---
header: 
  seq: 6214
  stamp: 
    secs: 1518208520
    nsecs: 535215139
  frame_id: "swarmone/map"
child_frame_id: "swarmone/base_link"
pose: 
  pose: 
    position: 
      x: 0.102581081853
      y: 1.02137182357
      z: 0.0
    orientation: 
      x: 0.0
      y: 0.0
      z: 0.655617412223
      w: 0.755093245096
  covariance: [459666782820.8184, -30930122234.236454, 0.0, 0.0, 0.0, -1.653013875376048e-22, -30930122234.236427, 2112829177.1271036, 0.0, 0.0, 0.0, 2.5117382068679297e-23, 0.0, 0.0, 4.999751845066565e-07, -9.295359920521934e-28, -1.5417954757925924e-24, 0.0, 0.0, 0.0, -9.295359920521934e-28, 4.999751845143062e-07, -5.0937631020021354e-34, 0.0, 0.0, 0.0, -1.5417954757925922e-24, 5.093761943723777e-34, 4.999751845143062e-07, 0.0, -1.6530138753760482e-22, 2.5117382068679297e-23, 0.0, 0.0, 0.0, 9.999980149756497e-10]
twist: 
  twist: 
    linear: 
      x: 8.77092910365e-09
      y: 0.0
      z: 0.0
    angular: 
      x: 0.0
      y: 0.0
      z: 0.0400000000002
  covariance: [0.011139755162591653, 0.0, 0.0, 0.0, 0.0, 0.0, 0.0, 8000102.501286425, 0.0, 0.0, 0.0, 0.0, 0.0, 0.0, 4.999975181874865e-07, -6.832774155245788e-35, -1.0376069403396928e-35, 0.0, 0.0, 0.0, -6.832774155245792e-35, 4.999751844828458e-07, -2.45200999075062e-38, 0.0, 0.0, 0.0, -1.0376069403396925e-35, 2.4506916778942366e-38, 4.999751844828458e-07, 0.0, 0.0, 0.0, 0.0, 0.0, 0.0, 9.999999007446406e-10]
---
header: 
  seq: 6215
  stamp: 
    secs: 1518208520
    nsecs: 635002613
  frame_id: "swarmone/map"
child_frame_id: "swarmone/base_link"
pose: 
  pose: 
    position: 
      x: 0.102581082003
      y: 1.02137182462
      z: 0.0
    orientation: 
      x: 0.0
      y: 0.0
      z: 0.651833781654
      w: 0.758361866851
  covariance: [460033725241.7094, -30968862901.90236, 0.0, 0.0, 0.0, -1.608056047298392e-22, -30968862901.902332, 2116439597.7414808, 0.0, 0.0, 0.0, 2.2791542575449848e-23, 0.0, 0.0, 4.999749457236966e-07, -9.541626295507838e-28, -1.71046844602136e-24, 0.0, 0.0, 0.0, -9.541626295507844e-28, 4.999749457304786e-07, -2.5961123826546354e-34, 0.0, 0.0, 0.0, -1.71046844602136e-24, 2.5961110835431144e-34, 4.999749457304786e-07, 0.0, -1.6080560472983926e-22, 2.2791542575449842e-23, 0.0, 0.0, 0.0, 9.999979958123579e-10]
twist: 
  twist: 
    linear: 
      x: 1.00871440496e-08
      y: 0.0
      z: 0.0
    angular: 
      x: 0.0
      y: 0.0
      z: 0.0399999999996
  covariance: [0.011023617013088497, 0.0, 0.0, 0.0, 0.0, 0.0, 0.0, 8003956.892935593, 0.0, 0.0, 0.0, 0.0, 0.0, 0.0, 4.999974943108112e-07, -5.822198270028596e-35, -8.245961184275343e-36, 0.0, 0.0, 0.0, -5.822198270028598e-35, 4.999749457000898e-07, 2.491779495762871e-38, 0.0, 0.0, 0.0, -8.245961184275348e-36, -2.4927531495420136e-38, 4.999749457000898e-07, 0.0, 0.0, 0.0, 0.0, 0.0, 0.0, 9.999998997870407e-10]
---
header: 
  seq: 6216
  stamp: 
    secs: 1518208520
    nsecs: 734780073
  frame_id: "swarmone/map"
child_frame_id: "swarmone/base_link"
pose: 
  pose: 
    position: 
      x: 0.102581082143
      y: 1.02137182555
      z: 0.0
    orientation: 
      x: 0.0
      y: 0.0
      z: 0.65561741215
      w: 0.75509324516
  covariance: [460400326792.46466, -31009446296.070362, 0.0, 0.0, 0.0, -1.5833413395775067e-22, -31009446296.07034, 2120308526.7934904, 0.0, 0.0, 0.0, 2.4058730727294304e-23, 0.0, 0.0, 4.999749431017417e-07, -9.854482529117835e-28, -1.6503704109863824e-24, 0.0, 0.0, 0.0, -9.854482529117835e-28, 4.999749431086865e-07, -5.193659029427268e-34, 0.0, 0.0, 0.0, -1.6503704109863818e-24, 5.193657733618057e-34, 4.999749431086865e-07, 0.0, -1.5833413395775072e-22, 2.4058730727294304e-23, 0.0, 0.0, 0.0, 9.99997995613119e-10]
twist: 
  twist: 
    linear: 
      x: 9.64060750252e-09
      y: 0.0
      z: 0.0
    angular: 
      x: 0.0
      y: 0.0
      z: 0.0400000000002
  covariance: [0.011022322000863555, 0.0, 0.0, 0.0, 0.0, 0.0, 0.0, 8007812.135430505, 0.0, 0.0, 0.0, 0.0, 0.0, 0.0, 4.999974940473675e-07, -5.860351141953589e-35, -8.898318692152008e-36, 0.0, 0.0, 0.0, -5.860351141953591e-35, 4.999749430780966e-07, 1.0949085502100983e-38, 0.0, 0.0, 0.0, -8.898318692152006e-36, -1.0958735668169458e-38, 4.999749430780966e-07, 0.0, 0.0, 0.0, 0.0, 0.0, 0.0, 9.999998997769832e-10]
---
header: 
  seq: 6217
  stamp: 
    secs: 1518208520
    nsecs: 834597111
  frame_id: "swarmone/map"
child_frame_id: "swarmone/base_link"
pose: 
  pose: 
    position: 
      x: 0.102581082251
      y: 1.02137182631
      z: 0.0
    orientation: 
      x: 0.0
      y: 0.0
      z: 0.655617419717
      w: 0.755093238589
  covariance: [460767847577.3223, -31048260408.787315, 0.0, 0.0, 0.0, -1.3782775240253594e-22, -31048260408.7873, 2123928148.769542, 0.0, 0.0, 0.0, 1.9534808628563736e-23, 0.0, 0.0, 4.999749530372794e-07, -8.001483341004336e-28, -1.4339603081380126e-24, 0.0, 0.0, 0.0, -8.001483341004339e-28, 4.999749530442387e-07, 5.189015653331996e-34, 0.0, 0.0, 0.0, -1.4339603081380119e-24, -5.189016570901655e-34, 4.999749530442387e-07, 0.0, -1.3782775240253599e-22, 1.953480862856374e-23, 0.0, 0.0, 0.0, 9.99997996407882e-10]
twist: 
  twist: 
    linear: 
      x: 8.32350247478e-09
      y: 0.0
      z: 0.0
    angular: 
      x: 0.0
      y: 0.0
      z: 0.0399999999999
  covariance: [0.011027087792711054, 0.0, 0.0, 0.0, 0.0, 0.0, 0.0, 8011670.145640028, 0.0, 0.0, 0.0, 0.0, 0.0, 0.0, 4.999974950411279e-07, -5.126413334774035e-35, -7.260669767836698e-36, 0.0, 0.0, 0.0, -5.126413334774036e-35, 4.999749530136343e-07, -9.514165343632808e-40, 0.0, 0.0, 0.0, -7.2606697678367e-36, 9.439958915122043e-40, 4.999749530136343e-07, 0.0, 0.0, 0.0, 0.0, 0.0, 0.0, 9.999998998167218e-10]
---
header: 
  seq: 6218
  stamp: 
    secs: 1518208520
    nsecs: 934489727
  frame_id: "swarmone/map"
child_frame_id: "swarmone/base_link"
pose: 
  pose: 
    position: 
      x: 0.102581082387
      y: 1.02137182727
      z: 0.0
    orientation: 
      x: 0.0
      y: 0.0
      z: 0.857298666576
      w: 0.514819382198
  covariance: [461135882083.8255, -31087134563.189854, 0.0, 0.0, 0.0, -1.6907351727647764e-22, -31087134563.189842, 2127554473.3558452, 0.0, 0.0, 0.0, 2.3963359400370446e-23, 0.0, 0.0, 4.999749715564647e-07, -9.041531884858647e-28, -1.6191598541614443e-24, 0.0, 0.0, 0.0, -9.041531884858648e-28, 4.999749715640944e-07, -3.7268505816246304e-38, 0.0, 0.0, 0.0, -1.6191598541614442e-24, 3.7151198043839376e-38, 4.999749715640944e-07, 0.0, -1.6907351727647768e-22, 2.396335940037045e-23, 0.0, 0.0, 0.0, 9.99997997931463e-10]
twist: 
  twist: 
    linear: 
      x: 9.20676938234e-09
      y: 0.0
      z: 0.0
    angular: 
      x: 0.0
      y: 0.0
      z: 0.0499999990219
  covariance: [0.011035986615805295, 0.0, 0.0, 0.0, 0.0, 0.0, 0.0, 8015532.317383256, 0.0, 0.0, 0.0, 0.0, 0.0, 0.0, 4.999974968890003e-07, -6.920850754626746e-35, -9.803098869395492e-36, 0.0, 0.0, 0.0, -6.920850754626744e-35, 4.999749715326847e-07, 1.5003339442721762e-39, 0.0, 0.0, 0.0, -9.803098869395492e-36, -1.5132013960422438e-39, 4.999749715326847e-07, 0.0, 0.0, 0.0, 0.0, 0.0, 0.0, 9.999998998925201e-10]
---
header: 
  seq: 6219
  stamp: 
    secs: 1518208521
    nsecs:  35263062
  frame_id: "swarmone/map"
child_frame_id: "swarmone/base_link"
pose: 
  pose: 
    position: 
      x: 0.099871866072
      y: 1.03048755379
      z: 0.0
    orientation: 
      x: 0.0
      y: 0.0
      z: 0.636537706479
      w: 0.771245582309
  covariance: [461467093728.4762, -31010468196.044083, 0.0, 0.0, 0.0, -9.980943760344168e-16, -31010468196.04407, 2115313904.8606253, 0.0, 0.0, 0.0, -5.313506712706532e-16, 0.0, 0.0, 4.99975190680944e-07, 2.6915107585503157e-20, -1.1419655686787188e-17, 0.0, 0.0, 0.0, 2.6915107585503145e-20, 4.999751906893398e-07, 1.2388945403873874e-26, 0.0, 0.0, 0.0, -1.1419655686787182e-17, 1.2388942349000117e-26, 4.999751906893396e-07, 0.0, -9.980943760344168e-16, -5.313506712706533e-16, 0.0, 0.0, 0.0, 9.999980154226376e-10]
twist: 
  twist: 
    linear: 
      x: 0.0700249320585
      y: 0.0
      z: 0.0
    angular: 
      x: 0.0
      y: 0.0
      z: -0.0699999881148
  covariance: [0.011142830209090218, 0.0, 0.0, 0.0, 0.0, 0.0, 0.0, 8019429.798028151, 0.0, 0.0, 0.0, 0.0, 0.0, 0.0, 4.999975188098325e-07, -5.39570983617929e-29, 2.8527155103234455e-29, 0.0, 0.0, 0.0, -5.395709836179287e-29, 4.999751906572028e-07, 6.884471983885208e-35, 0.0, 0.0, 0.0, 2.852715510323443e-29, 6.900469383703858e-35, 4.999751906572028e-07, 0.0, 0.0, 0.0, 0.0, 0.0, 0.0, 9.999999007674191e-10]
---
header: 
  seq: 6220
  stamp: 
    secs: 1518208521
    nsecs: 135023355
  frame_id: "swarmone/map"
child_frame_id: "swarmone/base_link"
pose: 
  pose: 
    position: 
      x: 0.105468085476
      y: 1.06417623738
      z: 0.0
    orientation: 
      x: 0.0
      y: 0.0
      z: 0.681638666893
      w: 0.731688955634
  covariance: [461832028853.6027, -31058361813.285187, 0.0, 0.0, 0.0, -4.071472030624062e-15, -31058361813.285164, 2120200806.4482522, 0.0, 0.0, 0.0, 7.863850264521604e-16, 0.0, 0.0, 4.999749388984714e-07, 5.76130986400837e-20, -4.321318980893188e-17, 0.0, 0.0, 0.0, 5.761309864008372e-20, 4.999749388674353e-07, 9.934306452879914e-26, 0.0, 0.0, 0.0, -4.321318980893188e-17, 9.934306478852905e-26, 4.999749388674351e-07, 0.0, -4.071472030624061e-15, 7.863850264521604e-16, 0.0, 0.0, 0.0, 9.999979952663012e-10]
twist: 
  twist: 
    linear: 
      x: 0.267762174108
      y: 0.0
      z: 0.0
    angular: 
      x: 0.0
      y: 0.0
      z: -0.0400000030031
  covariance: [0.011020341435815565, 0.0, 0.0, 0.0, 0.0, 0.0, 0.0, 8023289.342830088, 0.0, 0.0, 0.0, 0.0, 0.0, 0.0, 4.999974936280362e-07, -2.2203824091065566e-28, -4.326231808089731e-29, 0.0, 0.0, 0.0, -2.2203824091065575e-28, 4.999749388737518e-07, -4.281740127762822e-34, 0.0, 0.0, 0.0, -4.3262318080897293e-29, -4.281596379405531e-34, 4.999749388737518e-07, 0.0, 0.0, 0.0, 0.0, 0.0, 0.0, 9.999998997597376e-10]
---
header: 
  seq: 6221
  stamp: 
    secs: 1518208521
    nsecs: 234630108
  frame_id: "swarmone/map"
child_frame_id: "swarmone/base_link"
pose: 
  pose: 
    position: 
      x: 0.108114064996
      y: 1.10046368412
      z: 0.0
    orientation: 
      x: 0.0
      y: 0.0
      z: 0.609159391426
      w: 0.793047814345
  covariance: [462202443310.48334, -31084341743.68847, 0.0, 0.0, 0.0, -5.687468313459165e-15, -31084341743.688442, 2122022748.5618646, 0.0, 0.0, 0.0, 4.0333220011070103e-16, 0.0, 0.0, 4.999749001046924e-07, 1.63444198073661e-20, -5.777112772584014e-17, 0.0, 0.0, 0.0, 1.6344419807366105e-20, 4.999749000825058e-07, 3.7619214825290963e-26, 0.0, 0.0, 0.0, -5.777112772584012e-17, 3.761921449959344e-26, 4.999749000825058e-07, 0.0, -5.687468313459165e-15, 4.03332200110701e-16, 0.0, 0.0, 0.0, 9.999979921788212e-10]
twist: 
  twist: 
    linear: 
      x: 0.35162729527
      y: 0.0
      z: 0.0
    angular: 
      x: 0.0
      y: 0.0
      z: -0.0300000010102
  covariance: [0.011001652557408904, 0.0, 0.0, 0.0, 0.0, 0.0, 0.0, 8027144.18266812, 0.0, 0.0, 0.0, 0.0, 0.0, 0.0, 4.999974897459863e-07, -3.0740202066139124e-28, -2.1905881792017238e-29, 0.0, 0.0, 0.0, -3.0740202066139124e-28, 4.999749000790789e-07, -2.982690983375967e-34, 0.0, 0.0, 0.0, -2.190588179201724e-29, -2.982918739733632e-34, 4.999749000790789e-07, 0.0, 0.0, 0.0, 0.0, 0.0, 0.0, 9.999998996052196e-10]
---
header: 
  seq: 6222
  stamp: 
    secs: 1518208521
    nsecs: 335159779
  frame_id: "swarmone/map"
child_frame_id: "swarmone/base_link"
pose: 
  pose: 
    position: 
      x: 0.117940146697
      y: 1.13762522106
      z: 0.0
    orientation: 
      x: 0.0
      y: 0.0
      z: 0.581035214772
      w: 0.813878417944
  covariance: [462564786207.38586, -31145265370.73872, 0.0, 0.0, 0.0, -6.065733237281532e-15, -31145265370.738697, 2128733886.023892, 0.0, 0.0, 0.0, 1.6187875016634218e-15, 0.0, 0.0, 4.999751306005619e-07, 4.972936414510593e-20, -6.377257963814001e-17, 0.0, 0.0, 0.0, 4.972936414510594e-20, 4.999751305817228e-07, 1.2752148073033852e-25, 0.0, 0.0, 0.0, -6.377257963814004e-17, 1.2752148226512745e-25, 4.999751305817225e-07, 0.0, -6.0657332372815335e-15, 1.6187875016634222e-15, 0.0, 0.0, 0.0, 9.999980106113242e-10]
twist: 
  twist: 
    linear: 
      x: 0.391725758357
      y: 0.0
      z: 0.0
    angular: 
      x: 0.0
      y: 0.0
      z: 0.449999952251
  covariance: [0.011113347264193397, 0.0, 0.0, 0.0, 0.0, 0.0, 0.0, 8031035.991726036, 0.0, 0.0, 0.0, 0.0, 0.0, 0.0, 4.999975128008929e-07, -3.2675396005098833e-28, -8.753530516368801e-29, 0.0, 0.0, 0.0, -3.2675396005098833e-28, 4.999751305744919e-07, -1.2804823541709265e-33, 0.0, 0.0, 0.0, -8.753530516368798e-29, -1.2804420318958811e-33, 4.999751305744919e-07, 0.0, 0.0, 0.0, 0.0, 0.0, 0.0, 9.999999005268992e-10]
---
header: 
  seq: 6223
  stamp: 
    secs: 1518208521
    nsecs: 434977293
  frame_id: "swarmone/map"
child_frame_id: "swarmone/base_link"
pose: 
  pose: 
    position: 
      x: 0.128156966467
      y: 1.16489767894
      z: 0.0
    orientation: 
      x: 0.0
      y: 0.0
      z: 0.74129625281
      w: 0.671177968627
  covariance: [462917187305.0465, -31218019627.588104, 0.0, 0.0, 0.0, -5.012764764406307e-15, -31218019627.588085, 2137144472.8354452, 0.0, 0.0, 0.0, 1.721415974895348e-15, 0.0, 0.0, 4.999749532660894e-07, -8.1074939861088665e-19, -5.794303120486071e-17, 0.0, 0.0, 0.0, -8.107493986108867e-19, 4.999749534053683e-07, -1.8755975436229182e-24, 0.0, 0.0, 0.0, -5.794303120486075e-17, -1.8755975394716566e-24, 4.999749534053681e-07, 0.0, -5.012764764406307e-15, 1.721415974895348e-15, 0.0, 0.0, 0.0, 9.999979964155485e-10]
twist: 
  twist: 
    linear: 
      x: 0.338708960513
      y: 0.0
      z: 0.0
    angular: 
      x: 0.0
      y: 0.0
      z: 0.819999962945
  covariance: [0.011027248432413522, 0.0, 0.0, 0.0, 0.0, 0.0, 0.0, 8034901.475429015, 0.0, 0.0, 0.0, 0.0, 0.0, 0.0, 4.999974950650248e-07, -2.9160404143642977e-28, -9.464706210660999e-29, 0.0, 0.0, 0.0, -2.916040414364298e-28, 4.999749532406645e-07, -1.2309799293409705e-33, 0.0, 0.0, 0.0, -9.464706210661e-29, -1.2309449560659045e-33, 4.999749532406645e-07, 0.0, 0.0, 0.0, 0.0, 0.0, 0.0, 9.999998998172004e-10]
---
header: 
  seq: 6224
  stamp: 
    secs: 1518208521
    nsecs: 535337448
  frame_id: "swarmone/map"
child_frame_id: "swarmone/base_link"
pose: 
  pose: 
    position: 
      x: 0.125482320787
      y: 1.16885718484
      z: 0.0
    orientation: 
      x: 0.0
      y: 0.0
      z: 0.361616372325
      w: 0.932326980874
  covariance: [463290207471.63513, -31212419799.695225, 0.0, 0.0, 0.0, -2.3563145547392963e-15, -31212419799.695206, 2134563095.0295312, 0.0, 0.0, 0.0, -2.345516835856802e-16, 0.0, 0.0, 4.999750884837146e-07, 1.9280400208890942e-19, -2.5592907146626362e-17, 0.0, 0.0, 0.0, 1.9280400208890942e-19, 4.999750887675875e-07, 1.9808318745302643e-25, 0.0, 0.0, 0.0, -2.559290714662635e-17, 1.9808319104632476e-25, 4.999750887675875e-07, 0.0, -2.3563145547392966e-15, -2.345516835856802e-16, 0.0, 0.0, 0.0, 9.999980072529093e-10]
twist: 
  twist: 
    linear: 
      x: 0.139660763589
      y: 0.0
      z: 0.0
    angular: 
      x: 0.0
      y: 0.0
      z: 0.400000041815
  covariance: [0.011092791603662298, 0.0, 0.0, 0.0, 0.0, 0.0, 0.0, 8038789.223454466, 0.0, 0.0, 0.0, 0.0, 0.0, 0.0, 4.999975085874018e-07, -1.3911480378077406e-28, 1.258567117954939e-29, 0.0, 0.0, 0.0, -1.391148037807742e-28, 4.999750884597044e-07, 7.799941668771442e-35, 0.0, 0.0, 0.0, 1.2585671179549402e-29, 7.800845320262233e-35, 4.999750884597044e-07, 0.0, 0.0, 0.0, 0.0, 0.0, 0.0, 9.99999900358882e-10]
---
header: 
  seq: 6225
  stamp: 
    secs: 1518208521
    nsecs: 635162592
  frame_id: "swarmone/map"
child_frame_id: "swarmone/base_link"
pose: 
  pose: 
    position: 
      x: 0.132545288469
      y: 1.17353127212
      z: 0.0
    orientation: 
      x: 0.0
      y: 0.0
      z: 0.624896870905
      w: 0.78070730798
  covariance: [463541773042.01276, -31358930886.697624, 0.0, 0.0, 0.0, -1.2514284831349736e-15, -31358930886.6976, 2153747165.055682, 0.0, 0.0, 0.0, 1.3705113502396972e-15, 0.0, 0.0, 4.999749545841877e-07, -5.120983906702718e-19, -1.7837853110217023e-17, 0.0, 0.0, 0.0, -5.12098390670272e-19, 4.999749546754646e-07, -3.6473024834976033e-25, 0.0, 0.0, 0.0, -1.783785311021703e-17, -3.647302296709565e-25, 4.999749546754646e-07, 0.0, -1.2514284831349736e-15, 1.370511350239697e-15, 0.0, 0.0, 0.0, 9.999979965791603e-10]
twist: 
  twist: 
    linear: 
      x: 0.0982155120203
      y: 0.0
      z: 0.0
    angular: 
      x: 0.0
      y: 0.0
      z: 0.0500000350826
  covariance: [0.011027864259568315, 0.0, 0.0, 0.0, 0.0, 0.0, 0.0, 8042657.490101339, 0.0, 0.0, 0.0, 0.0, 0.0, 0.0, 4.999974951908765e-07, -6.999332560940489e-29, -7.156763798429237e-29, 0.0, 0.0, 0.0, -6.99933256094049e-29, 4.999749545602215e-07, -2.1984720284460806e-34, 0.0, 0.0, 0.0, -7.156763798429242e-29, -2.1988926685532584e-34, 4.999749545602215e-07, 0.0, 0.0, 0.0, 0.0, 0.0, 0.0, 9.99999899824857e-10]
---
header: 
  seq: 6226
  stamp: 
    secs: 1518208521
    nsecs: 735214472
  frame_id: "swarmone/map"
child_frame_id: "swarmone/base_link"
pose: 
  pose: 
    position: 
      x: 0.133003177546
      y: 1.17502378564
      z: 0.0
    orientation: 
      x: 0.0
      y: 0.0
      z: 0.744642903178
      w: 0.667463067702
  covariance: [463906829886.6715, -31412643256.183365, 0.0, 0.0, 0.0, -1.952447777268338e-15, -31412643256.18334, 2159467638.370724, 0.0, 0.0, 0.0, 4.382376499208774e-16, 0.0, 0.0, 4.999750043078586e-07, -9.536952110514265e-21, -8.75148847965618e-18, 0.0, 0.0, 0.0, -9.536952110514265e-21, 4.999750043248922e-07, -3.339138190550229e-27, 0.0, 0.0, 0.0, -8.751488479656177e-18, -3.33913715693744e-27, 4.999750043248922e-07, 0.0, -1.9524477772683384e-15, 4.3823764992087733e-16, 0.0, 0.0, 0.0, 9.999980012374356e-10]
twist: 
  twist: 
    linear: 
      x: 0.0383021995182
      y: 0.0
      z: 0.0
    angular: 
      x: 0.0
      y: 0.0
      z: -0.0199999929724
  covariance: [0.011051696129927928, 0.0, 0.0, 0.0, 0.0, 0.0, 0.0, 8046535.787842286, 0.0, 0.0, 0.0, 0.0, 0.0, 0.0, 4.999975001301834e-07, -6.473456806821674e-29, -1.4448972366056034e-29, 0.0, 0.0, 0.0, -6.473456806821672e-29, 4.999750042832784e-07, -3.8668260831263343e-35, 0.0, 0.0, 0.0, -1.444897236605604e-29, -3.864786008636998e-35, 4.999750042832784e-07, 0.0, 0.0, 0.0, 0.0, 0.0, 0.0, 9.999999000518684e-10]
---
header: 
  seq: 6227
  stamp: 
    secs: 1518208521
    nsecs: 835362911
  frame_id: "swarmone/map"
child_frame_id: "swarmone/base_link"
pose: 
  pose: 
    position: 
      x: 0.132707996932
      y: 1.17375870528
      z: 0.0
    orientation: 
      x: 0.0
      y: 0.0
      z: 0.741296517087
      w: 0.67117767674
  covariance: [464279337518.1869, -31405224792.38465, 0.0, 0.0, 0.0, -4.24581156256233e-17, -31405224792.38463, 2156616549.671794, 0.0, 0.0, 0.0, -4.653755328602613e-18, 0.0, 0.0, 4.999750354942298e-07, -8.782484457258869e-23, -4.015946535848012e-19, 0.0, 0.0, 0.0, -8.782484457258876e-23, 4.999750354810085e-07, -1.4145452712299578e-30, 0.0, 0.0, 0.0, -4.015946535848012e-19, -1.4146741366027105e-30, 4.999750354810085e-07, 0.0, -4.24581156256233e-17, -4.653755328602613e-18, 0.0, 0.0, 0.0, 9.999980030457934e-10]
twist: 
  twist: 
    linear: 
      x: -0.00229644111289
      y: 0.0
      z: 0.0
    angular: 
      x: 0.0
      y: 0.0
      z: 0.0399999940086
  covariance: [0.011066990244729607, 0.0, 0.0, 0.0, 0.0, 0.0, 0.0, 8050419.07690003, 0.0, 0.0, 0.0, 0.0, 0.0, 0.0, 4.99997503284126e-07, -2.2150459767868224e-30, 2.4344780314346954e-31, 0.0, 0.0, 0.0, -2.2150459767868224e-30, 4.999750354704495e-07, 6.227437550249863e-38, 0.0, 0.0, 0.0, 2.4344780314346954e-31, 1.2983171989881195e-39, 4.999750354704495e-07, 0.0, 0.0, 0.0, 0.0, 0.0, 0.0, 9.999999001482389e-10]
---
header: 
  seq: 6228
  stamp: 
    secs: 1518208521
    nsecs: 934621811
  frame_id: "swarmone/map"
child_frame_id: "swarmone/base_link"
pose: 
  pose: 
    position: 
      x: 0.132767803393
      y: 1.17345942487
      z: 0.0
    orientation: 
      x: 0.0
      y: 0.0
      z: 0.731145853074
      w: 0.682221182266
  covariance: [464649159302.0242, -31399715242.495514, 0.0, 0.0, 0.0, 7.023065435644527e-17, -31399715242.49548, 2154049677.2816577, 0.0, 0.0, 0.0, 6.990131551971375e-18, 0.0, 0.0, 4.999748121902172e-07, -2.863158179446136e-22, 7.311088466168459e-19, 0.0, 0.0, 0.0, -2.863158179446135e-22, 4.999748121973212e-07, 8.310425560581253e-30, 0.0, 0.0, 0.0, 7.311088466168454e-19, 8.310950352920338e-30, 4.999748121973212e-07, 0.0, 7.023065435644525e-17, 6.990131551971375e-18, 0.0, 0.0, 0.0, 9.999979851412556e-10]
twist: 
  twist: 
    linear: 
      x: -0.00867908772956
      y: 0.0
      z: 0.0
    angular: 
      x: 0.0
      y: 0.0
      z: 0.0399999999989
  covariance: [0.010959634744866421, 0.0, 0.0, 0.0, 0.0, 0.0, 0.0, 8054269.10636023, 0.0, 0.0, 0.0, 0.0, 0.0, 0.0, 4.999974809534846e-07, 3.8644779056762886e-30, -3.8277654630464275e-31, 0.0, 0.0, 0.0, 3.864477905676288e-30, 4.999748121665722e-07, 5.55583319673132e-38, 0.0, 0.0, 0.0, -3.827765463046429e-31, 7.777711366735778e-38, 4.999748121665722e-07, 0.0, 0.0, 0.0, 0.0, 0.0, 0.0, 9.999998992533862e-10]
---
header: 
  seq: 6229
  stamp: 
    secs: 1518208522
    nsecs:  34643412
  frame_id: "swarmone/map"
child_frame_id: "swarmone/base_link"
pose: 
  pose: 
    position: 
      x: 0.132848924584
      y: 1.17347051365
      z: 0.0
    orientation: 
      x: 0.0
      y: 0.0
      z: 0.717356121547
      w: 0.696706677791
  covariance: [465023006932.4645, -31399781649.303722, 0.0, 0.0, 0.0, 7.033085931035816e-17, -31399781649.303688, 2152244288.361706, 0.0, 0.0, 0.0, 4.874996162047548e-18, 0.0, 0.0, 4.999750041044573e-07, -1.9344420404188907e-22, 7.02132372937637e-19, 0.0, 0.0, 0.0, -1.934442040418891e-22, 4.999750041117552e-07, 5.4340880391022064e-30, 0.0, 0.0, 0.0, 7.021323729376371e-19, 5.433700444230587e-30, 4.999750041117552e-07, 0.0, 7.033085931035814e-17, 4.874996162047547e-18, 0.0, 0.0, 0.0, 9.99998000508584e-10]
twist: 
  twist: 
    linear: 
      x: -0.00812087998608
      y: 0.0
      z: 0.0
    angular: 
      x: 0.0
      y: 0.0
      z: 0.0300000009983
  covariance: [0.01105171942135561, 0.0, 0.0, 0.0, 0.0, 0.0, 0.0, 8058149.960759801, 0.0, 0.0, 0.0, 0.0, 0.0, 0.0, 4.999975001471889e-07, 3.7866907580832215e-30, -2.612058947720405e-31, 0.0, 0.0, 0.0, 3.786690758083221e-30, 4.999750040807581e-07, 5.16071327375837e-38, 0.0, 0.0, 0.0, -2.612058947720404e-31, 3.0505991118976904e-38, 4.999750040807581e-07, 0.0, 0.0, 0.0, 0.0, 0.0, 0.0, 9.999999000216155e-10]
---
header: 
  seq: 6230
  stamp: 
    secs: 1518208522
    nsecs: 134482861
  frame_id: "swarmone/map"
child_frame_id: "swarmone/base_link"
pose: 
  pose: 
    position: 
      x: 0.132901854266
      y: 1.17349547242
      z: 0.0
    orientation: 
      x: 0.0
      y: 0.0
      z: 0.71735609299
      w: 0.696706707195
  covariance: [465397150083.14307, -31407340757.80792, 0.0, 0.0, 0.0, 6.190210160975258e-17, -31407340757.807884, 2151483362.440562, 0.0, 0.0, 0.0, 1.80832496264563e-18, 0.0, 0.0, 4.999749586061506e-07, -5.49603848075085e-23, 6.303947009212973e-19, 0.0, 0.0, 0.0, -5.49603848075085e-23, 4.999749586098875e-07, 1.3835461270605155e-30, 0.0, 0.0, 0.0, 6.30394700921297e-19, 1.3836433837650244e-30, 4.999749586098875e-07, 0.0, 6.190210160975258e-17, 1.80832496264563e-18, 0.0, 0.0, 0.0, 9.999979968586018e-10]
twist: 
  twist: 
    linear: 
      x: -0.00733492440973
      y: 0.0
      z: 0.0
    angular: 
      x: 0.0
      y: 0.0
      z: 0.0399999989983
  covariance: [0.011029746820854206, 0.0, 0.0, 0.0, 0.0, 0.0, 0.0, 8062024.990669421, 0.0, 0.0, 0.0, 0.0, 0.0, 0.0, 4.999974955975476e-07, 3.3665144086218525e-30, -9.79874185562361e-32, 0.0, 0.0, 0.0, 3.366514408621855e-30, 4.99974958582487e-07, 9.836691368105183e-39, 0.0, 0.0, 0.0, -9.798741855623611e-32, 1.3993029290117044e-38, 4.99974958582487e-07, 0.0, 0.0, 0.0, 0.0, 0.0, 0.0, 9.999998998392104e-10]
---
header: 
  seq: 6231
  stamp: 
    secs: 1518208522
    nsecs: 234288692
  frame_id: "swarmone/map"
child_frame_id: "swarmone/base_link"
pose: 
  pose: 
    position: 
      x: 0.132945034787
      y: 1.17351879727
      z: 0.0
    orientation: 
      x: 0.0
      y: 0.0
      z: 0.717356093686
      w: 0.696706706478
  covariance: [465771407655.3116, -31414894379.444977, 0.0, 0.0, 0.0, 5.4423083131339075e-17, -31414894379.444942, 2150722657.010385, 0.0, 0.0, 0.0, 1.5898415680944173e-18, 0.0, 0.0, 4.999749502787326e-07, -6.583141029626757e-23, 5.670635366849553e-19, 0.0, 0.0, 0.0, -6.583141029626758e-23, 4.99974950285732e-07, 1.4903246698966383e-30, 0.0, 0.0, 0.0, 5.670635366849553e-19, 1.4901949089503141e-30, 4.99974950285732e-07, 0.0, 5.442308313133908e-17, 1.5898415680944175e-18, 0.0, 0.0, 0.0, 9.9999799618197e-10]
twist: 
  twist: 
    linear: 
      x: -0.00663603220342
      y: 0.0
      z: 0.0
    angular: 
      x: 0.0
      y: 0.0
      z: 0.0399999999999
  covariance: [0.01102572931742513, 0.0, 0.0, 0.0, 0.0, 0.0, 0.0, 8065899.95728314, 0.0, 0.0, 0.0, 0.0, 0.0, 0.0, 4.999974947658081e-07, 2.9928238608117185e-30, -8.70049115417675e-32, 0.0, 0.0, 0.0, 2.9928238608117195e-30, 4.999749502551061e-07, 7.179678669927314e-39, 0.0, 0.0, 0.0, -8.700491154176752e-32, 6.650552745508031e-39, 4.999749502551061e-07, 0.0, 0.0, 0.0, 0.0, 0.0, 0.0, 9.999998998054738e-10]
---
header: 
  seq: 6232
  stamp: 
    secs: 1518208522
    nsecs: 334905148
  frame_id: "swarmone/map"
child_frame_id: "swarmone/base_link"
pose: 
  pose: 
    position: 
      x: 0.132980451651
      y: 1.17353619356
      z: 0.0
    orientation: 
      x: 0.0
      y: 0.0
      z: 0.717356093686
      w: 0.696706706478
  covariance: [466148948347.46295, -31422506139.79121, 0.0, 0.0, 0.0, 1.4692643814275127e-16, -31422506139.791176, 2149955704.9853854, 0.0, 0.0, 0.0, 4.292297769302128e-18, 0.0, 0.0, 4.999751445538354e-07, -7.441382437118918e-23, 6.360214436919667e-19, 0.0, 0.0, 0.0, -7.441382437118918e-23, 4.999751445671118e-07, 1.904097807883456e-30, 0.0, 0.0, 0.0, 6.360214436919669e-19, 1.904289425437828e-30, 4.999751445671118e-07, 0.0, 1.469264381427513e-16, 4.292297769302127e-18, 0.0, 0.0, 0.0, 9.999980124548025e-10]
twist: 
  twist: 
    linear: 
      x: -0.00605256156328
      y: 0.0
      z: 0.0
    angular: 
      x: 0.0
      y: 0.0
      z: 0.0399999999996
  covariance: [0.01111995485339802, 0.0, 0.0, 0.0, 0.0, 0.0, 0.0, 8069807.653007945, 0.0, 0.0, 0.0, 0.0, 0.0, 0.0, 4.999975141579786e-07, 4.823904358650574e-30, -1.4030899248963682e-31, 0.0, 0.0, 0.0, 4.823904358650575e-30, 4.99975144529288e-07, 2.777655387920408e-38, 0.0, 0.0, 0.0, -1.4030899248963675e-31, 3.005206257985082e-38, 4.99975144529288e-07, 0.0, 0.0, 0.0, 0.0, 0.0, 0.0, 9.999999006126933e-10]
---
header: 
  seq: 6233
  stamp: 
    secs: 1518208522
    nsecs: 435292006
  frame_id: "swarmone/map"
child_frame_id: "swarmone/base_link"
pose: 
  pose: 
    position: 
      x: 0.133009483764
      y: 1.17355643264
      z: 0.0
    orientation: 
      x: 0.0
      y: 0.0
      z: 0.717356093686
      w: 0.696706706478
  covariance: [466525871222.06476, -31430097802.124775, 0.0, 0.0, 0.0, 4.4152953669695665e-17, -31430097802.124744, 2149190502.78811, 0.0, 0.0, 0.0, 1.2898237099345306e-18, 0.0, 0.0, 4.999750953227904e-07, -5.39987060052462e-23, 4.624552224667324e-19, 0.0, 0.0, 0.0, -5.39987060052462e-23, 4.999750953296192e-07, 1.0026705005423553e-30, 0.0, 0.0, 0.0, 4.624552224667323e-19, 1.0027987524116494e-30, 4.999750953296192e-07, 0.0, 4.4152953669695665e-17, 1.2898237099345306e-18, 0.0, 0.0, 0.0, 9.999980077791848e-10]
twist: 
  twist: 
    linear: 
      x: -0.00546306940012
      y: 0.0
      z: 0.0
    angular: 
      x: 0.0
      y: 0.0
      z: 0.0399999999999
  covariance: [0.011096140361121515, 0.0, 0.0, 0.0, 0.0, 0.0, 0.0, 8073707.68933947, 0.0, 0.0, 0.0, 0.0, 0.0, 0.0, 4.999975092738087e-07, 2.425821074444554e-30, -7.051887043840637e-32, 0.0, 0.0, 0.0, 2.4258210744445528e-30, 4.999750952991829e-07, 3.419639869662091e-39, 0.0, 0.0, 0.0, -7.051887043840637e-32, 7.779535760018927e-39, 4.999750952991829e-07, 0.0, 0.0, 0.0, 0.0, 0.0, 0.0, 9.999999003853866e-10]
---
header: 
  seq: 6234
  stamp: 
    secs: 1518208522
    nsecs: 534512997
  frame_id: "swarmone/map"
child_frame_id: "swarmone/base_link"
pose: 
  pose: 
    position: 
      x: 0.133033005523
      y: 1.17358095364
      z: 0.0
    orientation: 
      x: 0.0
      y: 0.0
      z: 0.833271886493
      w: 0.552863421815
  covariance: [466898655890.9037, -31437598124.125576, 0.0, 0.0, 0.0, 1.2142408298424558e-16, -31437598124.125546, 2148434119.155029, 0.0, 0.0, 0.0, 3.547279703601092e-18, 0.0, 0.0, 4.99974794562703e-07, -6.023378310930629e-23, 5.22043893115834e-19, 0.0, 0.0, 0.0, -6.023378310930629e-23, 4.999747945763362e-07, 1.2474369921036064e-30, 0.0, 0.0, 0.0, 5.220438931158342e-19, 1.247666907610223e-30, 4.999747945763362e-07, 0.0, 1.2142408298424558e-16, 3.547279703601093e-18, 0.0, 0.0, 0.0, 9.999979845037107e-10]
twist: 
  twist: 
    linear: 
      x: -0.00488234496204
      y: 0.0
      z: 0.0
    angular: 
      x: 0.0
      y: 0.0
      z: 0.0400000000366
  covariance: [0.010951062897834865, 0.0, 0.0, 0.0, 0.0, 0.0, 0.0, 8077563.666220706, 0.0, 0.0, 0.0, 0.0, 0.0, 0.0, 4.999974791497655e-07, 3.981716392003899e-30, -1.1582109012842015e-31, 0.0, 0.0, 0.0, 3.9817163920039024e-30, 4.999747945381454e-07, 1.4493100712645356e-38, 0.0, 0.0, 0.0, -1.1582109012842028e-31, 2.0034130194650833e-38, 4.999747945381454e-07, 0.0, 0.0, 0.0, 0.0, 0.0, 0.0, 9.999998992148902e-10]
---
header: 
  seq: 6235
  stamp: 
    secs: 1518208522
    nsecs: 634738207
  frame_id: "swarmone/map"
child_frame_id: "swarmone/base_link"
pose: 
  pose: 
    position: 
      x: 0.129516596815
      y: 1.1873856987
      z: 0.0
    orientation: 
      x: 0.0
      y: 0.0
      z: 0.666870017154
      w: 0.745174060352
  covariance: [467245970021.8584, -31376380701.04597, 0.0, 0.0, 0.0, -1.4434312065615504e-15, -31376380701.045944, 2138275322.1504934, 0.0, 0.0, 0.0, -6.089183981808137e-16, 0.0, 0.0, 4.999750551538255e-07, 2.5492050728913732e-20, -1.642255252750086e-17, 0.0, 0.0, 0.0, 2.549205072891373e-20, 4.999750551594609e-07, 1.678280712584096e-26, 0.0, 0.0, 0.0, -1.6422552527500862e-17, 1.6782807125813813e-26, 4.999750551594609e-07, 0.0, -1.4434312065615504e-15, -6.089183981808139e-16, 0.0, 0.0, 0.0, 9.999980045659498e-10]
twist: 
  twist: 
    linear: 
      x: 0.0991572933369
      y: 0.0
      z: 0.0
    angular: 
      x: 0.0
      y: 0.0
      z: -0.0499999910366
  covariance: [0.01107651582497102, 0.0, 0.0, 0.0, 0.0, 0.0, 0.0, 8081459.915818955, 0.0, 0.0, 0.0, 0.0, 0.0, 0.0, 4.999975052560691e-07, -7.946102494030427e-29, 3.3343980897542686e-29, 0.0, 0.0, 0.0, -7.946102494030432e-29, 4.999750551300595e-07, 1.1864085446802605e-34, 0.0, 0.0, 0.0, 3.334398089754271e-29, 1.1864575129228024e-34, 4.999750551300595e-07, 0.0, 0.0, 0.0, 0.0, 0.0, 0.0, 9.999999002247235e-10]
---
header: 
  seq: 6236
  stamp: 
    secs: 1518208522
    nsecs: 734633923
  frame_id: "swarmone/map"
child_frame_id: "swarmone/base_link"
pose: 
  pose: 
    position: 
      x: 0.132065614226
      y: 1.21555806267
      z: 0.0
    orientation: 
      x: 0.0
      y: 0.0
      z: 0.751280243285
      w: 0.65998333013
  covariance: [467619614360.8644, -31410102051.37019, 0.0, 0.0, 0.0, -3.680950550401462e-15, -31410102051.370163, 2141153863.1944797, 0.0, 0.0, 0.0, 4.0951053410210543e-16, 0.0, 0.0, 4.999749728197629e-07, 2.119576821154241e-20, -3.819498870646668e-17, 0.0, 0.0, 0.0, 2.119576821154241e-20, 4.999749727953975e-07, 3.234774536879234e-26, 0.0, 0.0, 0.0, -3.8194988706466686e-17, 3.2347745757411936e-26, 4.999749727953975e-07, 0.0, -3.680950550401463e-15, 4.095105341021055e-16, 0.0, 0.0, 0.0, 9.999979979850094e-10]
twist: 
  twist: 
    linear: 
      x: 0.233611758763
      y: 0.0
      z: 0.0
    angular: 
      x: 0.0
      y: 0.0
      z: -0.0899999959879
  covariance: [0.011036636773862499, 0.0, 0.0, 0.0, 0.0, 0.0, 0.0, 8085344.602883813, 0.0, 0.0, 0.0, 0.0, 0.0, 0.0, 4.99997497020292e-07, -2.0002425367326604e-28, -2.2390761909927506e-29, 0.0, 0.0, 0.0, -2.0002425367326602e-28, 4.999749727952711e-07, -1.9957882419518873e-34, 0.0, 0.0, 0.0, -2.2390761909927514e-29, -1.9960753393789603e-34, 4.999749727952711e-07, 0.0, 0.0, 0.0, 0.0, 0.0, 0.0, 9.999998998956266e-10]
---
header: 
  seq: 6237
  stamp: 
    secs: 1518208522
    nsecs: 834594727
  frame_id: "swarmone/map"
child_frame_id: "swarmone/base_link"
pose: 
  pose: 
    position: 
      x: 0.129731858871
      y: 1.23004139858
      z: 0.0
    orientation: 
      x: 0.0
      y: 0.0
      z: 0.783326841851
      w: 0.62161005368
  covariance: [467992911994.8833, -31398770577.15673, 0.0, 0.0, 0.0, -2.9148499531502344e-15, -31398770577.156704, 2137796859.82358, 0.0, 0.0, 0.0, -3.787114448674543e-16, 0.0, 0.0, 4.999749890627508e-07, -3.4902433781206245e-20, -2.984725802764707e-17, 0.0, 0.0, 0.0, -3.490243378120626e-20, 4.999749890253134e-07, -4.165179651592181e-26, 0.0, 0.0, 0.0, -2.984725802764708e-17, -4.1651796515894426e-26, 4.999749890253134e-07, 0.0, -2.9148499531502352e-15, -3.7871144486745434e-16, 0.0, 0.0, 0.0, 9.999979992895871e-10]
twist: 
  twist: 
    linear: 
      x: 0.181525622323
      y: 0.0
      z: 0.0
    angular: 
      x: 0.0
      y: 0.0
      z: 0.0199999889993
  covariance: [0.011044476794881774, 0.0, 0.0, 0.0, 0.0, 0.0, 0.0, 8089233.066974627, 0.0, 0.0, 0.0, 0.0, 0.0, 0.0, 4.999974986443705e-07, -1.5675936534242681e-28, 2.0594618277073923e-29, 0.0, 0.0, 0.0, -1.5675936534242683e-28, 4.999749890385742e-07, 1.437240761769569e-34, 0.0, 0.0, 0.0, 2.0594618277073943e-29, 1.4368872521680362e-34, 4.999749890385742e-07, 0.0, 0.0, 0.0, 0.0, 0.0, 0.0, 9.999998999608082e-10]
---
header: 
  seq: 6238
  stamp: 
    secs: 1518208522
    nsecs: 934562922
  frame_id: "swarmone/map"
child_frame_id: "swarmone/base_link"
pose: 
  pose: 
    position: 
      x: 0.125512296532
      y: 1.24810264575
      z: 0.0
    orientation: 
      x: 0.0
      y: 0.0
      z: 0.620986349265
      w: 0.783821378904
  covariance: [468359762684.96405, -31368653387.204987, 0.0, 0.0, 0.0, -3.0559012965638197e-15, -31368653387.20496, 2131881859.1933956, 0.0, 0.0, 0.0, -7.129523446865517e-16, 0.0, 0.0, 4.999749908583929e-07, 1.4445706123642573e-20, -3.1867781007555926e-17, 0.0, 0.0, 0.0, 1.4445706123642585e-20, 4.999749908579199e-07, 1.8407455441755715e-26, 0.0, 0.0, 0.0, -3.1867781007555926e-17, 1.8407454665754517e-26, 4.999749908579197e-07, 0.0, -3.055901296563819e-15, -7.129523446865517e-16, 0.0, 0.0, 0.0, 9.999979994384631e-10]
twist: 
  twist: 
    linear: 
      x: 0.190766736329
      y: 0.0
      z: 0.0
    angular: 
      x: 0.0
      y: 0.0
      z: 0.179999983979
  covariance: [0.011045342594907703, 0.0, 0.0, 0.0, 0.0, 0.0, 0.0, 8093123.065227981, 0.0, 0.0, 0.0, 0.0, 0.0, 0.0, 4.999974988233845e-07, -1.657917745768441e-28, 3.858363730805377e-29, 0.0, 0.0, 0.0, -1.657917745768441e-28, 4.999749908341388e-07, 2.8439843139195393e-34, 0.0, 0.0, 0.0, 3.8583637308053753e-29, 2.8431890961376707e-34, 4.999749908341388e-07, 0.0, 0.0, 0.0, 0.0, 0.0, 0.0, 9.999998999682042e-10]
---
header: 
  seq: 6239
  stamp: 
    secs: 1518208523
    nsecs:  34534216
  frame_id: "swarmone/map"
child_frame_id: "swarmone/base_link"
pose: 
  pose: 
    position: 
      x: 0.131351475899
      y: 1.27604441683
      z: 0.0
    orientation: 
      x: 0.0
      y: 0.0
      z: 0.648033789918
      w: 0.761611585472
  covariance: [468726719999.3259, -31424442286.984436, 0.0, 0.0, 0.0, -4.233487822273883e-15, -31424442286.984413, 2137838681.2407117, 0.0, 0.0, 0.0, 9.947793871666142e-16, 0.0, 0.0, 4.999749916343416e-07, -1.8140406861516345e-19, -4.484906096362389e-17, 0.0, 0.0, 0.0, -1.8140406861516367e-19, 4.999749916871842e-07, -3.2532405699859e-25, 0.0, 0.0, 0.0, -4.4849060963623894e-17, -3.2532405906792327e-25, 4.99974991687184e-07, 0.0, -4.233487822273883e-15, 9.947793871666142e-16, 0.0, 0.0, 0.0, 9.999979995004888e-10]
twist: 
  twist: 
    linear: 
      x: 0.265279942936
      y: 0.0
      z: 0.0
    angular: 
      x: 0.0
      y: 0.0
      z: 0.0900000090043
  covariance: [0.011045718552621674, 0.0, 0.0, 0.0, 0.0, 0.0, 0.0, 8097014.431046191, 0.0, 0.0, 0.0, 0.0, 0.0, 0.0, 4.999974989009412e-07, -2.3424654461691385e-28, -5.383392997293503e-29, 0.0, 0.0, 0.0, -2.342465446169139e-28, 4.999749916095433e-07, -5.605925453491605e-34, 0.0, 0.0, 0.0, -5.383392997293504e-29, -5.605560688760945e-34, 4.999749916095433e-07, 0.0, 0.0, 0.0, 0.0, 0.0, 0.0, 9.999998999713058e-10]
---
header: 
  seq: 6240
  stamp: 
    secs: 1518208523
    nsecs: 134646177
  frame_id: "swarmone/map"
child_frame_id: "swarmone/base_link"
pose: 
  pose: 
    position: 
      x: 0.134615230645
      y: 1.29313062873
      z: 0.0
    orientation: 
      x: 0.0
      y: 0.0
      z: 0.670587117859
      w: 0.741830787553
  covariance: [469099569787.21674, -31467568020.8455, 0.0, 0.0, 0.0, -9.392813442877308e-15, -31467568020.84548, 2142019685.3126802, 0.0, 0.0, 0.0, 1.5234441924399574e-15, 0.0, 0.0, 4.99975019778677e-07, -6.176080242026158e-20, -4.3215215353675897e-17, 0.0, 0.0, 0.0, -6.176080242026159e-20, 4.99975019811491e-07, -1.068453806788114e-25, 0.0, 0.0, 0.0, -4.321521535367591e-17, -1.0684538067875074e-25, 4.999750198114909e-07, 0.0, -9.392813442877307e-15, 1.5234441924399574e-15, 0.0, 0.0, 0.0, 9.999980024294833e-10]
twist: 
  twist: 
    linear: 
      x: 0.209611072572
      y: 0.0
      z: 0.0
    angular: 
      x: 0.0
      y: 0.0
      z: 0.109999998007
  covariance: [0.011059163157036098, 0.0, 0.0, 0.0, 0.0, 0.0, 0.0, 8100912.522113292, 0.0, 0.0, 0.0, 0.0, 0.0, 0.0, 4.999975016787617e-07, -3.203680367446554e-28, -5.144644880352282e-29, 0.0, 0.0, 0.0, -3.203680367446555e-28, 4.999750197532748e-07, -6.823972381186065e-34, 0.0, 0.0, 0.0, -5.144644880352282e-29, -6.824355512205072e-34, 4.999750197532748e-07, 0.0, 0.0, 0.0, 0.0, 0.0, 0.0, 9.99999900111852e-10]
---
header: 
  seq: 6241
  stamp: 
    secs: 1518208523
    nsecs: 234305143
  frame_id: "swarmone/map"
child_frame_id: "swarmone/base_link"
pose: 
  pose: 
    position: 
      x: 0.136019401514
      y: 1.30454127109
      z: 0.0
    orientation: 
      x: 0.0
      y: 0.0
      z: 0.685288647438
      w: 0.72827156315
  covariance: [469473913163.56537, -31499443842.589188, 0.0, 0.0, 0.0, -2.3615952736628883e-15, -31499443842.58917, 2144638287.0894027, 0.0, 0.0, 0.0, 2.38846775001467e-16, 0.0, 0.0, 4.999749134158384e-07, -2.749781829833056e-20, -2.520387331690363e-17, 0.0, 0.0, 0.0, -2.7497818298330557e-20, 4.999749134461752e-07, -2.762664558597341e-26, 0.0, 0.0, 0.0, -2.520387331690363e-17, -2.76266458462633e-26, 4.999749134461751e-07, 0.0, -2.361595273662888e-15, 2.3884677500146695e-16, 0.0, 0.0, 0.0, 9.999979932279385e-10]
twist: 
  twist: 
    linear: 
      x: 0.148366980079
      y: 0.0
      z: 0.0
    angular: 
      x: 0.0
      y: 0.0
      z: 0.0200000090317
