header: 
  seq: 7490
  stamp: 
    secs: 1518208648
    nsecs: 134837151
  frame_id: "swarmone/map"
child_frame_id: "swarmone/base_link"
pose: 
  pose: 
    position: 
      x: 0.282361153254
      y: 3.00961110457
      z: 0.0
    orientation: 
      x: 0.0
      y: 0.0
      z: 0.681638762218
      w: 0.731688866829
  covariance: [1167295446505.5715, -81636707937.95766, 0.0, 0.0, 0.0, -5.198480609156331e-23, -81636707937.9572, 5744266851.596212, 0.0, 0.0, 0.0, 3.6864682272937414e-24, 0.0, 0.0, 4.999748904197501e-07, -1.1324877682512626e-28, -5.376637848998583e-25, 0.0, 0.0, 0.0, -1.132487768251263e-28, 4.999748904234166e-07, -1.30372186618341e-34, 0.0, 0.0, 0.0, -5.3766378489985805e-25, 1.3037218197669184e-34, 4.999748904234166e-07, 0.0, -5.19848060915633e-23, 3.6864682272937414e-24, 0.0, 0.0, 0.0, 9.99997991398985e-10]
twist: 
  twist: 
    linear: 
      x: 3.06074605981e-09
      y: 0.0
      z: 0.0
    angular: 
      x: 0.0
      y: 0.0
      z: 0.0399999989956
  covariance: [0.01099702936414754, 0.0, 0.0, 0.0, 0.0, 0.0, 0.0, 14009046.188664319, 0.0, 0.0, 0.0, 0.0, 0.0, 0.0, 4.999974887780712e-07, -1.9850160440108109e-35, -1.4069349346616378e-36, 0.0, 0.0, 0.0, -1.985016044010812e-35, 4.999748903961052e-07, -1.4175159061130276e-38, 0.0, 0.0, 0.0, -1.406934934661638e-36, 1.417462960329241e-38, 4.999748903961052e-07, 0.0, 0.0, 0.0, 0.0, 0.0, 0.0, 9.99999899566275e-10]
---
header: 
  seq: 7491
  stamp: 
    secs: 1518208648
    nsecs: 234558344
  frame_id: "swarmone/map"
child_frame_id: "swarmone/base_link"
pose: 
  pose: 
    position: 
      x: 0.282361153286
      y: 3.00961110502
      z: 0.0
    orientation: 
      x: 0.0
      y: 0.0
      z: 0.685288664268
      w: 0.728271547313
  covariance: [1168074499565.0625, -81692054016.00827, 0.0, 0.0, 0.0, -6.695284086765283e-23, -81692054016.0078, 5748198776.828545, 0.0, 0.0, 0.0, 4.747904961479064e-24, 0.0, 0.0, 4.999749289090317e-07, -1.924018277832859e-28, -6.847231566373092e-25, 0.0, 0.0, 0.0, -1.9240182778328584e-28, 4.999749289161944e-07, 6.499831512051133e-35, 0.0, 0.0, 0.0, -6.847231566373084e-25, -6.499832586137339e-35, 4.999749289161944e-07, 0.0, -6.695284086765284e-23, 4.747904961479066e-24, 0.0, 0.0, 0.0, 9.999979944830821e-10]
twist: 
  twist: 
    linear: 
      x: 3.94968386056e-09
      y: 0.0
      z: 0.0
    angular: 
      x: 0.0
      y: 0.0
      z: 0.0499999989974
  covariance: [0.011015466564533626, 0.0, 0.0, 0.0, 0.0, 0.0, 0.0, 14014642.017104957, 0.0, 0.0, 0.0, 0.0, 0.0, 0.0, 4.999974926272168e-07, -2.528208003926945e-35, -1.7916187961702467e-36, 0.0, 0.0, 0.0, -2.5282080039269446e-35, 4.999749288853682e-07, -1.9224928880982226e-38, 0.0, 0.0, 0.0, -1.7916187961702463e-36, 1.9223999368292213e-38, 4.999749288853682e-07, 0.0, 0.0, 0.0, 0.0, 0.0, 0.0, 9.999998997204335e-10]
---
header: 
  seq: 7492
  stamp: 
    secs: 1518208648
    nsecs: 335131884
  frame_id: "swarmone/map"
child_frame_id: "swarmone/base_link"
pose: 
  pose: 
    position: 
      x: 0.282361153318
      y: 3.00961110554
      z: 0.0
    orientation: 
      x: 0.0
      y: 0.0
      z: 0.681638770956
      w: 0.731688858689
  covariance: [1168861150647.8171, -81743988827.87515, 0.0, 0.0, 0.0, -8.001518605389858e-23, -81743988827.8747, 5751606659.507435, 0.0, 0.0, 0.0, 4.870568056990003e-24, 0.0, 0.0, 4.999751414463938e-07, -2.4937330518009714e-28, -8.204222402780965e-25, 0.0, 0.0, 0.0, -2.4937330518009727e-28, 4.999751414567596e-07, -1.9168600816762366e-34, 0.0, 0.0, 0.0, -8.204222402780967e-25, 1.9168599175358145e-34, 4.999751414567596e-07, 0.0, -8.001518605389858e-23, 4.8705680569900015e-24, 0.0, 0.0, 0.0, 9.999980114790979e-10]
twist: 
  twist: 
    linear: 
      x: 4.83048725942e-09
      y: 0.0
      z: 0.0
    angular: 
      x: 0.0
      y: 0.0
      z: 0.0300000019881
  covariance: [0.011118649256944719, 0.0, 0.0, 0.0, 0.0, 0.0, 0.0, 14020287.183848431, 0.0, 0.0, 0.0, 0.0, 0.0, 0.0, 4.999975138859424e-07, -2.9146810337130064e-35, -1.772601697320051e-36, 0.0, 0.0, 0.0, -2.914681033713005e-35, 4.99975141422748e-07, -4.311804701058039e-39, 0.0, 0.0, 0.0, -1.7726016973200506e-36, 4.310801570947737e-39, 4.99975141422748e-07, 0.0, 0.0, 0.0, 0.0, 0.0, 0.0, 9.999999005702883e-10]
---
header: 
  seq: 7493
  stamp: 
    secs: 1518208648
    nsecs: 434567690
  frame_id: "swarmone/map"
child_frame_id: "swarmone/base_link"
pose: 
  pose: 
    position: 
      x: 0.282361153356
      y: 3.00961110608
      z: 0.0
    orientation: 
      x: 0.0
      y: 0.0
      z: 0.685288663519
      w: 0.728271548018
  covariance: [1169638806327.7297, -81799234437.38173, 0.0, 0.0, 0.0, -8.936789486228909e-23, -81799234437.38129, 5755531362.649365, 0.0, 0.0, 0.0, 6.337460437349811e-24, 0.0, 0.0, 4.999748568955319e-07, -1.9058566396409384e-28, -9.060365217303703e-25, 0.0, 0.0, 0.0, -1.9058566396409388e-28, 4.999748568993662e-07, 1.2275703818853808e-38, 0.0, 0.0, 0.0, -9.060365217303706e-25, -1.228953194384156e-38, 4.999748568993662e-07, 0.0, -8.936789486228908e-23, 6.337460437349812e-24, 0.0, 0.0, 0.0, 9.999979887279058e-10]
twist: 
  twist: 
    linear: 
      x: 5.26435200309e-09
      y: 0.0
      z: 0.0
    angular: 
      x: 0.0
      y: 0.0
      z: 0.0499999979889
  covariance: [0.010980962417824877, 0.0, 0.0, 0.0, 0.0, 0.0, 0.0, 14025869.98001642, 0.0, 0.0, 0.0, 0.0, 0.0, 0.0, 4.999974854237831e-07, -3.430341823424283e-35, -2.4313684977063675e-36, 0.0, 0.0, 0.0, -3.4303418234242826e-35, 4.999748568718507e-07, -2.4109090147594966e-39, 0.0, 0.0, 0.0, -2.4313684977063685e-36, 2.4092599710881032e-39, 4.999748568718507e-07, 0.0, 0.0, 0.0, 0.0, 0.0, 0.0, 9.999998994326249e-10]
---
header: 
  seq: 7494
  stamp: 
    secs: 1518208648
    nsecs: 534306526
  frame_id: "swarmone/map"
child_frame_id: "swarmone/base_link"
pose: 
  pose: 
    position: 
      x: 0.282361153372
      y: 3.00961110635
      z: 0.0
    orientation: 
      x: 0.0
      y: 0.0
      z: 0.688921441467
      w: 0.724836014204
  covariance: [1170419761971.9978, -81850791349.30685, 0.0, 0.0, 0.0, -1.749105856197034e-22, -81850791349.3064, 5758914329.093589, 0.0, 0.0, 0.0, 1.0646615356367357e-23, 0.0, 0.0, 4.99974925594199e-07, -2.278498479056463e-28, -7.561212255185632e-25, 0.0, 0.0, 0.0, -2.2784984790564637e-28, 4.999749256119152e-07, 1.2999608892698054e-34, 0.0, 0.0, 0.0, -7.561212255185631e-25, -1.2999610276118896e-34, 4.999749256119152e-07, 0.0, -1.7491058561970338e-22, 1.0646615356367357e-23, 0.0, 0.0, 0.0, 9.999979949672769e-10]
twist: 
  twist: 
    linear: 
      x: 3.50918289482e-09
      y: 0.0
      z: 0.0
    angular: 
      x: 0.0
      y: 0.0
      z: 0.0400000010031
  covariance: [0.011013655400481185, 0.0, 0.0, 0.0, 0.0, 0.0, 0.0, 14031471.27833359, 0.0, 0.0, 0.0, 0.0, 0.0, 0.0, 4.999974922563557e-07, -1.1853844742925498e-34, -7.213171446752067e-36, 0.0, 0.0, 0.0, -1.1853844742925496e-34, 4.999749255696456e-07, 7.441096762375351e-39, 0.0, 0.0, 0.0, -7.213171446752071e-36, -7.452274629437073e-39, 4.999749255696456e-07, 0.0, 0.0, 0.0, 0.0, 0.0, 0.0, 9.999998997381678e-10]
---
header: 
  seq: 7495
  stamp: 
    secs: 1518208648
    nsecs: 634643316
  frame_id: "swarmone/map"
child_frame_id: "swarmone/base_link"
pose: 
  pose: 
    position: 
      x: 0.282361153414
      y: 3.00961110715
      z: 0.0
    orientation: 
      x: 0.0
      y: 0.0
      z: 0.681638777534
      w: 0.731688852561
  covariance: [1171206259238.7932, -81898767983.63069, 0.0, 0.0, 0.0, -1.0946121527206942e-22, -81898767983.63023, 5761759719.907367, 0.0, 0.0, 0.0, 5.5649462313840654e-24, 0.0, 0.0, 4.999750827353853e-07, -2.255103212356814e-28, -1.1112598327441996e-24, 0.0, 0.0, 0.0, -2.2551032123568143e-28, 4.999750827424802e-07, -2.5678340377063896e-34, 0.0, 0.0, 0.0, -1.1112598327441996e-24, 2.567833835173035e-34, 4.999750827424802e-07, 0.0, -1.0946121527206942e-22, 5.564946231384066e-24, 0.0, 0.0, 0.0, 9.999980067878998e-10]
twist: 
  twist: 
    linear: 
      x: 6.58207542855e-09
      y: 0.0
      z: 0.0
    angular: 
      x: 0.0
      y: 0.0
      z: 0.0399999999992
  covariance: [0.011089925566675169, 0.0, 0.0, 0.0, 0.0, 0.0, 0.0, 14037107.662038434, 0.0, 0.0, 0.0, 0.0, 0.0, 0.0, 4.999975080130511e-07, -4.0263716132772855e-35, -2.046094779215092e-36, 0.0, 0.0, 0.0, -4.026371613277287e-35, 4.999750827117215e-07, 3.605594016504971e-39, 0.0, 0.0, 0.0, -2.0460947792150927e-36, -3.607118251303807e-39, 4.999750827117215e-07, 0.0, 0.0, 0.0, 0.0, 0.0, 0.0, 9.99999900335679e-10]
---
header: 
  seq: 7496
  stamp: 
    secs: 1518208648
    nsecs: 734338999
  frame_id: "swarmone/map"
child_frame_id: "swarmone/base_link"
pose: 
  pose: 
    position: 
      x: 0.282361153451
      y: 3.00961110766
      z: 0.0
    orientation: 
      x: 0.0
      y: 0.0
      z: 0.692536979742
      w: 0.721382375505
  covariance: [1171987197893.3486, -81954242782.22452, 0.0, 0.0, 0.0, -9.370591507357972e-23, -81954242782.22408, 5765700419.037245, 0.0, 0.0, 0.0, 6.645069490201625e-24, 0.0, 0.0, 4.999749225472965e-07, -2.7218314923923366e-28, -9.688954204670538e-25, 0.0, 0.0, 0.0, -2.7218314923923366e-28, 4.999749225543737e-07, 6.500644192384158e-35, 0.0, 0.0, 0.0, -9.688954204670538e-25, -6.50064627013564e-35, 4.999749225543737e-07, 0.0, -9.370591507357972e-23, 6.645069490201627e-24, 0.0, 0.0, 0.0, 9.999979939689292e-10]
twist: 
  twist: 
    linear: 
      x: 5.68705723086e-09
      y: 0.0
      z: 0.0
    angular: 
      x: 0.0
      y: 0.0
      z: 0.0400000000009
  covariance: [0.01101240778783268, 0.0, 0.0, 0.0, 0.0, 0.0, 0.0, 14042709.526526775, 0.0, 0.0, 0.0, 0.0, 0.0, 0.0, 4.999974919914952e-07, -3.4730678338879703e-35, -2.461111846900413e-36, 0.0, 0.0, 0.0, -3.4730678338879687e-35, 4.999749225236514e-07, 3.5924874864232265e-40, 0.0, 0.0, 0.0, -2.4611118469004123e-36, -3.6089002550143753e-40, 4.999749225236514e-07, 0.0, 0.0, 0.0, 0.0, 0.0, 0.0, 9.999998996947733e-10]
---
header: 
  seq: 7497
  stamp: 
    secs: 1518208648
    nsecs: 834525347
  frame_id: "swarmone/map"
child_frame_id: "swarmone/base_link"
pose: 
  pose: 
    position: 
      x: 0.282361153447
      y: 3.00961110766
      z: 0.0
    orientation: 
      x: 0.0
      y: 0.0
      z: 0.685288686108
      w: 0.728271526762
  covariance: [1172773716482.3965, -81998276478.63774, 0.0, 0.0, 0.0, -3.1117262166113e-23, -81998276478.6373, 5767984736.943025, 0.0, 0.0, 0.0, 1.2701614879275402e-24, 0.0, 0.0, 4.999750453706142e-07, -5.202658477816974e-29, -3.1964595966591754e-25, 0.0, 0.0, 0.0, -5.202658477816977e-29, 4.999750453776468e-07, 6.439674459375849e-35, 0.0, 0.0, 0.0, -3.1964595966591777e-25, -6.439674585712256e-35, 4.999750453776468e-07, 0.0, -3.1117262166113005e-23, 1.27016148792754e-24, 0.0, 0.0, 0.0, 9.999980037938058e-10]
twist: 
  twist: 
    linear: 
      x: 1.73944216205e-09
      y: 0.0
      z: 0.0
    angular: 
      x: 0.0
      y: 0.0
      z: 0.0300000009974
  covariance: [0.011071756290031619, 0.0, 0.0, 0.0, 0.0, 0.0, 0.0, 14048340.462530991, 0.0, 0.0, 0.0, 0.0, 0.0, 0.0, 4.999975042763779e-07, -1.2123523163284012e-35, -4.945496668628099e-37, 0.0, 0.0, 0.0, -1.2123523163284015e-35, 4.999750453469687e-07, 2.925684332672956e-39, 0.0, 0.0, 0.0, -4.945496668628099e-37, -2.9257596882325147e-39, 4.999750453469687e-07, 0.0, 0.0, 0.0, 0.0, 0.0, 0.0, 9.99999900186021e-10]
---
header: 
  seq: 7498
  stamp: 
    secs: 1518208648
    nsecs: 935016155
  frame_id: "swarmone/map"
child_frame_id: "swarmone/base_link"
pose: 
  pose: 
    position: 
      x: 0.282361153516
      y: 3.00961110879
      z: 0.0
    orientation: 
      x: 0.0
      y: 0.0
      z: 0.681638769499
      w: 0.731688860046
  covariance: [1173562246522.004, -82050326010.13228, 0.0, 0.0, 0.0, -1.3375564448035625e-22, -82050326010.13187, 5771399626.005383, 0.0, 0.0, 0.0, 8.141812701253454e-24, 0.0, 0.0, 4.999751210330826e-07, -2.52844772786395e-28, -1.3847622801638262e-24, 0.0, 0.0, 0.0, -2.5284477278639497e-28, 4.999751210365828e-07, -6.40072665286527e-35, 0.0, 0.0, 0.0, -1.384762280163826e-24, 6.400723826649987e-35, 4.999751210365828e-07, 0.0, -1.3375564448035623e-22, 8.141812701253453e-24, 0.0, 0.0, 0.0, 9.999980098410044e-10]
twist: 
  twist: 
    linear: 
      x: 8.33372737536e-09
      y: 0.0
      z: 0.0
    angular: 
      x: 0.0
      y: 0.0
      z: 0.0299999999996
  covariance: [0.011108678309059093, 0.0, 0.0, 0.0, 0.0, 0.0, 0.0, 14053990.022579722, 0.0, 0.0, 0.0, 0.0, 0.0, 0.0, 4.99997511844774e-07, -4.758363621533894e-35, -2.8947769900215278e-36, 0.0, 0.0, 0.0, -4.758363621533896e-35, 4.999751210094558e-07, 1.2280937249947944e-38, 0.0, 0.0, 0.0, -2.8947769900215294e-36, -1.2283650544995327e-38, 4.999751210094558e-07, 0.0, 0.0, 0.0, 0.0, 0.0, 0.0, 9.999999004884307e-10]
---
header: 
  seq: 7499
  stamp: 
    secs: 1518208649
    nsecs:  34484625
  frame_id: "swarmone/map"
child_frame_id: "swarmone/base_link"
pose: 
  pose: 
    position: 
      x: 0.282361153539
      y: 3.00961110909
      z: 0.0
    orientation: 
      x: 0.0
      y: 0.0
      z: 0.681638762218
      w: 0.731688866829
  covariance: [1174342657266.863, -82105758009.53839, 0.0, 0.0, 0.0, -8.082393451559492e-23, -82105758009.53798, 5775336909.792636, 0.0, 0.0, 0.0, 5.7315712568977864e-24, 0.0, 0.0, 4.999748652067009e-07, -1.7419907269278598e-28, -8.278620943363993e-25, 0.0, 0.0, 0.0, -1.741990726927861e-28, 4.999748652104551e-07, 6.530232063876525e-35, 0.0, 0.0, 0.0, -8.278620943364e-25, -6.53023322758058e-35, 4.999748652104551e-07, 0.0, -8.082393451559492e-23, 5.731571256897786e-24, 0.0, 0.0, 0.0, 9.99997989387432e-10]
twist: 
  twist: 
    linear: 
      x: 4.79709153478e-09
      y: 0.0
      z: 0.0
    angular: 
      x: 0.0
      y: 0.0
      z: 0.0399999989946
  covariance: [0.010984949946304336, 0.0, 0.0, 0.0, 0.0, 0.0, 0.0, 14059583.598493775, 0.0, 0.0, 0.0, 0.0, 0.0, 0.0, 4.99997486255653e-07, -3.0742414151766473e-35, -2.1789495867552465e-36, 0.0, 0.0, 0.0, -3.0742414151766473e-35, 4.999748651830375e-07, -1.8548268532301824e-39, 0.0, 0.0, 0.0, -2.1789495867552462e-36, 1.853607342227734e-39, 4.999748651830375e-07, 0.0, 0.0, 0.0, 0.0, 0.0, 0.0, 9.99999899465649e-10]
---
header: 
  seq: 7500
  stamp: 
    secs: 1518208649
    nsecs: 134936571
  frame_id: "swarmone/map"
child_frame_id: "swarmone/base_link"
pose: 
  pose: 
    position: 
      x: 0.282361153569
      y: 3.00961110951
      z: 0.0
    orientation: 
      x: 0.0
      y: 0.0
      z: 0.685288664321
      w: 0.728271547263
  covariance: [1175131205211.7131, -82161767980.8888, 0.0, 0.0, 0.0, -8.210599749594782e-23, -82161767980.88838, 5779315245.831621, 0.0, 0.0, 0.0, 5.822472150777619e-24, 0.0, 0.0, 4.999751108733751e-07, -2.175590711762447e-28, -7.686575424679996e-25, 0.0, 0.0, 0.0, -2.175590711762447e-28, 4.999751108811106e-07, 6.404563137373177e-35, 0.0, 0.0, 0.0, -7.686575424679994e-25, -6.404564490408431e-35, 4.999751108811106e-07, 0.0, -8.210599749594784e-23, 5.822472150777621e-24, 0.0, 0.0, 0.0, 9.99998009080568e-10]
twist: 
  twist: 
    linear: 
      x: 4.35970163219e-09
      y: 0.0
      z: 0.0
    angular: 
      x: 0.0
      y: 0.0
      z: 0.0400000000002
  covariance: [0.011103675717541592, 0.0, 0.0, 0.0, 0.0, 0.0, 0.0, 14065233.985959468, 0.0, 0.0, 0.0, 0.0, 0.0, 0.0, 4.999975108231137e-07, -3.3685622246101417e-35, -2.387344368058075e-36, 0.0, 0.0, 0.0, -3.368562224610143e-35, 4.999751108495794e-07, 3.916080388040899e-39, 0.0, 0.0, 0.0, -2.3873443680580764e-36, -3.917590704763454e-39, 4.999751108495794e-07, 0.0, 0.0, 0.0, 0.0, 0.0, 0.0, 9.99999900449932e-10]
---
header: 
  seq: 7501
  stamp: 
    secs: 1518208649
    nsecs: 234554052
  frame_id: "swarmone/map"
child_frame_id: "swarmone/base_link"
pose: 
  pose: 
    position: 
      x: 0.282361153607
      y: 3.00961111013
      z: 0.0
    orientation: 
      x: 0.0
      y: 0.0
      z: 0.68528867157
      w: 0.728271540442
  covariance: [1175914136464.3467, -82213446223.39351, 0.0, 0.0, 0.0, -2.786931996452187e-22, -82213446223.39311, 5782705666.987794, 0.0, 0.0, 0.0, 1.6963882043037786e-23, 0.0, 0.0, 4.999748949786758e-07, -2.8923778472610544e-28, -1.2000573717788325e-24, 0.0, 0.0, 0.0, -2.8923778472610535e-28, 4.999748949921933e-07, 1.303534639788367e-34, 0.0, 0.0, 0.0, -1.2000573717788322e-24, -1.303534917463057e-34, 4.999748949921933e-07, 0.0, -2.7869319964521876e-22, 1.6963882043037786e-23, 0.0, 0.0, 0.0, 9.999979925254461e-10]
twist: 
  twist: 
    linear: 
      x: 5.67645082323e-09
      y: 0.0
      z: 0.0
    angular: 
      x: 0.0
      y: 0.0
      z: 0.0399999999996
  covariance: [0.010999006547964813, 0.0, 0.0, 0.0, 0.0, 0.0, 0.0, 14070838.929928394, 0.0, 0.0, 0.0, 0.0, 0.0, 0.0, 4.999974891939248e-07, -1.876712872862761e-34, -1.1420573981694234e-35, 0.0, 0.0, 0.0, -1.8767128728627612e-34, 4.999748949541202e-07, 4.218397315868201e-39, 0.0, 0.0, 0.0, -1.142057398169423e-35, -4.245286664911608e-39, 4.999748949541202e-07, 0.0, 0.0, 0.0, 0.0, 0.0, 0.0, 9.999998996160278e-10]
---
header: 
  seq: 7502
  stamp: 
    secs: 1518208649
    nsecs: 335248947
  frame_id: "swarmone/map"
child_frame_id: "swarmone/base_link"
pose: 
  pose: 
    position: 
      x: 0.282361153633
      y: 3.00961111057
      z: 0.0
    orientation: 
      x: 0.0
      y: 0.0
      z: 0.688921440812
      w: 0.724836014826
  covariance: [1176705959180.2576, -82265710029.04341, 0.0, 0.0, 0.0, -2.315197741166749e-22, -82265710029.04298, 5786134430.506358, 0.0, 0.0, 0.0, 1.409246999674072e-23, 0.0, 0.0, 4.999751639799312e-07, -2.4534398699128923e-28, -1.0070742423131567e-24, 0.0, 0.0, 0.0, -2.4534398699128923e-28, 4.999751639931465e-07, 2.207914079217892e-38, 0.0, 0.0, 0.0, -1.0070742423131564e-24, -2.2098852434668644e-38, 4.999751639931465e-07, 0.0, -2.315197741166749e-22, 1.4092469996740722e-23, 0.0, 0.0, 0.0, 9.999980140022622e-10]
twist: 
  twist: 
    linear: 
      x: 4.79602089512e-09
      y: 0.0
      z: 0.0
    angular: 
      x: 0.0
      y: 0.0
      z: 0.0400000000006
  covariance: [0.011129522444181448, 0.0, 0.0, 0.0, 0.0, 0.0, 0.0, 14076506.007287463, 0.0, 0.0, 0.0, 0.0, 0.0, 0.0, 4.999975161011941e-07, -1.5225748236157316e-34, -9.266048575854877e-36, 0.0, 0.0, 0.0, -1.5225748236157306e-34, 4.999751639553863e-07, 5.2320338559704247e-39, 0.0, 0.0, 0.0, -9.266048575854876e-36, -5.250772801164568e-39, 4.999751639553863e-07, 0.0, 0.0, 0.0, 0.0, 0.0, 0.0, 9.999999006901145e-10]
---
header: 
  seq: 7503
  stamp: 
    secs: 1518208649
    nsecs: 434808254
  frame_id: "swarmone/map"
child_frame_id: "swarmone/base_link"
pose: 
  pose: 
    position: 
      x: 0.282361153675
      y: 3.00961111136
      z: 0.0
    orientation: 
      x: 0.0
      y: 0.0
      z: 0.681638777648
      w: 0.731688852455
  covariance: [1177489708691.852, -82313508449.32051, 0.0, 0.0, 0.0, -1.1294911587625775e-22, -82313508449.32007, 5788968803.0324745, 0.0, 0.0, 0.0, 5.742272545342703e-24, 0.0, 0.0, 4.999748882487951e-07, -2.3776893592524626e-28, -1.1807760465678553e-24, 0.0, 0.0, 0.0, -2.377689359252462e-28, 4.999748882558169e-07, 1.9559533565338695e-34, 0.0, 0.0, 0.0, -1.1807760465678551e-24, -1.955953580481758e-34, 4.999748882558169e-07, 0.0, -1.129491158762577e-22, 5.742272545342703e-24, 0.0, 0.0, 0.0, 9.999979912200546e-10]
twist: 
  twist: 
    linear: 
      x: 6.9840303253e-09
      y: 0.0
      z: 0.0
    angular: 
      x: 0.0
      y: 0.0
      z: 0.0399999999992
  covariance: [0.010996000832806682, 0.0, 0.0, 0.0, 0.0, 0.0, 0.0, 14082110.66990451, 0.0, 0.0, 0.0, 0.0, 0.0, 0.0, 4.999974885615257e-07, -4.136733087203417e-35, -2.1021846739766362e-36, 0.0, 0.0, 0.0, -4.136733087203419e-35, 4.999748882251689e-07, 1.0047434085977703e-38, 0.0, 0.0, 0.0, -2.1021846739766362e-36, -1.0049241604577256e-38, 4.999748882251689e-07, 0.0, 0.0, 0.0, 0.0, 0.0, 0.0, 9.99999899557376e-10]
---
header: 
  seq: 7504
  stamp: 
    secs: 1518208649
    nsecs: 534987688
  frame_id: "swarmone/map"
child_frame_id: "swarmone/base_link"
pose: 
  pose: 
    position: 
      x: 0.282361153727
      y: 3.0096111121
      z: 0.0
    orientation: 
      x: 0.0
      y: 0.0
      z: 0.68163876295
      w: 0.731688866148
  covariance: [1178277800833.5288, -82369480215.62599, 0.0, 0.0, 0.0, -3.6756004859722934e-22, -82369480215.62556, 5792944012.441019, 0.0, 0.0, 0.0, 2.6064697954148447e-23, 0.0, 0.0, 4.999750356228647e-07, -4.371935841207693e-28, -1.5493507130641904e-24, 0.0, 0.0, 0.0, -4.371935841207693e-28, 4.999750356363683e-07, -2.5776960390300424e-34, 0.0, 0.0, 0.0, -1.5493507130641908e-24, 2.577695499838247e-34, 4.999750356363683e-07, 0.0, -3.6756004859722934e-22, 2.6064697954148444e-23, 0.0, 0.0, 0.0, 9.999980037911607e-10]
twist: 
  twist: 
    linear: 
      x: 7.40279997808e-09
      y: 0.0
      z: 0.0
    angular: 
      x: 0.0
      y: 0.0
      z: 0.0399999999996
  covariance: [0.011066852722807103, 0.0, 0.0, 0.0, 0.0, 0.0, 0.0, 14087751.743801452, 0.0, 0.0, 0.0, 0.0, 0.0, 0.0, 4.999975032611576e-07, -2.412705260974378e-34, -1.7107950341376803e-35, 0.0, 0.0, 0.0, -2.4127052609743763e-34, 4.999750355982992e-07, -1.3952366279039357e-38, 0.0, 0.0, 0.0, -1.71079503413768e-35, 1.3898354057067856e-38, 4.999750355982992e-07, 0.0, 0.0, 0.0, 0.0, 0.0, 0.0, 9.999999001791272e-10]
---
header: 
  seq: 7505
  stamp: 
    secs: 1518208649
    nsecs: 634621620
  frame_id: "swarmone/map"
child_frame_id: "swarmone/base_link"
pose: 
  pose: 
    position: 
      x: 0.28236115374
      y: 3.00961111226
      z: 0.0
    orientation: 
      x: 0.0
      y: 0.0
      z: 0.685288664261
      w: 0.728271547319
  covariance: [1179062019745.5107, -82425177506.41937, 0.0, 0.0, 0.0, -6.352436637823062e-23, -82425177506.41895, 5796899771.445384, 0.0, 0.0, 0.0, 4.504774374963739e-24, 0.0, 0.0, 4.999749066788791e-07, -1.7336682083213491e-28, -6.17527110642281e-25, 0.0, 0.0, 0.0, -1.7336682083213491e-28, 4.999749066864843e-07, -1.3019748473400617e-34, 0.0, 0.0, 0.0, -6.17527110642281e-25, 1.301974759003914e-34, 4.999749066864843e-07, 0.0, -6.352436637823065e-23, 4.5047743749637404e-24, 0.0, 0.0, 0.0, 9.999979927313256e-10]
twist: 
  twist: 
    linear: 
      x: 3.44475336727e-09
      y: 0.0
      z: 0.0
    angular: 
      x: 0.0
      y: 0.0
      z: 0.0400000000002
  covariance: [0.011004787016417363, 0.0, 0.0, 0.0, 0.0, 0.0, 0.0, 14093363.5946651, 0.0, 0.0, 0.0, 0.0, 0.0, 0.0, 4.999974904009349e-07, -2.612537150661995e-35, -1.8515213696855905e-36, 0.0, 0.0, 0.0, -2.6125371506619964e-35, 4.999749066551305e-07, 1.6213664531089613e-39, 0.0, 0.0, 0.0, -1.8515213696855898e-36, -1.62234905640122e-39, 4.999749066551305e-07, 0.0, 0.0, 0.0, 0.0, 0.0, 0.0, 9.999998996326067e-10]
---
header: 
  seq: 7506
  stamp: 
    secs: 1518208649
    nsecs: 734311581
  frame_id: "swarmone/map"
child_frame_id: "swarmone/base_link"
pose: 
  pose: 
    position: 
      x: 0.282361153773
      y: 3.0096111128
      z: 0.0
    orientation: 
      x: 0.0
      y: 0.0
      z: 0.681638770289
      w: 0.73168885931
  covariance: [1179847614790.516, -82477026882.96797, 0.0, 0.0, 0.0, -7.953363059504146e-23, -82477026882.96754, 5800301167.321774, 0.0, 0.0, 0.0, 4.841268597967467e-24, 0.0, 0.0, 4.999749211078223e-07, -1.9829821389585783e-28, -8.218618670904717e-25, 0.0, 0.0, 0.0, -1.982982138958578e-28, 4.99974921114909e-07, 1.300715641715944e-34, 0.0, 0.0, 0.0, -8.218618670904713e-25, -1.3007157733055262e-34, 4.99974921114909e-07, 0.0, -7.953363059504145e-23, 4.841268597967468e-24, 0.0, 0.0, 0.0, 9.999979938537828e-10]
twist: 
  twist: 
    linear: 
      x: 4.77253714174e-09
      y: 0.0
      z: 0.0
    angular: 
      x: 0.0
      y: 0.0
      z: 0.0399999999995
  covariance: [0.011011701028028254, 0.0, 0.0, 0.0, 0.0, 0.0, 0.0, 14098980.092690935, 0.0, 0.0, 0.0, 0.0, 0.0, 0.0, 4.999974918475179e-07, -2.957366603715154e-35, -1.798928664375772e-36, 0.0, 0.0, 0.0, -2.9573666037151533e-35, 4.999749210841771e-07, -9.243028650698458e-40, 0.0, 0.0, 0.0, -1.798928664375772e-36, 9.23113152887126e-40, 4.999749210841771e-07, 0.0, 0.0, 0.0, 0.0, 0.0, 0.0, 9.999998996890159e-10]
---
header: 
  seq: 7507
  stamp: 
    secs: 1518208649
    nsecs: 835254192
  frame_id: "swarmone/map"
child_frame_id: "swarmone/base_link"
pose: 
  pose: 
    position: 
      x: 0.282361153812
      y: 3.00961111335
      z: 0.0
    orientation: 
      x: 0.0
      y: 0.0
      z: 0.68163876295
      w: 0.731688866148
  covariance: [1180642983181.6245, -82533514237.35733, 0.0, 0.0, 0.0, -2.69552545266957e-22, -82533514237.35689, 5804312910.782638, 0.0, 0.0, 0.0, 1.9114706958755753e-23, 0.0, 0.0, 4.999752240922707e-07, -3.1300080214190045e-28, -1.1008884739918953e-24, 0.0, 0.0, 0.0, -3.130008021419004e-28, 4.9997522410578e-07, -2.5389243566388014e-34, 0.0, 0.0, 0.0, -1.1008884739918953e-24, 2.5389240766317066e-34, 4.9997522410578e-07, 0.0, -2.6955254526695695e-22, 1.9114706958755753e-23, 0.0, 0.0, 0.0, 9.999980188906874e-10]
twist: 
  twist: 
    linear: 
      x: 5.21279924321e-09
      y: 0.0
      z: 0.0
    angular: 
      x: 0.0
      y: 0.0
      z: 0.0399999999996
  covariance: [0.011159075910102446, 0.0, 0.0, 0.0, 0.0, 0.0, 0.0, 14104668.68489338, 0.0, 0.0, 0.0, 0.0, 0.0, 0.0, 4.999975221118004e-07, -1.7677534586642108e-34, -1.2534057056672302e-35, 0.0, 0.0, 0.0, -1.7677534586642097e-34, 4.999752240676913e-07, 2.5051411517107297e-39, 0.0, 0.0, 0.0, -1.2534057056672294e-35, -2.5346358855021353e-39, 4.999752240676913e-07, 0.0, 0.0, 0.0, 0.0, 0.0, 0.0, 9.999999009338239e-10]
---
header: 
  seq: 7508
  stamp: 
    secs: 1518208649
    nsecs: 934319496
  frame_id: "swarmone/map"
child_frame_id: "swarmone/base_link"
pose: 
  pose: 
    position: 
      x: 0.282361153844
      y: 3.0096111138
      z: 0.0
    orientation: 
      x: 0.0
      y: 0.0
      z: 0.688921433377
      w: 0.724836021893
  covariance: [1181423976130.6067, -82588981282.00806, 0.0, 0.0, 0.0, -8.062555560633269e-23, -82588981282.00758, 5808252237.152164, 0.0, 0.0, 0.0, 5.717493979756487e-24, 0.0, 0.0, 4.999747629105964e-07, -2.3169242400513367e-28, -8.299897094729023e-25, 0.0, 0.0, 0.0, -2.316924240051337e-28, 4.999747629178504e-07, -6.584805300087707e-35, 0.0, 0.0, 0.0, -8.299897094729021e-25, 6.584803773810161e-35, 4.999747629178504e-07, 0.0, -8.06255556063327e-23, 5.7174939797564874e-24, 0.0, 0.0, 0.0, 9.999979812046086e-10]
twist: 
  twist: 
    linear: 
      x: 4.77367223804e-09
      y: 0.0
      z: 0.0
    angular: 
      x: 0.0
      y: 0.0
      z: 0.0400000000005
  covariance: [0.010936226484788703, 0.0, 0.0, 0.0, 0.0, 0.0, 0.0, 14110252.969460739, 0.0, 0.0, 0.0, 0.0, 0.0, 0.0, 4.999974760238989e-07, -3.1128737694349795e-35, -2.2059769946090715e-36, 0.0, 0.0, 0.0, -3.1128737694349795e-35, 4.999747628869335e-07, 5.7644082642813376e-39, 0.0, 0.0, 0.0, -2.2059769946090712e-36, -5.765829424791702e-39, 4.999747628869335e-07, 0.0, 0.0, 0.0, 0.0, 0.0, 0.0, 9.999998990565048e-10]
---
header: 
  seq: 7509
  stamp: 
    secs: 1518208650
    nsecs:  34345388
  frame_id: "swarmone/map"
child_frame_id: "swarmone/base_link"
pose: 
  pose: 
    position: 
      x: 0.282361153865
      y: 3.00961111422
      z: 0.0
    orientation: 
      x: 0.0
      y: 0.0
      z: 0.685288678851
      w: 0.728271533591
  covariance: [1182213922295.3296, -82637153896.07744, 0.0, 0.0, 0.0, -6.952731322245882e-23, -82637153896.07697, 5811108641.747078, 0.0, 0.0, 0.0, 3.534734483470081e-24, 0.0, 0.0, 4.999750054981498e-07, -1.4963920110009823e-28, -7.396607354531368e-25, 0.0, 0.0, 0.0, -1.4963920110009834e-28, 4.999750055049231e-07, -1.9379015363624095e-34, 0.0, 0.0, 0.0, -7.396607354531372e-25, 1.9379014483764227e-34, 4.999750055049231e-07, 0.0, -6.952731322245883e-23, 3.534734483470082e-24, 0.0, 0.0, 0.0, 9.999980005886573e-10]
twist: 
  twist: 
    linear: 
      x: 4.33854757694e-09
      y: 0.0
      z: 0.0
    angular: 
      x: 0.0
      y: 0.0
      z: 0.0300000009993
  covariance: [0.01105240707483469, 0.0, 0.0, 0.0, 0.0, 0.0, 0.0, 14115892.897399347, 0.0, 0.0, 0.0, 0.0, 0.0, 0.0, 4.999975002901002e-07, -2.4584176184775124e-35, -1.2489637106924458e-36, 0.0, 0.0, 0.0, -2.458417618477511e-35, 4.999750054745626e-07, 1.4718513597442224e-39, 0.0, 0.0, 0.0, -1.2489637106924456e-36, -1.4723148031140267e-39, 4.999750054745626e-07, 0.0, 0.0, 0.0, 0.0, 0.0, 0.0, 9.99999900025905e-10]
---
header: 
  seq: 7510
  stamp: 
    secs: 1518208650
    nsecs: 134651899
  frame_id: "swarmone/map"
child_frame_id: "swarmone/base_link"
pose: 
  pose: 
    position: 
      x: 0.282361153903
      y: 3.00961111484
      z: 0.0
    orientation: 
      x: 0.0
      y: 0.0
      z: 0.681638769513
      w: 0.731688860034
  covariance: [1183006065792.057, -82689431603.47174, 0.0, 0.0, 0.0, -9.220397498804517e-23, -82689431603.47128, 5814537920.693411, 0.0, 0.0, 0.0, 5.612530766756778e-24, 0.0, 0.0, 4.999750753198068e-07, -1.742984783339362e-28, -9.563341265833317e-25, 0.0, 0.0, 0.0, -1.7429847833393622e-28, 4.999750753233258e-07, -2.4480939905722035e-40, 0.0, 0.0, 0.0, -9.563341265833317e-25, 2.3127198894741415e-40, 4.999750753233258e-07, 0.0, -9.220397498804518e-23, 5.612530766756778e-24, 0.0, 0.0, 0.0, 9.99998006184293e-10]
twist: 
  twist: 
    linear: 
      x: 5.65859312563e-09
      y: 0.0
      z: 0.0
    angular: 
      x: 0.0
      y: 0.0
      z: 0.0399999990026
  covariance: [0.011086332322963754, 0.0, 0.0, 0.0, 0.0, 0.0, 0.0, 14121550.156932518, 0.0, 0.0, 0.0, 0.0, 0.0, 0.0, 4.999975072725035e-07, -3.330145240357663e-35, -2.0259606294523062e-36, 0.0, 0.0, 0.0, -3.3301452403576634e-35, 4.999750752961802e-07, 1.0171792843322724e-39, 0.0, 0.0, 0.0, -2.0259606294523082e-36, -1.018551761819512e-39, 4.999750752961802e-07, 0.0, 0.0, 0.0, 0.0, 0.0, 0.0, 9.999999003055938e-10]
---
header: 
  seq: 7511
  stamp: 
    secs: 1518208650
    nsecs: 234336615
  frame_id: "swarmone/map"
child_frame_id: "swarmone/base_link"
pose: 
  pose: 
    position: 
      x: 0.282361153951
      y: 3.00961111552
      z: 0.0
    orientation: 
      x: 0.0
      y: 0.0
      z: 0.685288664265
      w: 0.728271547316
  covariance: [1183793200170.844, -82745330839.33937, 0.0, 0.0, 0.0, -1.0579230318097306e-22, -82745330839.3389, 5818507659.884501, 0.0, 0.0, 0.0, 7.502171141718499e-24, 0.0, 0.0, 4.999749198420169e-07, -3.10642310448406e-28, -1.1059173127738353e-24, 0.0, 0.0, 0.0, -3.10642310448406e-28, 4.999749198490049e-07, -1.951012731697049e-34, 0.0, 0.0, 0.0, -1.1059173127738359e-24, 1.951012455889009e-34, 4.999749198490049e-07, 0.0, -1.0579230318097305e-22, 7.502171141718499e-24, 0.0, 0.0, 0.0, 9.99997993747268e-10]
twist: 
  twist: 
    linear: 
      x: 6.52739066226e-09
      y: 0.0
      z: 0.0
    angular: 
      x: 0.0
      y: 0.0
      z: 0.0400000000002
  covariance: [0.01101111974691476, 0.0, 0.0, 0.0, 0.0, 0.0, 0.0, 14127173.844654178, 0.0, 0.0, 0.0, 0.0, 0.0, 0.0, 4.999974917215046e-07, -3.859516935604421e-35, -2.7349361273157018e-36, 0.0, 0.0, 0.0, -3.85951693560442e-35, 4.999749198183908e-07, -8.654214419252198e-39, 0.0, 0.0, 0.0, -2.7349361273157014e-36, 8.652075536245395e-39, 4.999749198183908e-07, 0.0, 0.0, 0.0, 0.0, 0.0, 0.0, 9.999998996837379e-10]
---
header: 
  seq: 7512
  stamp: 
    secs: 1518208650
    nsecs: 335124254
  frame_id: "swarmone/map"
child_frame_id: "swarmone/base_link"
pose: 
  pose: 
    position: 
      x: 0.282361153967
      y: 3.00961111579
      z: 0.0
    orientation: 
      x: 0.0
      y: 0.0
      z: 0.681638770209
      w: 0.731688859385
  covariance: [1184589994069.822, -82797914138.6233, 0.0, 0.0, 0.0, -6.459714349694664e-23, -82797914138.62283, 5821956910.15509, 0.0, 0.0, 0.0, 3.932075703411017e-24, 0.0, 0.0, 4.999751943077674e-07, -1.62816497151152e-28, -6.674821710643456e-25, 0.0, 0.0, 0.0, -1.6281649715115198e-28, 4.999751943146146e-07, -1.2724920850970174e-34, 0.0, 0.0, 0.0, -6.674821710643455e-25, 1.272491994466494e-34, 4.999751943146146e-07, 0.0, -6.459714349694663e-23, 3.932075703411017e-24, 0.0, 0.0, 0.0, 9.999980157024182e-10]
twist: 
  twist: 
    linear: 
      x: 3.88753435768e-09
      y: 0.0
      z: 0.0
    angular: 
      x: 0.0
      y: 0.0
      z: 0.0300000009917
  covariance: [0.011144622368552055, 0.0, 0.0, 0.0, 0.0, 0.0, 0.0, 14132861.27127373, 0.0, 0.0, 0.0, 0.0, 0.0, 0.0, 4.999975191737503e-07, -2.344557032037338e-35, -1.4261248757935472e-36, 0.0, 0.0, 0.0, -2.344557032037338e-35, 4.999751942841403e-07, -7.446568279446393e-39, 0.0, 0.0, 0.0, -1.4261248757935474e-36, 7.445943533607314e-39, 4.999751942841403e-07, 0.0, 0.0, 0.0, 0.0, 0.0, 0.0, 9.999999007815035e-10]
---
header: 
  seq: 7513
  stamp: 
    secs: 1518208650
    nsecs: 434896469
  frame_id: "swarmone/map"
child_frame_id: "swarmone/base_link"
pose: 
  pose: 
    position: 
      x: 0.282361154004
      y: 3.00961111632
      z: 0.0
    orientation: 
      x: 0.0
      y: 0.0
      z: 0.685288663543
      w: 0.728271547995
  covariance: [1185378662577.758, -82853921123.8112, 0.0, 0.0, 0.0, -8.177378098345151e-23, -82853921123.81073, 5825934216.416974, 0.0, 0.0, 0.0, 5.7989296216970994e-24, 0.0, 0.0, 4.999749416765898e-07, -1.7439037598383433e-28, -8.262572566449055e-25, 0.0, 0.0, 0.0, -1.7439037598383435e-28, 4.999749416803888e-07, 1.2982917678120038e-34, 0.0, 0.0, 0.0, -8.262572566449059e-25, -1.2982918844355934e-34, 4.999749416803888e-07, 0.0, -8.177378098345151e-23, 5.798929621697098e-24, 0.0, 0.0, 0.0, 9.999979955096468e-10]
twist: 
  twist: 
    linear: 
      x: 4.77477965801e-09
      y: 0.0
      z: 0.0
    angular: 
      x: 0.0
      y: 0.0
      z: 0.039999998998
  covariance: [0.01102167015943997, 0.0, 0.0, 0.0, 0.0, 0.0, 0.0, 14138492.900943652, 0.0, 0.0, 0.0, 0.0, 0.0, 0.0, 4.999974939036634e-07, -3.148655101375353e-35, -2.2317194633298484e-36, 0.0, 0.0, 0.0, -3.1486551013753565e-35, 4.999749416529084e-07, -6.761184407385985e-39, 0.0, 0.0, 0.0, -2.2317194633298497e-36, 6.759890220067223e-39, 4.999749416529084e-07, 0.0, 0.0, 0.0, 0.0, 0.0, 0.0, 9.999998997717145e-10]
---
header: 
  seq: 7514
  stamp: 
    secs: 1518208650
    nsecs: 534647703
  frame_id: "swarmone/map"
child_frame_id: "swarmone/base_link"
pose: 
  pose: 
    position: 
      x: 0.282361154029
      y: 3.00961111673
      z: 0.0
    orientation: 
      x: 0.0
      y: 0.0
      z: 0.68528867157
      w: 0.728271540442
  covariance: [1186168104932.043, -82906018025.31631, 0.0, 0.0, 0.0, -7.053346296799218e-23, -82906018025.31584, 5829351491.286374, 0.0, 0.0, 0.0, 4.293424001933067e-24, 0.0, 0.0, 4.999749366210859e-07, -1.7974349773734763e-28, -7.445008024058264e-25, 0.0, 0.0, 0.0, -1.797434977373476e-28, 4.999749366279818e-07, -1.2990291347839297e-34, 0.0, 0.0, 0.0, -7.445008024058262e-25, 1.299029025685214e-34, 4.999749366279818e-07, 0.0, -7.053346296799217e-23, 4.2934240019330665e-24, 0.0, 0.0, 0.0, 9.99997995084216e-10]
twist: 
  twist: 
    linear: 
      x: 4.33949784248e-09
      y: 0.0
      z: 0.0
    angular: 
      x: 0.0
      y: 0.0
      z: 0.0300000010024
  covariance: [0.01101921742901372, 0.0, 0.0, 0.0, 0.0, 0.0, 0.0, 14144124.841737911, 0.0, 0.0, 0.0, 0.0, 0.0, 0.0, 4.999974934003617e-07, -2.558558758223507e-35, -1.556299678157047e-36, 0.0, 0.0, 0.0, -2.558558758223507e-35, 4.999749365974789e-07, 1.8127812338136723e-39, 0.0, 0.0, 0.0, -1.556299678157047e-36, -1.8135836875985415e-39, 4.999749365974789e-07, 0.0, 0.0, 0.0, 0.0, 0.0, 0.0, 9.999998997506332e-10]
---
header: 
  seq: 7515
  stamp: 
    secs: 1518208650
    nsecs: 634368420
  frame_id: "swarmone/map"
child_frame_id: "swarmone/base_link"
pose: 
  pose: 
    position: 
      x: 0.28236115406
      y: 3.00961111723
      z: 0.0
    orientation: 
      x: 0.0
      y: 0.0
      z: 0.681638769556
      w: 0.731688859994
  covariance: [1186957725744.716, -82958125437.1512, 0.0, 0.0, 0.0, -7.620267580179459e-23, -82958125437.15074, 5832769385.641702, 0.0, 0.0, 0.0, 4.638522475341887e-24, 0.0, 0.0, 4.999749290042248e-07, -1.4727506365519857e-28, -8.127921727510925e-25, 0.0, 0.0, 0.0, -1.472750636551986e-28, 4.999749290076441e-07, 1.2997830199621027e-34, 0.0, 0.0, 0.0, -8.127921727510926e-25, -1.2997831184630927e-34, 4.999749290076441e-07, 0.0, -7.620267580179457e-23, 4.638522475341887e-24, 0.0, 0.0, 0.0, 9.99997994469681e-10]
twist: 
  twist: 
    linear: 
      x: 4.78320952273e-09
      y: 0.0
      z: 0.0
    angular: 
      x: 0.0
      y: 0.0
      z: 0.0399999989968
  covariance: [0.01101552825023069, 0.0, 0.0, 0.0, 0.0, 0.0, 0.0, 14149756.554253876, 0.0, 0.0, 0.0, 0.0, 0.0, 0.0, 4.99997492639129e-07, -2.7128069316705385e-35, -1.6503778897143957e-36, 0.0, 0.0, 0.0, -2.712806931670536e-35, 4.99974928980638e-07, 7.405003380421029e-40, 0.0, 0.0, 0.0, -1.6503778897143953e-36, -7.413922759317395e-40, 4.99974928980638e-07, 0.0, 0.0, 0.0, 0.0, 0.0, 0.0, 9.999998997199541e-10]
---
header: 
  seq: 7516
  stamp: 
    secs: 1518208650
    nsecs: 735113382
  frame_id: "swarmone/map"
child_frame_id: "swarmone/base_link"
pose: 
  pose: 
    position: 
      x: 0.282361154098
      y: 3.00961111778
      z: 0.0
    orientation: 
      x: 0.0
      y: 0.0
      z: 0.685288664342
      w: 0.728271547244
  covariance: [1187755357623.7012, -83014766311.58157, 0.0, 0.0, 0.0, -8.40625939346286e-23, -83014766311.58113, 5836791520.167596, 0.0, 0.0, 0.0, 5.9612280571694165e-24, 0.0, 0.0, 4.999751838519078e-07, -2.495659104986036e-28, -8.791622240330783e-25, 0.0, 0.0, 0.0, -2.495659104986036e-28, 4.999751838586604e-07, 3.1838841786128887e-34, 0.0, 0.0, 0.0, -8.791622240330781e-25, -3.1838843542816005e-34, 4.999751838586604e-07, 0.0, -8.40625939346286e-23, 5.961228057169416e-24, 0.0, 0.0, 0.0, 9.99998014860866e-10]
twist: 
  twist: 
    linear: 
      x: 5.22285407979e-09
      y: 0.0
      z: 0.0
    angular: 
      x: 0.0
      y: 0.0
      z: 0.0300000009928
  covariance: [0.011139479919997372, 0.0, 0.0, 0.0, 0.0, 0.0, 0.0, 14155447.628738903, 0.0, 0.0, 0.0, 0.0, 0.0, 0.0, 4.999975181285393e-07, -2.969684906289031e-35, -2.1043192491081184e-36, 0.0, 0.0, 0.0, -2.969684906289029e-35, 4.999751838283e-07, 1.3196887988230466e-38, 0.0, 0.0, 0.0, -2.104319249108118e-36, -1.319807522253507e-38, 4.999751838283e-07, 0.0, 0.0, 0.0, 0.0, 0.0, 0.0, 9.999999007394732e-10]
---
header: 
  seq: 7517
  stamp: 
    secs: 1518208650
    nsecs: 834915876
  frame_id: "swarmone/map"
child_frame_id: "swarmone/base_link"
pose: 
  pose: 
    position: 
      x: 0.28236115413
      y: 3.0096111183
      z: 0.0
    orientation: 
      x: 0.0
      y: 0.0
      z: 0.677971827391
      w: 0.735087886762
  covariance: [1188546471315.817, -83066971006.3695, 0.0, 0.0, 0.0, -8.285506014598557e-23, -83066971006.36905, 5840215726.569511, 0.0, 0.0, 0.0, 5.0434621798053515e-24, 0.0, 0.0, 4.999749495480908e-07, -1.6013216932112627e-28, -8.830265040290186e-25, 0.0, 0.0, 0.0, -1.6013216932112627e-28, 4.999749495515018e-07, 1.9465428573601203e-34, 0.0, 0.0, 0.0, -8.83026504029019e-25, -1.9465429725678975e-34, 4.999749495515018e-07, 0.0, -8.285506014598556e-23, 5.04346217980535e-24, 0.0, 0.0, 0.0, 9.999979961130457e-10]
twist: 
  twist: 
    linear: 
      x: 5.22019563788e-09
      y: 0.0
      z: 0.0
    angular: 
      x: 0.0
      y: 0.0
      z: 0.0399999989973
  covariance: [0.011025473763569013, 0.0, 0.0, 0.0, 0.0, 0.0, 0.0, 14161086.967680782, 0.0, 0.0, 0.0, 0.0, 0.0, 0.0, 4.999974946939401e-07, -2.96065063742866e-35, -1.8011907427781415e-36, 0.0, 0.0, 0.0, -2.9606506374286605e-35, 4.99974949524504e-07, 3.515595589844967e-39, 0.0, 0.0, 0.0, -1.8011907427781415e-36, -3.516725152961453e-39, 4.99974949524504e-07, 0.0, 0.0, 0.0, 0.0, 0.0, 0.0, 9.99999899802123e-10]
---
header: 
  seq: 7518
  stamp: 
    secs: 1518208650
    nsecs: 934870243
  frame_id: "swarmone/map"
child_frame_id: "swarmone/base_link"
pose: 
  pose: 
    position: 
      x: 0.282361154162
      y: 3.00961111869
      z: 0.0
    orientation: 
      x: 0.0
      y: 0.0
      z: 0.688921426257
      w: 0.72483602866
  covariance: [1189338087272.9082, -83127164555.44846, 0.0, 0.0, 0.0, -2.1355133041843697e-22, -83127164555.44798, 5844773519.643931, 0.0, 0.0, 0.0, 1.7291373232188224e-23, 0.0, 0.0, 4.999749797394361e-07, -2.9727621150418273e-28, -9.253989904428528e-25, 0.0, 0.0, 0.0, -2.972762115041828e-28, 4.999749797528247e-07, -2.589123268744394e-34, 0.0, 0.0, 0.0, -9.253989904428528e-25, 2.5891230442144164e-34, 4.999749797528247e-07, 0.0, -2.1355133041843697e-22, 1.7291373232188224e-23, 0.0, 0.0, 0.0, 9.999979992901602e-10]
twist: 
  twist: 
    linear: 
      x: 4.33938551046e-09
      y: 0.0
      z: 0.0
    angular: 
      x: 0.0
      y: 0.0
      z: 0.0400000000025
  covariance: [0.011039809994582143, 0.0, 0.0, 0.0, 0.0, 0.0, 0.0, 14166736.389166143, 0.0, 0.0, 0.0, 0.0, 0.0, 0.0, 4.999974976723208e-07, -1.4376491258797523e-34, -1.1639697610191115e-35, 0.0, 0.0, 0.0, -1.4376491258797525e-34, 4.999749797148851e-07, 1.5424587077812007e-38, 0.0, 0.0, 0.0, -1.1639697610191118e-35, -1.5446910188659178e-38, 4.999749797148851e-07, 0.0, 0.0, 0.0, 0.0, 0.0, 0.0, 9.999998999543612e-10]
---
header: 
  seq: 7519
  stamp: 
    secs: 1518208651
    nsecs:  34769297
  frame_id: "swarmone/map"
child_frame_id: "swarmone/base_link"
pose: 
  pose: 
    position: 
      x: 0.282361154147
      y: 3.00961111845
      z: 0.0
    orientation: 
      x: 0.0
      y: 0.0
      z: 0.681638777598
      w: 0.731688852501
  covariance: [1190131253008.9739, -83175525833.61174, 0.0, 0.0, 0.0, 3.815908983538577e-24, -83175525833.61127, 5847640785.788573, 0.0, 0.0, 0.0, -1.9398584650200685e-25, 0.0, 0.0, 4.999749736015247e-07, 7.94549314391344e-30, 3.932422677374519e-26, 0.0, 0.0, 0.0, 7.945493143913437e-30, 4.999749736085905e-07, -2.760009528944874e-39, 0.0, 0.0, 0.0, 3.932422677374518e-26, 2.7599845561560356e-39, 4.999749736085905e-07, 0.0, 3.815908983538576e-24, -1.9398584650200687e-25, 0.0, 0.0, 0.0, 9.99997998052856e-10]
twist: 
  twist: 
    linear: 
      x: -4.64339067276e-10
      y: 0.0
      z: 0.0
    angular: 
      x: 0.0
      y: 0.0
      z: 0.0399999999992
  covariance: [0.011037030556631034, 0.0, 0.0, 0.0, 0.0, 0.0, 0.0, 14172384.18542971, 0.0, 0.0, 0.0, 0.0, 0.0, 0.0, 4.999974970979799e-07, 1.8455351417388459e-37, 9.331794892337782e-39, 0.0, 0.0, 0.0, 1.8455351417388454e-37, 4.999749735778794e-07, 3.25305314245947e-39, 0.0, 0.0, 0.0, 9.331794892337779e-39, -3.253053143186534e-39, 4.999749735778794e-07, 0.0, 0.0, 0.0, 0.0, 0.0, 0.0, 9.99999899898971e-10]
---
header: 
  seq: 7520
  stamp: 
    secs: 1518208651
    nsecs: 134867668
  frame_id: "swarmone/map"
child_frame_id: "swarmone/base_link"
pose: 
  pose: 
    position: 
      x: 0.282361154232
      y: 3.00961111969
      z: 0.0
    orientation: 
      x: 0.0
      y: 0.0
      z: 0.685288664295
      w: 0.728271547287
  covariance: [1190925457526.0547, -83231920818.10257, 0.0, 0.0, 0.0, -1.3560575297779454e-22, -83231920818.1021, 5851645281.7302065, 0.0, 0.0, 0.0, 9.616364782855328e-24, 0.0, 0.0, 4.999750234369557e-07, -3.938837879567954e-28, -1.3964962620522105e-24, 0.0, 0.0, 0.0, -3.938837879567953e-28, 4.999750234439774e-07, -3.225144278597943e-34, 0.0, 0.0, 0.0, -1.3964962620522103e-24, 3.225143836752402e-34, 4.999750234439774e-07, 0.0, -1.3560575297779451e-22, 9.616364782855325e-24, 0.0, 0.0, 0.0, 9.999980020392894e-10]
twist: 
  twist: 
    linear: 
      x: 8.33378411253e-09
      y: 0.0
      z: 0.0
    angular: 
      x: 0.0
      y: 0.0
      z: 0.0400000000002
  covariance: [0.011061141887432926, 0.0, 0.0, 0.0, 0.0, 0.0, 0.0, 14178044.755493516, 0.0, 0.0, 0.0, 0.0, 0.0, 0.0, 4.999975020825575e-07, -4.915893580525624e-35, -3.483489368937619e-36, 0.0, 0.0, 0.0, -4.915893580525624e-35, 4.999750234133104e-07, 6.197633741638932e-40, 0.0, 0.0, 0.0, -3.483489368937622e-36, -6.231679720332633e-40, 4.999750234133104e-07, 0.0, 0.0, 0.0, 0.0, 0.0, 0.0, 9.999999000982943e-10]
---
header: 
  seq: 7521
  stamp: 
    secs: 1518208651
    nsecs: 234659910
  frame_id: "swarmone/map"
child_frame_id: "swarmone/base_link"
pose: 
  pose: 
    position: 
      x: 0.282361154238
      y: 3.0096111198
      z: 0.0
    orientation: 
      x: 0.0
      y: 0.0
      z: 0.68528867157
      w: 0.728271540442
  covariance: [1191718177105.2974, -83284228919.03717, 0.0, 0.0, 0.0, -5.971975301883925e-23, -83284228919.0367, 5855076125.152679, 0.0, 0.0, 0.0, 3.635184984694262e-24, 0.0, 0.0, 4.99974946759693e-07, -1.4731233514241855e-28, -6.099252025770567e-25, 0.0, 0.0, 0.0, -1.4731233514241855e-28, 4.999749467668549e-07, -1.2979873283052195e-34, 0.0, 0.0, 0.0, -6.099252025770572e-25, 1.2979872600507687e-34, 4.999749467668549e-07, 0.0, -5.971975301883925e-23, 3.635184984694263e-24, 0.0, 0.0, 0.0, 9.999979959109847e-10]
twist: 
  twist: 
    linear: 
      x: 3.48571054798e-09
      y: 0.0
      z: 0.0
    angular: 
      x: 0.0
      y: 0.0
      z: 0.0399999999999
  covariance: [0.011024078906238025, 0.0, 0.0, 0.0, 0.0, 0.0, 0.0, 14183689.514063068, 0.0, 0.0, 0.0, 0.0, 0.0, 0.0, 4.999974944126551e-07, -2.2812838335280385e-35, -1.387693482785489e-36, 0.0, 0.0, 0.0, -2.2812838335280393e-35, 4.999749467360293e-07, -7.413621260639746e-40, 0.0, 0.0, 0.0, -1.3876934827854895e-36, 7.407365957081167e-40, 4.999749467360293e-07, 0.0, 0.0, 0.0, 0.0, 0.0, 0.0, 9.99999899791829e-10]
---
header: 
  seq: 7522
  stamp: 
    secs: 1518208651
    nsecs: 335333586
  frame_id: "swarmone/map"
child_frame_id: "swarmone/base_link"
pose: 
  pose: 
    position: 
      x: 0.282361154279
      y: 3.00961112048
      z: 0.0
    orientation: 
      x: 0.0
      y: 0.0
      z: 0.68892144081
      w: 0.724836014828
  covariance: [1192518325832.586, -83337025887.04655, 0.0, 0.0, 0.0, -9.376591796795709e-23, -83337025887.04605, 5858538957.058791, 0.0, 0.0, 0.0, 5.7075946434293235e-24, 0.0, 0.0, 4.99975166173296e-07, -2.337830129271985e-28, -9.594998501354429e-25, 0.0, 0.0, 0.0, -2.337830129271985e-28, 4.999751661802484e-07, 2.575045894061843e-39, 0.0, 0.0, 0.0, -9.594998501354433e-25, -2.5929953207536423e-39, 4.999751661802484e-07, 0.0, -9.37659179679571e-23, 5.7075946434293235e-24, 0.0, 0.0, 0.0, 9.999980134570524e-10]
twist: 
  twist: 
    linear: 
      x: 5.686066263e-09
      y: 0.0
      z: 0.0
    angular: 
      x: 0.0
      y: 0.0
      z: 0.0300000009935
  covariance: [0.011130802351941747, 0.0, 0.0, 0.0, 0.0, 0.0, 0.0, 14189385.648966337, 0.0, 0.0, 0.0, 0.0, 0.0, 0.0, 4.999975163591427e-07, -3.397682200265043e-35, -2.0666956047085214e-36, 0.0, 0.0, 0.0, -3.397682200265043e-35, 4.9997516614965e-07, 5.427452211702871e-39, 0.0, 0.0, 0.0, -2.0666956047085214e-36, -5.428859012665331e-39, 4.9997516614965e-07, 0.0, 0.0, 0.0, 0.0, 0.0, 0.0, 9.999999006691867e-10]
---
header: 
  seq: 7523
  stamp: 
    secs: 1518208651
    nsecs: 434982777
  frame_id: "swarmone/map"
child_frame_id: "swarmone/base_link"
pose: 
  pose: 
    position: 
      x: 0.282361154297
      y: 3.00961112085
      z: 0.0
    orientation: 
      x: 0.0
      y: 0.0
      z: 0.681638776903
      w: 0.731688853148
  covariance: [1193311197634.8496, -83385363979.453, 0.0, 0.0, 0.0, -6.97313894823837e-23, -83385363979.45248, 5861404627.763716, 0.0, 0.0, 0.0, 3.5451178295856995e-24, 0.0, 0.0, 4.999749110081847e-07, -1.1255930137974463e-28, -7.438885723617325e-25, 0.0, 0.0, 0.0, -1.125593013797447e-28, 4.999749110116171e-07, 9.762991338295558e-35, 0.0, 0.0, 0.0, -7.438885723617323e-25, -9.762992010396708e-35, 4.999749110116171e-07, 0.0, -6.973138948238369e-23, 3.5451178295856995e-24, 0.0, 0.0, 0.0, 9.999979930301247e-10]
twist: 
  twist: 
    linear: 
      x: 4.36420337496e-09
      y: 0.0
      z: 0.0
    angular: 
      x: 0.0
      y: 0.0
      z: 0.0499999979922
  covariance: [0.011006937111857202, 0.0, 0.0, 0.0, 0.0, 0.0, 0.0, 14195025.31997881, 0.0, 0.0, 0.0, 0.0, 0.0, 0.0, 4.999974908391531e-07, -2.5101238990156804e-35, -1.2754561169103055e-36, 0.0, 0.0, 0.0, -2.51012389901568e-35, 4.99974910984598e-07, 2.975354739608081e-39, 0.0, 0.0, 0.0, -1.2754561169103051e-36, -2.975996491515033e-39, 4.99974910984598e-07, 0.0, 0.0, 0.0, 0.0, 0.0, 0.0, 9.999998996479757e-10]
---
header: 
  seq: 7524
  stamp: 
    secs: 1518208651
    nsecs: 534534454
  frame_id: "swarmone/map"
child_frame_id: "swarmone/base_link"
pose: 
  pose: 
    position: 
      x: 0.282361154341
      y: 3.00961112147
      z: 0.0
    orientation: 
      x: 0.0
      y: 0.0
      z: 0.685288664983
      w: 0.72827154664
  covariance: [1194102749747.9482, -83441565244.6947, 0.0, 0.0, 0.0, -9.499157797002387e-23, -83441565244.69418, 5865394987.262424, 0.0, 0.0, 0.0, 6.736226079107086e-24, 0.0, 0.0, 4.999748862161083e-07, -3.412195902425748e-28, -9.74083969222011e-25, 0.0, 0.0, 0.0, -3.412195902425748e-28, 4.999748862267387e-07, -1.3041171034590369e-34, 0.0, 0.0, 0.0, -9.74083969222011e-25, 1.3041168369129696e-34, 4.999748862267387e-07, 0.0, -9.499157797002385e-23, 6.736226079107087e-24, 0.0, 0.0, 0.0, 9.999979910680076e-10]
twist: 
  twist: 
    linear: 
      x: 5.68004466097e-09
      y: 0.0
      z: 0.0
    angular: 
      x: 0.0
      y: 0.0
      z: 0.0400000010047
  covariance: [0.010994986634184538, 0.0, 0.0, 0.0, 0.0, 0.0, 0.0, 14200660.964171035, 0.0, 0.0, 0.0, 0.0, 0.0, 0.0, 4.999974883570329e-07, -3.560106230500082e-35, -2.522410637141784e-36, 0.0, 0.0, 0.0, -3.5601062305000815e-35, 4.99974886192445e-07, -4.137713022255799e-39, 0.0, 0.0, 0.0, -2.5224106371417838e-36, 4.135925993018483e-39, 4.99974886192445e-07, 0.0, 0.0, 0.0, 0.0, 0.0, 0.0, 9.999998995496784e-10]
---
header: 
  seq: 7525
  stamp: 
    secs: 1518208651
    nsecs: 635230780
  frame_id: "swarmone/map"
child_frame_id: "swarmone/base_link"
pose: 
  pose: 
    position: 
      x: 0.282361154352
      y: 3.00961112166
      z: 0.0
    orientation: 
      x: 0.0
      y: 0.0
      z: 0.677971827996
      w: 0.735087886204
  covariance: [1194904358222.3357, -83494454512.41922, 0.0, 0.0, 0.0, -5.115240819151895e-23, -83494454512.4187, 5868863647.375551, 0.0, 0.0, 0.0, 3.11368488666962e-24, 0.0, 0.0, 4.999751718122462e-07, -1.2892931471895402e-28, -5.290358204532204e-25, 0.0, 0.0, 0.0, -1.2892931471895395e-28, 4.999751718191055e-07, -1.4571607490978744e-39, 0.0, 0.0, 0.0, -5.290358204532201e-25, 1.4519441623881677e-39, 4.999751718191055e-07, 0.0, -5.1152408191518957e-23, 3.1136848866696205e-24, 0.0, 0.0, 0.0, 9.999980139029486e-10]
twist: 
  twist: 
    linear: 
      x: 3.04515959805e-09
      y: 0.0
      z: 0.0
    angular: 
      x: 0.0
      y: 0.0
      z: 0.0399999999992
  covariance: [0.01113355635775598, 0.0, 0.0, 0.0, 0.0, 0.0, 0.0, 14206362.924389295, 0.0, 0.0, 0.0, 0.0, 0.0, 0.0, 4.999975169237357e-07, -1.8740938051243657e-35, -1.1399668029604393e-36, 0.0, 0.0, 0.0, -1.874093805124365e-35, 4.999751717886191e-07, 6.047617626525467e-39, 0.0, 0.0, 0.0, -1.1399668029604388e-36, -6.047986186395827e-39, 4.999751717886191e-07, 0.0, 0.0, 0.0, 0.0, 0.0, 0.0, 9.999999006915292e-10]
---
header: 
  seq: 7526
  stamp: 
    secs: 1518208651
    nsecs: 735050678
  frame_id: "swarmone/map"
child_frame_id: "swarmone/base_link"
pose: 
  pose: 
    position: 
      x: 0.28236115441
      y: 3.00961112241
      z: 0.0
    orientation: 
      x: 0.0
      y: 0.0
      z: 0.688921426226
      w: 0.724836028689
  covariance: [1195698287184.2896, -83554816629.66895, 0.0, 0.0, 0.0, -1.020280949487932e-22, -83554816629.66843, 5873433563.822907, 0.0, 0.0, 0.0, 8.261404720598957e-24, 0.0, 0.0, 4.999749537014012e-07, -3.347806177564718e-28, -1.043194701684292e-24, 0.0, 0.0, 0.0, -3.3478061775647183e-28, 4.999749537085401e-07, -6.486491888185119e-35, 0.0, 0.0, 0.0, -1.0431947016842914e-24, 6.486489080906638e-35, 4.999749537085401e-07, 0.0, -1.0202809494879321e-22, 8.261404720598959e-24, 0.0, 0.0, 0.0, 9.99997996466263e-10]
twist: 
  twist: 
    linear: 
      x: 6.12490607659e-09
      y: 0.0
      z: 0.0
    angular: 
      x: 0.0
      y: 0.0
      z: 0.0400000000009
  covariance: [0.011027458299497968, 0.0, 0.0, 0.0, 0.0, 0.0, 0.0, 14212016.762938917, 0.0, 0.0, 0.0, 0.0, 0.0, 0.0, 4.999974951069707e-07, -3.8277244071954395e-35, -3.097204560098976e-36, 0.0, 0.0, 0.0, -3.8277244071954405e-35, 4.999749536777377e-07, -3.2056449596044004e-39, 0.0, 0.0, 0.0, -3.097204560098975e-36, 3.203054658604782e-39, 4.999749536777377e-07, 0.0, 0.0, 0.0, 0.0, 0.0, 0.0, 9.999998998195932e-10]
---
header: 
  seq: 7527
  stamp: 
    secs: 1518208651
    nsecs: 835002184
  frame_id: "swarmone/map"
child_frame_id: "swarmone/base_link"
pose: 
  pose: 
    position: 
      x: 0.282361154417
      y: 3.00961112258
      z: 0.0
    orientation: 
      x: 0.0
      y: 0.0
      z: 0.677971835452
      w: 0.735087879327
  covariance: [1196495259907.306, -83603400548.14723, 0.0, 0.0, 0.0, -3.706708604881695e-22, -83603400548.14671, 5876313562.121008, 0.0, 0.0, 0.0, 1.8843193356759843e-23, 0.0, 0.0, 4.99974961782063e-07, -1.4702965287988549e-28, -7.2810480162306975e-25, 0.0, 0.0, 0.0, -1.4702965287988553e-28, 4.999749617988804e-07, 6.48033649028271e-35, 0.0, 0.0, 0.0, -7.281048016230699e-25, -6.480337375476303e-35, 4.999749617988804e-07, 0.0, -3.7067086048816953e-22, 1.8843193356759837e-23, 0.0, 0.0, 0.0, 9.999979995098676e-10]
twist: 
  twist: 
    linear: 
      x: 3.05574344879e-09
      y: 0.0
      z: 0.0
    angular: 
      x: 0.0
      y: 0.0
      z: 0.0300000009924
  covariance: [0.011031030457585184, 0.0, 0.0, 0.0, 0.0, 0.0, 0.0, 14217679.558609681, 0.0, 0.0, 0.0, 0.0, 0.0, 0.0, 4.999974958559548e-07, -1.8572832072184057e-34, -9.438875791825191e-36, 0.0, 0.0, 0.0, -1.8572832072184057e-34, 4.99974961757219e-07, 3.310825790125983e-39, 0.0, 0.0, 0.0, -9.438875791825192e-36, -3.3373923170546775e-39, 4.99974961757219e-07, 0.0, 0.0, 0.0, 0.0, 0.0, 0.0, 9.99999899951474e-10]
---
header: 
  seq: 7528
  stamp: 
    secs: 1518208651
    nsecs: 934487581
  frame_id: "swarmone/map"
child_frame_id: "swarmone/base_link"
pose: 
  pose: 
    position: 
      x: 0.282361154503
      y: 3.00961112369
      z: 0.0
    orientation: 
      x: 0.0
      y: 0.0
      z: 0.681638754864
      w: 0.73168887368
  covariance: [1197287369670.6375, -83663623169.66437, 0.0, 0.0, 0.0, -1.4219675795797969e-22, -83663623169.66386, 5880872814.369125, 0.0, 0.0, 0.0, 1.1513938539792466e-23, 0.0, 0.0, 4.999748695378357e-07, -3.5370609320480427e-28, -1.4730165933964081e-24, 0.0, 0.0, 0.0, -3.5370609320480423e-28, 4.99974869541503e-07, -3.264834170436803e-34, 0.0, 0.0, 0.0, -1.4730165933964076e-24, 3.264833753708346e-34, 4.99974869541503e-07, 0.0, -1.4219675795797969e-22, 1.1513938539792465e-23, 0.0, 0.0, 0.0, 9.999979897286006e-10]
twist: 
  twist: 
    linear: 
      x: 8.74666594108e-09
      y: 0.0
      z: 0.0
    angular: 
      x: 0.0
      y: 0.0
      z: 0.0399999989951
  covariance: [0.010986981404162375, 0.0, 0.0, 0.0, 0.0, 0.0, 0.0, 14223317.440242762, 0.0, 0.0, 0.0, 0.0, 0.0, 0.0, 4.999974866894444e-07, -5.234469820561465e-35, -4.2291275689568914e-36, 0.0, 0.0, 0.0, -5.234469820561464e-35, 4.999748695141909e-07, -1.1412000649636263e-38, 0.0, 0.0, 0.0, -4.22912756895689e-36, 1.1407291214944818e-38, 4.999748695141909e-07, 0.0, 0.0, 0.0, 0.0, 0.0, 0.0, 9.999998994827553e-10]
---
header: 
  seq: 7529
  stamp: 
    secs: 1518208652
    nsecs:  35313368
  frame_id: "swarmone/map"
child_frame_id: "swarmone/base_link"
pose: 
  pose: 
    position: 
      x: 0.282361154502
      y: 3.00961112367
      z: 0.0
    orientation: 
      x: 0.0
      y: 0.0
      z: 0.685288664348
      w: 0.728271547238
  covariance: [1198091189829.159, -83720694569.57137, 0.0, 0.0, 0.0, -4.4098379493960883e-23, -83720694569.57088, 5884924889.872075, 0.0, 0.0, 0.0, 3.1272044362726367e-24, 0.0, 0.0, 4.99975203693307e-07, -1.294906238320181e-28, -4.558017350323152e-25, 0.0, 0.0, 0.0, -1.294906238320181e-28, 4.999752037001401e-07, 1.907248520800693e-34, 0.0, 0.0, 0.0, -4.558017350323151e-25, -1.9072485663232571e-34, 4.999752037001401e-07, 0.0, -4.409837949396089e-23, 3.1272044362726374e-24, 0.0, 0.0, 0.0, 9.999980164531897e-10]
twist: 
  twist: 
    linear: 
      x: 2.58838374352e-09
      y: 0.0
      z: 0.0
    angular: 
      x: 0.0
      y: 0.0
      z: 0.0400000000002
  covariance: [0.011149221859795076, 0.0, 0.0, 0.0, 0.0, 0.0, 0.0, 14229032.802820524, 0.0, 0.0, 0.0, 0.0, 0.0, 0.0, 4.999975201124972e-07, -1.630147898513147e-35, -1.1551906878898097e-36, 0.0, 0.0, 0.0, -1.6301478985131478e-35, 4.999752036696799e-07, -1.5142739287695324e-39, 0.0, 0.0, 0.0, -1.1551906878898102e-36, 1.513851732905366e-39, 4.999752036696799e-07, 0.0, 0.0, 0.0, 0.0, 0.0, 0.0, 9.999999008190424e-10]
---
header: 
  seq: 7530
  stamp: 
    secs: 1518208652
    nsecs: 134732008
  frame_id: "swarmone/map"
child_frame_id: "swarmone/base_link"
pose: 
  pose: 
    position: 
      x: 0.282361154516
      y: 3.00961112389
      z: 0.0
    orientation: 
      x: 0.0
      y: 0.0
      z: 0.68528867157
      w: 0.728271540442
  covariance: [1198884736894.8188, -83773050957.20557, 0.0, 0.0, 0.0, -3.8562395960344734e-23, -83773050957.2051, 5888358545.746031, 0.0, 0.0, 0.0, 2.3473203303622275e-24, 0.0, 0.0, 4.999748526082991e-07, -9.512191072902265e-29, -3.953127436476772e-25, 0.0, 0.0, 0.0, -9.512191072902261e-29, 4.999748526155128e-07, 6.53792299405195e-35, 0.0, 0.0, 0.0, -3.953127436476769e-25, -6.537923279224125e-35, 4.999748526155128e-07, 0.0, -3.8562395960344734e-23, 2.3473203303622275e-24, 0.0, 0.0, 0.0, 9.999979883796663e-10]
twist: 
  twist: 
    linear: 
      x: 2.17481258676e-09
      y: 0.0
      z: 0.0
    angular: 
      x: 0.0
      y: 0.0
      z: 0.0399999999999
  covariance: [0.010978923674090337, 0.0, 0.0, 0.0, 0.0, 0.0, 0.0, 14234669.899532551, 0.0, 0.0, 0.0, 0.0, 0.0, 0.0, 4.999974849955494e-07, -1.5344230800547726e-35, -9.334064743844609e-37, 0.0, 0.0, 0.0, -1.5344230800547724e-35, 4.99974852584636e-07, 4.187897567851939e-40, 0.0, 0.0, 0.0, -9.334064743844609e-37, -4.191333816658145e-40, 4.99974852584636e-07, 0.0, 0.0, 0.0, 0.0, 0.0, 0.0, 9.999998994152605e-10]
---
header: 
  seq: 7531
  stamp: 
    secs: 1518208652
    nsecs: 234727144
  frame_id: "swarmone/map"
child_frame_id: "swarmone/base_link"
pose: 
  pose: 
    position: 
      x: 0.282361154561
      y: 3.00961112462
      z: 0.0
    orientation: 
      x: 0.0
      y: 0.0
      z: 0.681638770267
      w: 0.731688859331
  covariance: [1199683309197.0012, -83825737557.36584, 0.0, 0.0, 0.0, -9.521763896210506e-23, -83825737557.36534, 5891813782.274563, 0.0, 0.0, 0.0, 5.795960967627288e-24, 0.0, 0.0, 4.99974997596251e-07, -2.34872066050359e-28, -9.704881531220994e-25, 0.0, 0.0, 0.0, -2.3487206605035905e-28, 4.999749976033851e-07, -1.2927322028265576e-34, 0.0, 0.0, 0.0, -9.704881531220992e-25, 1.292732021649551e-34, 4.999749976033851e-07, 0.0, -9.521763896210507e-23, 5.795960967627287e-24, 0.0, 0.0, 0.0, 9.999979999774823e-10]
twist: 
  twist: 
    linear: 
      x: 5.69853449302e-09
      y: 0.0
      z: 0.0
    angular: 
      x: 0.0
      y: 0.0
      z: 0.0399999999995
  covariance: [0.011048595931869257, 0.0, 0.0, 0.0, 0.0, 0.0, 0.0, 14240341.185529092, 0.0, 0.0, 0.0, 0.0, 0.0, 0.0, 4.999974994973695e-07, -3.5269812557114586e-35, -2.1453879801279016e-36, 0.0, 0.0, 0.0, -3.526981255711458e-35, 4.999749975725872e-07, -9.888222618841309e-39, 0.0, 0.0, 0.0, -2.1453879801279026e-36, 9.886657195307632e-39, 4.999749975725872e-07, 0.0, 0.0, 0.0, 0.0, 0.0, 0.0, 9.999998999951554e-10]
---
header: 
  seq: 7532
  stamp: 
    secs: 1518208652
    nsecs: 334669590
  frame_id: "swarmone/map"
child_frame_id: "swarmone/base_link"
pose: 
  pose: 
    position: 
      x: 0.282361154605
      y: 3.00961112524
      z: 0.0
    orientation: 
      x: 0.0
      y: 0.0
      z: 0.688921433505
      w: 0.724836021771
  covariance: [1200481359369.9155, -83882396686.58003, 0.0, 0.0, 0.0, -1.0212177836674523e-22, -83882396686.57953, 5895836402.31663, 0.0, 0.0, 0.0, 7.241876708993759e-24, 0.0, 0.0, 4.999749844141199e-07, -2.9346690969269527e-28, -1.0420924181584635e-24, 0.0, 0.0, 0.0, -2.9346690969269554e-28, 4.999749844212522e-07, 6.469751966477264e-35, 0.0, 0.0, 0.0, -1.0420924181584639e-24, -6.469754443904254e-35, 4.999749844212522e-07, 0.0, -1.0212177836674523e-22, 7.241876708993759e-24, 0.0, 0.0, 0.0, 9.999979989230225e-10]
twist: 
  twist: 
    linear: 
      x: 6.12641795121e-09
      y: 0.0
      z: 0.0
    angular: 
      x: 0.0
      y: 0.0
      z: 0.0400000000005
