header: 
  seq: 10838
  stamp: 
    secs: 1518208982
    nsecs: 935255766
  frame_id: "swarmone/map"
child_frame_id: "swarmone/base_link"
pose: 
  pose: 
    position: 
      x: 0.698180112962
      y: 8.15432075169
      z: 0.0
    orientation: 
      x: 0.0
      y: 0.0
      z: 0.681638762218
      w: 0.731688866829
  covariance: [7392870338195.187, -430928301706.141, 0.0, 0.0, 0.0, 6.679695393366069e-23, -430928301706.1374, 25131143082.455334, 0.0, 0.0, 0.0, -4.736861919266188e-24, 0.0, 0.0, 4.999750408562633e-07, 1.4551664972788e-28, 6.867325795616603e-25, 0.0, 0.0, 0.0, 1.4551664972787998e-28, 4.999750408598679e-07, 3.8646849663480685e-34, 0.0, 0.0, 0.0, 6.867325795616602e-25, -3.864685042952343e-34, 4.999750408598679e-07, 0.0, 6.679695393366068e-23, -4.736861919266187e-24, 0.0, 0.0, 0.0, 9.999980034326941e-10]
twist: 
  twist: 
    linear: 
      x: -4.04497636028e-09
      y: 0.0
      z: 0.0
    angular: 
      x: 0.0
      y: 0.0
      z: 0.0399999990016
  covariance: [0.011069604914185138, 0.0, 0.0, 0.0, 0.0, 0.0, 0.0, 42440891.70994857, 0.0, 0.0, 0.0, 0.0, 0.0, 0.0, 4.999975038248493e-07, 2.445361301607918e-35, 1.7331783304662e-36, 0.0, 0.0, 0.0, 2.4453613016079163e-35, 4.999750408326179e-07, 5.032605334309837e-40, 0.0, 0.0, 0.0, 1.7331783304662e-36, -5.04101598586903e-40, 4.999750408326179e-07, 0.0, 0.0, 0.0, 0.0, 0.0, 0.0, 9.99999900167965e-10]
---
header: 
  seq: 10839
  stamp: 
    secs: 1518208983
    nsecs:  35277605
  frame_id: "swarmone/map"
child_frame_id: "swarmone/base_link"
pose: 
  pose: 
    position: 
      x: 0.698180112934
      y: 8.15432075129
      z: 0.0
    orientation: 
      x: 0.0
      y: 0.0
      z: 0.677971820745
      w: 0.735087892892
  covariance: [7396293045966.078, -431149548689.10297, 0.0, 0.0, 0.0, 6.676319783760037e-23, -431149548689.09937, 25145309994.952415, 0.0, 0.0, 0.0, -4.734457223838998e-24, 0.0, 0.0, 4.999750043250724e-07, 1.939238230789898e-28, 6.880713870360875e-25, 0.0, 0.0, 0.0, 1.9392382307898976e-28, 4.999750043321045e-07, -1.292030692059009e-34, 0.0, 0.0, 0.0, 6.880713870360874e-25, 1.2920305836760345e-34, 4.999750043321045e-07, 0.0, 6.676319783760037e-23, -4.734457223838998e-24, 0.0, 0.0, 0.0, 9.999980005104925e-10]
twist: 
  twist: 
    linear: 
      x: -4.04077647995e-09
      y: 0.0
      z: 0.0
    angular: 
      x: 0.0
      y: 0.0
      z: 0.0300000009993
  covariance: [0.011051901745230752, 0.0, 0.0, 0.0, 0.0, 0.0, 0.0, 42452642.625747554, 0.0, 0.0, 0.0, 0.0, 0.0, 0.0, 4.999975001709726e-07, 2.4617289028024214e-35, 1.744470793893377e-36, 0.0, 0.0, 0.0, 2.46172890280242e-35, 4.99975004301427e-07, 2.3664433037386155e-39, 0.0, 0.0, 0.0, 1.7444707938933755e-36, -2.3672868912476063e-39, 4.99975004301427e-07, 0.0, 0.0, 0.0, 0.0, 0.0, 0.0, 9.999999000218537e-10]
---
header: 
  seq: 10840
  stamp: 
    secs: 1518208983
    nsecs: 135275602
  frame_id: "swarmone/map"
child_frame_id: "swarmone/base_link"
pose: 
  pose: 
    position: 
      x: 0.698180112897
      y: 8.15432075083
      z: 0.0
    orientation: 
      x: 0.0
      y: 0.0
      z: 0.681638754902
      w: 0.731688873645
  covariance: [7399713604767.349, -431387866003.18475, 0.0, 0.0, 0.0, 7.468503904178823e-23, -431387866003.18115, 25161477275.480072, 0.0, 0.0, 0.0, -6.04740079299661e-24, 0.0, 0.0, 4.999749983116251e-07, 1.8379682272428983e-28, 7.615146426965623e-25, 0.0, 0.0, 0.0, 1.8379682272428983e-28, 4.999749983153167e-07, -1.269336054513025e-38, 0.0, 0.0, 0.0, 7.615146426965624e-25, 1.268200234244826e-38, 4.999749983153167e-07, 0.0, 7.468503904178822e-23, -6.047400792996612e-24, 0.0, 0.0, 0.0, 9.999980000347063e-10]
twist: 
  twist: 
    linear: 
      x: -4.47479727641e-09
      y: 0.0
      z: 0.0
    angular: 
      x: 0.0
      y: 0.0
      z: 0.0399999990002
  covariance: [0.011048986533243725, 0.0, 0.0, 0.0, 0.0, 0.0, 0.0, 42464392.90858839, 0.0, 0.0, 0.0, 0.0, 0.0, 0.0, 4.999974995689218e-07, 2.7807842835567784e-35, 2.2504647888231892e-36, 0.0, 0.0, 0.0, 2.780784283556779e-35, 4.999749982879614e-07, -1.2364677194708753e-38, 0.0, 0.0, 0.0, 2.25046478882319e-36, 1.236335778925038e-38, 4.999749982879614e-07, 0.0, 0.0, 0.0, 0.0, 0.0, 0.0, 9.999998999980169e-10]
---
header: 
  seq: 10841
  stamp: 
    secs: 1518208983
    nsecs: 235242367
  frame_id: "swarmone/map"
child_frame_id: "swarmone/base_link"
pose: 
  pose: 
    position: 
      x: 0.698180112866
      y: 8.15432075039
      z: 0.0
    orientation: 
      x: 0.0
      y: 0.0
      z: 0.68163876295
      w: 0.731688866147
  covariance: [7403136958204.174, -431609169638.73315, 0.0, 0.0, 0.0, 7.363692905041403e-23, -431609169638.7295, 25175648975.119366, 0.0, 0.0, 0.0, -5.221905198106828e-24, 0.0, 0.0, 4.999749905535537e-07, 2.1388966606307844e-28, 7.593295527327642e-25, 0.0, 0.0, 0.0, 2.138896660630783e-28, 4.999749905605933e-07, -6.465874336816319e-35, 0.0, 0.0, 0.0, 7.593295527327642e-25, 6.465873021798551e-35, 4.999749905605933e-07, 0.0, 7.363692905041405e-23, -5.221905198106828e-24, 0.0, 0.0, 0.0, 9.999979994088819e-10]
twist: 
  twist: 
    linear: 
      x: -4.4682437349e-09
      y: 0.0
      z: 0.0
    angular: 
      x: 0.0
      y: 0.0
      z: 0.0399999999999
  covariance: [0.011045232631175066, 0.0, 0.0, 0.0, 0.0, 0.0, 0.0, 42476141.688402146, 0.0, 0.0, 0.0, 0.0, 0.0, 0.0, 4.999974987935349e-07, 2.7079868598824757e-35, 1.918989951915947e-36, 0.0, 0.0, 0.0, 2.7079868598824746e-35, 4.999749905299084e-07, 3.7940904665140594e-39, 0.0, 0.0, 0.0, 1.9189899519159472e-36, -3.7951795825136054e-39, 4.999749905299084e-07, 0.0, 0.0, 0.0, 0.0, 0.0, 0.0, 9.999998999667728e-10]
---
header: 
  seq: 10842
  stamp: 
    secs: 1518208983
    nsecs: 335146666
  frame_id: "swarmone/map"
child_frame_id: "swarmone/base_link"
pose: 
  pose: 
    position: 
      x: 0.698180112817
      y: 8.1543207497
      z: 0.0
    orientation: 
      x: 0.0
      y: 0.0
      z: 0.677971820754
      w: 0.735087892884
  covariance: [7406559436957.954, -431830421988.1743, 0.0, 0.0, 0.0, 1.0284543125386138e-22, -431830421988.1707, 25189817800.918465, 0.0, 0.0, 0.0, -7.2931979158487e-24, 0.0, 0.0, 4.999749748618176e-07, 2.9554604316358848e-28, 1.0498742666403467e-24, 0.0, 0.0, 0.0, 2.955460431635884e-28, 4.999749748689552e-07, 6.474622519388771e-35, 0.0, 0.0, 0.0, 1.0498742666403467e-24, -6.474625024620656e-35, 4.999749748689552e-07, 0.0, 1.028454312538614e-22, -7.2931979158487e-24, 0.0, 0.0, 0.0, 9.999979981589185e-10]
twist: 
  twist: 
    linear: 
      x: -6.21248605742e-09
      y: 0.0
      z: 0.0
    angular: 
      x: 0.0
      y: 0.0
      z: 0.0399999999995
  covariance: [0.01103763950596561, 0.0, 0.0, 0.0, 0.0, 0.0, 0.0, 42487885.291645736, 0.0, 0.0, 0.0, 0.0, 0.0, 0.0, 4.99997497223453e-07, 3.805099034461494e-35, 2.6964507127012844e-36, 0.0, 0.0, 0.0, 3.8050990344614954e-35, 4.999749748381539e-07, -1.4422367394275526e-38, 0.0, 0.0, 0.0, 2.6964507127012855e-36, 1.4420439577479038e-38, 4.999749748381539e-07, 0.0, 0.0, 0.0, 0.0, 0.0, 0.0, 9.999998999042268e-10]
---
header: 
  seq: 10843
  stamp: 
    secs: 1518208983
    nsecs: 434804440
  frame_id: "swarmone/map"
child_frame_id: "swarmone/base_link"
pose: 
  pose: 
    position: 
      x: 0.698180112793
      y: 8.15432074942
      z: 0.0
    orientation: 
      x: 0.0
      y: 0.0
      z: 0.681638755608
      w: 0.731688872987
  covariance: [7409972137121.532, -432068211627.43896, 0.0, 0.0, 0.0, 6.54558454883189e-23, -432068211627.43536, 25205951164.041367, 0.0, 0.0, 0.0, -5.300083422164461e-24, 0.0, 0.0, 4.999749130615862e-07, 2.1946174180608036e-28, 6.849594684426754e-25, 0.0, 0.0, 0.0, 2.1946174180608023e-28, 4.999749130685676e-07, 1.301470730510363e-34, 0.0, 0.0, 0.0, 6.849594684426757e-25, -1.3014708519709965e-34, 4.999749130685676e-07, 0.0, 6.54558454883189e-23, -5.30008342216446e-24, 0.0, 0.0, 0.0, 9.99997993204886e-10]
twist: 
  twist: 
    linear: 
      x: -4.00347984877e-09
      y: 0.0
      z: 0.0
    angular: 
      x: 0.0
      y: 0.0
      z: 0.0400000000002
  covariance: [0.011007863481139583, 0.0, 0.0, 0.0, 0.0, 0.0, 0.0, 42499602.07260255, 0.0, 0.0, 0.0, 0.0, 0.0, 0.0, 4.999974910433206e-07, 2.400406892400285e-35, 1.942232194402495e-36, 0.0, 0.0, 0.0, 2.400406892400285e-35, 4.9997491303796e-07, 4.0875408574623225e-39, 0.0, 0.0, 0.0, 1.9422321944024954e-36, -4.088385994806704e-39, 4.9997491303796e-07, 0.0, 0.0, 0.0, 0.0, 0.0, 0.0, 9.999998996566185e-10]
---
header: 
  seq: 10844
  stamp: 
    secs: 1518208983
    nsecs: 534950972
  frame_id: "swarmone/map"
child_frame_id: "swarmone/base_link"
pose: 
  pose: 
    position: 
      x: 0.698180112747
      y: 8.15432074877
      z: 0.0
    orientation: 
      x: 0.0
      y: 0.0
      z: 0.68163876295
      w: 0.731688866148
  covariance: [7413405448019.512, -432290173599.8814, 0.0, 0.0, 0.0, 5.511476539038602e-22, -432290173599.87787, 25220166299.892254, 0.0, 0.0, 0.0, -3.9082402772455326e-23, 0.0, 0.0, 4.999750158564159e-07, 3.655614056000743e-28, 1.296559958359721e-24, 0.0, 0.0, 0.0, 3.6556140560007436e-28, 4.999750158725794e-07, -1.2907906521022437e-34, 0.0, 0.0, 0.0, 1.2965599583597211e-24, 1.2907902763903492e-34, 4.999750158725794e-07, 0.0, 5.511476539038601e-22, -3.908240277245533e-23, 0.0, 0.0, 0.0, 9.999980033222574e-10]
twist: 
  twist: 
    linear: 
      x: -5.75245369209e-09
      y: 0.0
      z: 0.0
    angular: 
      x: 0.0
      y: 0.0
      z: 0.0399999999992
  covariance: [0.011057151890123282, 0.0, 0.0, 0.0, 0.0, 0.0, 0.0, 42511378.48667611, 0.0, 0.0, 0.0, 0.0, 0.0, 0.0, 4.99997501268263e-07, 3.018476267445242e-34, 2.140085154021151e-35, 0.0, 0.0, 0.0, 3.0184762674452412e-34, 4.999750158316169e-07, -1.400625419998979e-38, 0.0, 0.0, 0.0, 2.14008515402115e-35, 1.391530656495793e-38, 4.999750158316169e-07, 0.0, 0.0, 0.0, 0.0, 0.0, 0.0, 9.999999001463188e-10]
---
header: 
  seq: 10845
  stamp: 
    secs: 1518208983
    nsecs: 634846926
  frame_id: "swarmone/map"
child_frame_id: "swarmone/base_link"
pose: 
  pose: 
    position: 
      x: 0.698180112729
      y: 8.15432074852
      z: 0.0
    orientation: 
      x: 0.0
      y: 0.0
      z: 0.68163876295
      w: 0.731688866147
  covariance: [7416831434074.753, -432511672881.4314, 0.0, 0.0, 0.0, 5.853249646412346e-23, -432511672881.4277, 25234352509.254208, 0.0, 0.0, 0.0, -4.1507842503041434e-24, 0.0, 0.0, 4.999749728786319e-07, 1.718698235859584e-28, 6.1058443487848e-25, 0.0, 0.0, 0.0, 1.7186982358595847e-28, 4.999749728855909e-07, -1.654703946222324e-39, 0.0, 0.0, 0.0, 6.105844348784801e-25, 1.6466648506948577e-39, 4.999749728855909e-07, 0.0, 5.853249646412346e-23, -4.150784250304142e-24, 0.0, 0.0, 0.0, 9.999979979897878e-10]
twist: 
  twist: 
    linear: 
      x: -3.5509693412e-09
      y: 0.0
      z: 0.0
    angular: 
      x: 0.0
      y: 0.0
      z: 0.0399999999999
  covariance: [0.011036651740359308, 0.0, 0.0, 0.0, 0.0, 0.0, 0.0, 42523127.60193046, 0.0, 0.0, 0.0, 0.0, 0.0, 0.0, 4.999974970262667e-07, 2.1618912116645798e-35, 1.5319891788999844e-36, 0.0, 0.0, 0.0, 2.1618912116645793e-35, 4.999749728550054e-07, -1.2799418912882306e-38, 0.0, 0.0, 0.0, 1.5319891788999837e-36, 1.2798825215903498e-38, 4.999749728550054e-07, 0.0, 0.0, 0.0, 0.0, 0.0, 0.0, 9.999998998958652e-10]
---
header: 
  seq: 10846
  stamp: 
    secs: 1518208983
    nsecs: 735100031
  frame_id: "swarmone/map"
child_frame_id: "swarmone/base_link"
pose: 
  pose: 
    position: 
      x: 0.698180112695
      y: 8.15432074804
      z: 0.0
    orientation: 
      x: 0.0
      y: 0.0
      z: 0.677971820728
      w: 0.735087892907
  covariance: [7420270940862.921, -432734051537.80634, 0.0, 0.0, 0.0, 7.960176806551705e-23, -432734051537.8027, 25248595448.448566, 0.0, 0.0, 0.0, -5.644889126743313e-24, 0.0, 0.0, 4.999750616670049e-07, 2.1724379489050805e-28, 7.6905441240692285e-25, 0.0, 0.0, 0.0, 2.172437948905081e-28, 4.999750616745236e-07, -1.2860944555418193e-34, 0.0, 0.0, 0.0, 7.6905441240692285e-25, 1.286094320628648e-34, 4.999750616745236e-07, 0.0, 7.960176806551704e-23, -5.644889126743314e-24, 0.0, 0.0, 0.0, 9.999980051288069e-10]
twist: 
  twist: 
    linear: 
      x: -4.42980152347e-09
      y: 0.0
      z: 0.0
    angular: 
      x: 0.0
      y: 0.0
      z: 0.0399999999995
  covariance: [0.011079673111731496, 0.0, 0.0, 0.0, 0.0, 0.0, 0.0, 42534920.89918186, 0.0, 0.0, 0.0, 0.0, 0.0, 0.0, 4.999975059030079e-07, 3.154728052163113e-35, 2.2357229111404346e-36, 0.0, 0.0, 0.0, 3.154728052163114e-35, 4.999750616432558e-07, 9.136680006857363e-39, 0.0, 0.0, 0.0, 2.235722911140435e-36, -9.137873529531951e-39, 4.999750616432558e-07, 0.0, 0.0, 0.0, 0.0, 0.0, 0.0, 9.999999002524855e-10]
---
header: 
  seq: 10847
  stamp: 
    secs: 1518208983
    nsecs: 834986448
  frame_id: "swarmone/map"
child_frame_id: "swarmone/base_link"
pose: 
  pose: 
    position: 
      x: 0.698180112693
      y: 8.15432074803
      z: 0.0
    orientation: 
      x: 0.0
      y: 0.0
      z: 0.674287921975
      w: 0.738468549282
  covariance: [7423696532135.775, -432972764874.78534, 0.0, 0.0, 0.0, 2.4590706561882847e-23, -432972764874.7817, 25264793879.526096, 0.0, 0.0, 0.0, -1.991154892293307e-24, 0.0, 0.0, 4.999749704353971e-07, 8.155924331305605e-29, 2.539737600203782e-25, 0.0, 0.0, 0.0, 8.155924331305604e-29, 4.999749704424375e-07, 1.943316148595996e-34, 0.0, 0.0, 0.0, 2.539737600203779e-25, -1.9433161644533415e-34, 4.999749704424375e-07, 0.0, 2.4590706561882844e-23, -1.9911548922933065e-24, 0.0, 0.0, 0.0, 9.999979977995915e-10]
twist: 
  twist: 
    linear: 
      x: -1.36294590003e-09
      y: 0.0
      z: 0.0
    angular: 
      x: 0.0
      y: 0.0
      z: 0.0300000010007
  covariance: [0.011035494201144892, 0.0, 0.0, 0.0, 0.0, 0.0, 0.0, 42546673.229374036, 0.0, 0.0, 0.0, 0.0, 0.0, 0.0, 4.999974967813014e-07, 9.7608593574542e-36, 7.898223223819023e-37, 0.0, 0.0, 0.0, 9.760859357454203e-36, 4.999749704117518e-07, -6.07560407101365e-39, 0.0, 0.0, 0.0, 7.898223223819021e-37, 6.075565472598172e-39, 4.999749704117518e-07, 0.0, 0.0, 0.0, 0.0, 0.0, 0.0, 9.999998998863078e-10]
---
header: 
  seq: 10848
  stamp: 
    secs: 1518208983
    nsecs: 934612513
  frame_id: "swarmone/map"
child_frame_id: "swarmone/base_link"
pose: 
  pose: 
    position: 
      x: 0.698180112642
      y: 8.15432074744
      z: 0.0
    orientation: 
      x: 0.0
      y: 0.0
      z: 0.677971805283
      w: 0.735087907152
  covariance: [7427111514967.226, -433227952236.6967, 0.0, 0.0, 0.0, 7.125580496045218e-23, -433227952236.693, 25282953369.875225, 0.0, 0.0, 0.0, -6.487566092854392e-24, 0.0, 0.0, 4.999749051302072e-07, 2.036994571384751e-28, 7.540269749074222e-25, 0.0, 0.0, 0.0, 2.0369945713847523e-28, 4.999749051336936e-07, 3.255896163267655e-34, 0.0, 0.0, 0.0, 7.540269749074223e-25, -3.255896287298835e-34, 4.999749051336936e-07, 0.0, 7.125580496045219e-23, -6.4875660928543924e-24, 0.0, 0.0, 0.0, 9.999979925651785e-10]
twist: 
  twist: 
    linear: 
      x: -4.44982842142e-09
      y: 0.0
      z: 0.0
    angular: 
      x: 0.0
      y: 0.0
      z: 0.0399999989965
  covariance: [0.011004046954072233, 0.0, 0.0, 0.0, 0.0, 0.0, 0.0, 42558397.0833321, 0.0, 0.0, 0.0, 0.0, 0.0, 0.0, 4.99997490250621e-07, 2.56526495626175e-35, 2.3342504726103202e-36, 0.0, 0.0, 0.0, 2.5652649562617503e-35, 4.999749051066006e-07, 6.583636682859229e-39, 0.0, 0.0, 0.0, 2.3342504726103206e-36, -6.585055041155713e-39, 4.999749051066006e-07, 0.0, 0.0, 0.0, 0.0, 0.0, 0.0, 9.999998996246803e-10]
---
header: 
  seq: 10849
  stamp: 
    secs: 1518208984
    nsecs:  34467936
  frame_id: "swarmone/map"
child_frame_id: "swarmone/base_link"
pose: 
  pose: 
    position: 
      x: 0.698180112626
      y: 8.15432074725
      z: 0.0
    orientation: 
      x: 0.0
      y: 0.0
      z: 0.677971813396
      w: 0.73508789967
  covariance: [7430538566821.566, -433466790660.31647, 0.0, 0.0, 0.0, 4.754681375047562e-23, -433466790660.3129, 25299162480.686893, 0.0, 0.0, 0.0, -3.849958435655648e-24, 0.0, 0.0, 4.999749625044624e-07, 1.5276889538002434e-28, 4.758695395690524e-25, 0.0, 0.0, 0.0, 1.5276889538002434e-28, 4.999749625117715e-07, 1.2965344344690607e-34, 0.0, 0.0, 0.0, 4.758695395690523e-25, -1.2965344897625728e-34, 4.999749625117715e-07, 0.0, 4.754681375047562e-23, -3.849958435655649e-24, 0.0, 0.0, 0.0, 9.999979971809623e-10]
twist: 
  twist: 
    linear: 
      x: -2.69431675491e-09
      y: 0.0
      z: 0.0
    angular: 
      x: 0.0
      y: 0.0
      z: 0.0399999999999
  covariance: [0.011031614528949716, 0.0, 0.0, 0.0, 0.0, 0.0, 0.0, 42570150.088834085, 0.0, 0.0, 0.0, 0.0, 0.0, 0.0, 4.999974959863197e-07, 1.8600902354263203e-35, 1.5051532847113382e-36, 0.0, 0.0, 0.0, 1.8600902354263227e-35, 4.999749624807635e-07, -6.174749113070027e-41, 0.0, 0.0, 0.0, 1.5051532847113395e-36, 6.134427860699789e-41, 4.999749624807635e-07, 0.0, 0.0, 0.0, 0.0, 0.0, 0.0, 9.99999899855233e-10]
---
header: 
  seq: 10850
  stamp: 
    secs: 1518208984
    nsecs: 135345936
  frame_id: "swarmone/map"
child_frame_id: "swarmone/base_link"
pose: 
  pose: 
    position: 
      x: 0.698180112584
      y: 8.15432074672
      z: 0.0
    orientation: 
      x: 0.0
      y: 0.0
      z: 0.677971813396
      w: 0.73508789967
  covariance: [7434001997182.958, -433708173907.0168, 0.0, 0.0, 0.0, 8.400522079895593e-23, -433708173907.01324, 25315545202.971355, 0.0, 0.0, 0.0, -6.802056857847858e-24, 0.0, 0.0, 4.999752159450963e-07, 2.517274335595616e-28, 7.762171051016678e-25, 0.0, 0.0, 0.0, 2.517274335595616e-28, 4.999752159528413e-07, -3.175559210018827e-34, 0.0, 0.0, 0.0, 7.762171051016679e-25, 3.175559052805679e-34, 4.999752159528413e-07, 0.0, 8.400522079895594e-23, -6.802056857847858e-24, 0.0, 0.0, 0.0, 9.999980174903662e-10]
twist: 
  twist: 
    linear: 
      x: -4.45683000023e-09
      y: 0.0
      z: 0.0
    angular: 
      x: 0.0
      y: 0.0
      z: 0.0399999999998
  covariance: [0.011155237799510017, 0.0, 0.0, 0.0, 0.0, 0.0, 0.0, 42582025.648883194, 0.0, 0.0, 0.0, 0.0, 0.0, 0.0, 4.999975213319915e-07, 3.436225553012095e-35, 2.7806975583311152e-36, 0.0, 0.0, 0.0, 3.436225553012093e-35, 4.999752159212857e-07, 9.766771477254683e-39, 0.0, 0.0, 0.0, 2.7806975583311162e-36, -9.768325533388905e-39, 4.999752159212857e-07, 0.0, 0.0, 0.0, 0.0, 0.0, 0.0, 9.999999008703775e-10]
---
header: 
  seq: 10851
  stamp: 
    secs: 1518208984
    nsecs: 235261679
  frame_id: "swarmone/map"
child_frame_id: "swarmone/base_link"
pose: 
  pose: 
    position: 
      x: 0.698180112533
      y: 8.1543207461
      z: 0.0
    orientation: 
      x: 0.0
      y: 0.0
      z: 0.681638755627
      w: 0.731688872969
  covariance: [7437433662478.72, -433947352870.3106, 0.0, 0.0, 0.0, 1.0911509500041737e-22, -433947352870.30707, 25331779221.938175, 0.0, 0.0, 0.0, -8.835248395225368e-24, 0.0, 0.0, 4.999749771866137e-07, 3.2387512298013066e-28, 1.0082728267519188e-24, 0.0, 0.0, 0.0, 3.2387512298013057e-28, 4.999749771945723e-07, -1.837351930450821e-39, 0.0, 0.0, 0.0, 1.0082728267519192e-24, 1.810996867642904e-39, 4.999749771945723e-07, 0.0, 1.0911509500041737e-22, -8.83524839522537e-24, 0.0, 0.0, 0.0, 9.999979983977367e-10]
twist: 
  twist: 
    linear: 
      x: -5.76340144114e-09
      y: 0.0
      z: 0.0
    angular: 
      x: 0.0
      y: 0.0
      z: 0.0400000000002
  covariance: [0.011038769663317021, 0.0, 0.0, 0.0, 0.0, 0.0, 0.0, 42593790.106938176, 0.0, 0.0, 0.0, 0.0, 0.0, 0.0, 4.999974974505987e-07, 4.602696835883798e-35, 3.724723600514488e-36, 0.0, 0.0, 0.0, 4.602696835883796e-35, 4.999749771627896e-07, 9.044785615155861e-39, 0.0, 0.0, 0.0, 3.724723600514486e-36, -9.04784093473403e-39, 4.999749771627896e-07, 0.0, 0.0, 0.0, 0.0, 0.0, 0.0, 9.999998999156913e-10]
---
header: 
  seq: 10852
  stamp: 
    secs: 1518208984
    nsecs: 335138321
  frame_id: "swarmone/map"
child_frame_id: "swarmone/base_link"
pose: 
  pose: 
    position: 
      x: 0.698180112521
      y: 8.15432074591
      z: 0.0
    orientation: 
      x: 0.0
      y: 0.0
      z: 0.677971820756
      w: 0.735087892882
  covariance: [7440867857620.602, -434169445636.9603, 0.0, 0.0, 0.0, 5.323208782525985e-23, -434169445636.95685, 25346008322.2511, 0.0, 0.0, 0.0, -3.774912345579777e-24, 0.0, 0.0, 4.999749679318354e-07, 1.5297393023015806e-28, 5.435621753978977e-25, 0.0, 0.0, 0.0, 1.5297393023015809e-28, 4.999749679389768e-07, 1.2957371369904224e-34, 0.0, 0.0, 0.0, 5.435621753978977e-25, -1.2957372006490797e-34, 4.999749679389768e-07, 0.0, 5.323208782525985e-23, -3.774912345579778e-24, 0.0, 0.0, 0.0, 9.99997997604578e-10]
twist: 
  twist: 
    linear: 
      x: -3.12071993846e-09
      y: 0.0
      z: 0.0
    angular: 
      x: 0.0
      y: 0.0
      z: 0.0399999999995
  covariance: [0.011034311311221012, 0.0, 0.0, 0.0, 0.0, 0.0, 0.0, 42605552.12650276, 0.0, 0.0, 0.0, 0.0, 0.0, 0.0, 4.999974965303105e-07, 2.02103529886998e-35, 1.4322383569249734e-36, 0.0, 0.0, 0.0, 2.0210352988699822e-35, 4.999749679081718e-07, 1.1480025017861665e-38, 0.0, 0.0, 0.0, 1.4322383569249744e-36, -1.1480536339073801e-38, 4.999749679081718e-07, 0.0, 0.0, 0.0, 0.0, 0.0, 0.0, 9.999998998765094e-10]
---
header: 
  seq: 10853
  stamp: 
    secs: 1518208984
    nsecs: 435238123
  frame_id: "swarmone/map"
child_frame_id: "swarmone/base_link"
pose: 
  pose: 
    position: 
      x: 0.698180112495
      y: 8.15432074559
      z: 0.0
    orientation: 
      x: 0.0
      y: 0.0
      z: 0.677971813396
      w: 0.73508789967
  covariance: [7444308383319.335, -434409257169.5755, 0.0, 0.0, 0.0, 5.326293780512998e-23, -434409257169.57184, 25362286683.25542, 0.0, 0.0, 0.0, -4.312800257384928e-24, 0.0, 0.0, 4.999750237404051e-07, 1.747702692633356e-28, 5.430765441696479e-25, 0.0, 0.0, 0.0, 1.7477026926333562e-28, 4.999750237475054e-07, -1.2898723216741426e-34, 0.0, 0.0, 0.0, 5.430765441696478e-25, 1.2898722491429704e-34, 4.999750237475054e-07, 0.0, 5.326293780513e-23, -4.312800257384929e-24, 0.0, 0.0, 0.0, 9.999980020687953e-10]
twist: 
  twist: 
    linear: 
      x: -3.12867660098e-09
      y: 0.0
      z: 0.0
    angular: 
      x: 0.0
      y: 0.0
      z: 0.0399999999999
  covariance: [0.011061301545789116, 0.0, 0.0, 0.0, 0.0, 0.0, 0.0, 42617342.59899004, 0.0, 0.0, 0.0, 0.0, 0.0, 0.0, 4.999975021123284e-07, 2.0109435679588376e-35, 1.627164451934156e-36, 0.0, 0.0, 0.0, 2.0109435679588366e-35, 4.999750237167411e-07, 1.3207653466289401e-38, 0.0, 0.0, 0.0, 1.6271644519341556e-36, -1.3208143157825736e-38, 4.999750237167411e-07, 0.0, 0.0, 0.0, 0.0, 0.0, 0.0, 9.99999900099722e-10]
---
header: 
  seq: 10854
  stamp: 
    secs: 1518208984
    nsecs: 535055876
  frame_id: "swarmone/map"
child_frame_id: "swarmone/base_link"
pose: 
  pose: 
    position: 
      x: 0.69818011245
      y: 8.15432074502
      z: 0.0
    orientation: 
      x: 0.0
      y: 0.0
      z: 0.67428792198
      w: 0.738468549278
  covariance: [7447740480949.909, -434648490845.4838, 0.0, 0.0, 0.0, 8.036241603299199e-23, -434648490845.4802, 25378526719.843426, 0.0, 0.0, 0.0, -6.5070999864380545e-24, 0.0, 0.0, 4.999749532167648e-07, 2.6653059536039957e-28, 8.305392064239126e-25, 0.0, 0.0, 0.0, 2.665305953603995e-28, 4.999749532238147e-07, 6.384686498721477e-39, 0.0, 0.0, 0.0, 8.305392064239128e-25, -6.402246694809321e-39, 4.999749532238147e-07, 0.0, 8.036241603299199e-23, -6.5070999864380545e-24, 0.0, 0.0, 0.0, 9.999979964222394e-10]
twist: 
  twist: 
    linear: 
      x: -4.88655761868e-09
      y: 0.0
      z: 0.0
    angular: 
      x: 0.0
      y: 0.0
      z: 0.0399999999995
  covariance: [0.011027206695074076, 0.0, 0.0, 0.0, 0.0, 0.0, 0.0, 42629102.01554813, 0.0, 0.0, 0.0, 0.0, 0.0, 0.0, 4.999974950590802e-07, 2.962764489851204e-35, 2.3972943581991343e-36, 0.0, 0.0, 0.0, 2.9627644898512036e-35, 4.999749531931197e-07, 1.4820194777506491e-38, 0.0, 0.0, 0.0, 2.397294358199133e-36, -1.4821588327713048e-38, 4.999749531931197e-07, 0.0, 0.0, 0.0, 0.0, 0.0, 0.0, 9.999998998174396e-10]
---
header: 
  seq: 10855
  stamp: 
    secs: 1518208984
    nsecs: 634919167
  frame_id: "swarmone/map"
child_frame_id: "swarmone/base_link"
pose: 
  pose: 
    position: 
      x: 0.698180112422
      y: 8.15432074473
      z: 0.0
    orientation: 
      x: 0.0
      y: 0.0
      z: 0.681638748298
      w: 0.731688879798
  covariance: [7451172457036.505, -434905012351.60895, 0.0, 0.0, 0.0, 1.7680381480754457e-22, -434905012351.6054, 25396788452.21495, 0.0, 0.0, 0.0, -1.609703823941082e-23, 0.0, 0.0, 4.99974956795984e-07, 2.7445860959482112e-28, 7.611797720755558e-25, 0.0, 0.0, 0.0, 2.7445860959482126e-28, 4.999749568094211e-07, -1.4790365308882264e-38, 0.0, 0.0, 0.0, 7.611797720755563e-25, 1.4774375343274093e-38, 4.999749568094211e-07, 0.0, 1.7680381480754457e-22, -1.6097038239410823e-23, 0.0, 0.0, 0.0, 9.999979974672317e-10]
twist: 
  twist: 
    linear: 
      x: -3.56739089722e-09
      y: 0.0
      z: 0.0
    angular: 
      x: 0.0
      y: 0.0
      z: 0.0400000000016
  covariance: [0.011028712087175799, 0.0, 0.0, 0.0, 0.0, 0.0, 0.0, 42640868.96135027, 0.0, 0.0, 0.0, 0.0, 0.0, 0.0, 4.999974953771396e-07, 1.1906636950216952e-34, 1.083876660094162e-35, 0.0, 0.0, 0.0, 1.1906636950216954e-34, 4.999749567714281e-07, 5.343258651938549e-39, 0.0, 0.0, 0.0, 1.0838766600941625e-35, -5.3608985129632676e-39, 4.999749567714281e-07, 0.0, 0.0, 0.0, 0.0, 0.0, 0.0, 9.99999899863119e-10]
---
header: 
  seq: 10856
  stamp: 
    secs: 1518208984
    nsecs: 734535933
  frame_id: "swarmone/map"
child_frame_id: "swarmone/base_link"
pose: 
  pose: 
    position: 
      x: 0.698180112356
      y: 8.15432074382
      z: 0.0
    orientation: 
      x: 0.0
      y: 0.0
      z: 0.677971820775
      w: 0.735087892864
  covariance: [7454602771896.308, -435126891748.1338, 0.0, 0.0, 0.0, 1.8670185999629325e-22, -435126891748.13025, 25411006817.72298, 0.0, 0.0, 0.0, -1.3239756807285946e-23, 0.0, 0.0, 4.999749006331536e-07, 3.907269658578979e-28, 1.3921038656111112e-24, 0.0, 0.0, 0.0, 3.90726965857898e-28, 4.999749006429176e-07, -1.3026750525842618e-34, 0.0, 0.0, 0.0, 1.3921038656111123e-24, 1.3026746177746367e-34, 4.999749006429176e-07, 0.0, 1.867018599962933e-22, -1.3239756807285943e-23, 0.0, 0.0, 0.0, 9.999979924149412e-10]
twist: 
  twist: 
    linear: 
      x: -7.50467808732e-09
      y: 0.0
      z: 0.0
    angular: 
      x: 0.0
      y: 0.0
      z: 0.0399999999993
  covariance: [0.01100178913547183, 0.0, 0.0, 0.0, 0.0, 0.0, 0.0, 42652609.01615162, 0.0, 0.0, 0.0, 0.0, 0.0, 0.0, 4.999974897825038e-07, 9.683487208595827e-35, 6.864492579454113e-36, 0.0, 0.0, 0.0, 9.683487208595827e-35, 4.999749006090456e-07, -6.230525728540619e-39, 0.0, 0.0, 0.0, 6.864492579454118e-36, 6.220187745929344e-39, 4.999749006090456e-07, 0.0, 0.0, 0.0, 0.0, 0.0, 0.0, 9.999998996153106e-10]
---
header: 
  seq: 10857
  stamp: 
    secs: 1518208984
    nsecs: 834546328
  frame_id: "swarmone/map"
child_frame_id: "swarmone/base_link"
pose: 
  pose: 
    position: 
      x: 0.698180112367
      y: 8.15432074397
      z: 0.0
    orientation: 
      x: 0.0
      y: 0.0
      z: 0.681638755634
      w: 0.731688872963
  covariance: [7458045295218.833, -435366880760.4088, 0.0, 0.0, 0.0, 2.4844451391884906e-23, -435366880760.4052, 25427300823.14413, 0.0, 0.0, 0.0, -2.011698702250993e-24, 0.0, 0.0, 4.999750014111068e-07, 8.152376837945913e-29, 2.535504183867663e-25, 0.0, 0.0, 0.0, 8.152376837945912e-29, 4.999750014182194e-07, -2.584669124830407e-34, 0.0, 0.0, 0.0, 2.5355041838676623e-25, 2.584669108987378e-34, 4.999750014182194e-07, 0.0, 2.4844451391884906e-23, -2.0116987022509926e-24, 0.0, 0.0, 0.0, 9.999980002826388e-10]
twist: 
  twist: 
    linear: 
      x: -1.3503284273e-09
      y: 0.0
      z: 0.0
    angular: 
      x: 0.0
      y: 0.0
      z: 0.0400000000002
  covariance: [0.011050415862821846, 0.0, 0.0, 0.0, 0.0, 0.0, 0.0, 42664397.628476344, 0.0, 0.0, 0.0, 0.0, 0.0, 0.0, 4.999974998789345e-07, 9.96159370487301e-36, 8.060495098274922e-37, 0.0, 0.0, 0.0, 9.961593704873002e-36, 4.999750013874431e-07, -2.0089071947645097e-38, 0.0, 0.0, 0.0, 8.06049509827492e-37, 2.0088958742303004e-38, 4.999750013874431e-07, 0.0, 0.0, 0.0, 0.0, 0.0, 0.0, 9.999999000104136e-10]
---
header: 
  seq: 10858
  stamp: 
    secs: 1518208984
    nsecs: 935113668
  frame_id: "swarmone/map"
child_frame_id: "swarmone/base_link"
pose: 
  pose: 
    position: 
      x: 0.698180112306
      y: 8.15432074312
      z: 0.0
    orientation: 
      x: 0.0
      y: 0.0
      z: 0.674287929267
      w: 0.738468542624
  covariance: [7461510902150.905, -435591057912.9362, 0.0, 0.0, 0.0, 1.504506301899512e-22, -435591057912.93256, 25441667597.867302, 0.0, 0.0, 0.0, -1.0669036797716997e-23, 0.0, 0.0, 4.999751380714982e-07, 3.2202002169149665e-28, 1.1364984226540454e-24, 0.0, 0.0, 0.0, 3.220200216914966e-28, 4.999751380809432e-07, 6.389530110554991e-35, 0.0, 0.0, 0.0, 1.1364984226540458e-24, -6.389533059218864e-35, 4.999751380809432e-07, 0.0, 1.5045063018995128e-22, -1.0669036797717e-23, 0.0, 0.0, 0.0, 9.99998011388906e-10]
twist: 
  twist: 
    linear: 
      x: -6.1899386194e-09
      y: 0.0
      z: 0.0
    angular: 
      x: 0.0
      y: 0.0
      z: 0.0399999999988
  covariance: [0.011116908556773608, 0.0, 0.0, 0.0, 0.0, 0.0, 0.0, 42676254.08028022, 0.0, 0.0, 0.0, 0.0, 0.0, 0.0, 4.999975135326708e-07, 7.562025392263494e-35, 5.360032550686151e-36, 0.0, 0.0, 0.0, 7.562025392263497e-35, 4.99975138047415e-07, -1.6295814209745882e-38, 0.0, 0.0, 0.0, 5.36003255068615e-36, 1.628920259822156e-38, 4.99975138047415e-07, 0.0, 0.0, 0.0, 0.0, 0.0, 0.0, 9.99999900564159e-10]
---
header: 
  seq: 10859
  stamp: 
    secs: 1518208985
    nsecs:  34863710
  frame_id: "swarmone/map"
child_frame_id: "swarmone/base_link"
pose: 
  pose: 
    position: 
      x: 0.698180112305
      y: 8.15432074314
      z: 0.0
    orientation: 
      x: 0.0
      y: 0.0
      z: 0.674287914582
      w: 0.738468556033
  covariance: [7464944050569.002, -435847703187.8334, 0.0, 0.0, 0.0, 3.147195113680416e-23, -435847703187.8297, 25459942003.497673, 0.0, 0.0, 0.0, -2.8653875588896014e-24, 0.0, 0.0, 4.999749362140654e-07, 1.1736859607489987e-28, 3.2576504052253945e-25, 0.0, 0.0, 0.0, 1.1736859607489987e-28, 4.999749362211129e-07, 1.2991125556609515e-34, 0.0, 0.0, 0.0, 3.257650405225394e-25, -1.2991125847820446e-34, 4.999749362211129e-07, 0.0, 3.1471951136804155e-23, -2.865387558889602e-24, 0.0, 0.0, 0.0, 9.999979950621605e-10]
twist: 
  twist: 
    linear: 
      x: -1.79475320833e-09
      y: 0.0
      z: 0.0
    angular: 
      x: 0.0
      y: 0.0
      z: 0.0399999999999
  covariance: [0.011019014910472854, 0.0, 0.0, 0.0, 0.0, 0.0, 0.0, 42688016.34580534, 0.0, 0.0, 0.0, 0.0, 0.0, 0.0, 4.999974933584565e-07, 1.2301791213228593e-35, 1.1191890432121402e-36, 0.0, 0.0, 0.0, 1.2301791213228593e-35, 4.999749361904204e-07, 6.270994269463298e-39, 0.0, 0.0, 0.0, 1.1191890432121392e-36, -6.271296274981944e-39, 4.999749361904204e-07, 0.0, 0.0, 0.0, 0.0, 0.0, 0.0, 9.999998997494352e-10]
---
header: 
  seq: 10860
  stamp: 
    secs: 1518208985
    nsecs: 134498835
  frame_id: "swarmone/map"
child_frame_id: "swarmone/base_link"
pose: 
  pose: 
    position: 
      x: 0.698180112228
      y: 8.15432074227
      z: 0.0
    orientation: 
      x: 0.0
      y: 0.0
      z: 0.677971806018
      w: 0.735087906474
  covariance: [7468374504637.31, -436104160808.268, 0.0, 0.0, 0.0, 1.110993580783467e-22, -436104160808.26434, 25478204570.886158, 0.0, 0.0, 0.0, -1.0115148714067791e-23, 0.0, 0.0, 4.99974907196376e-07, 4.055865366514485e-28, 1.1270334187116603e-24, 0.0, 0.0, 0.0, 4.0558653665144865e-28, 4.999749072036166e-07, -1.3022675551793628e-34, 0.0, 0.0, 0.0, 1.1270334187116603e-24, 1.3022671931597908e-34, 4.999749072036166e-07, 0.0, 1.110993580783467e-22, -1.011514871406779e-23, 0.0, 0.0, 0.0, 9.99997992751532e-10]
twist: 
  twist: 
    linear: 
      x: -6.62954437485e-09
      y: 0.0
      z: 0.0
    angular: 
      x: 0.0
      y: 0.0
      z: 0.0400000000002
  covariance: [0.011005030611399277, 0.0, 0.0, 0.0, 0.0, 0.0, 0.0, 42699767.2178451, 0.0, 0.0, 0.0, 0.0, 0.0, 0.0, 4.999974904549209e-07, 4.1778802234311e-35, 3.8011587235737854e-36, 0.0, 0.0, 0.0, 4.177880223431102e-35, 4.999749071726945e-07, 1.3588018699957719e-38, 0.0, 0.0, 0.0, 3.801158723573789e-36, -1.3591169707359303e-38, 4.999749071726945e-07, 0.0, 0.0, 0.0, 0.0, 0.0, 0.0, 9.999998996338076e-10]
---
header: 
  seq: 10861
  stamp: 
    secs: 1518208985
    nsecs: 235240459
  frame_id: "swarmone/map"
child_frame_id: "swarmone/base_link"
pose: 
  pose: 
    position: 
      x: 0.698180112181
      y: 8.15432074169
      z: 0.0
    orientation: 
      x: 0.0
      y: 0.0
      z: 0.677971813396
      w: 0.73508789967
  covariance: [7471847323206.565, -436346304722.3123, 0.0, 0.0, 0.0, 1.0242447701956118e-22, -436346304722.30853, 25494648916.904102, 0.0, 0.0, 0.0, -8.293510969119955e-24, 0.0, 0.0, 4.999751828714445e-07, 3.3608337824813895e-28, 1.0377080468734797e-24, 0.0, 0.0, 0.0, 3.3608337824813895e-28, 4.999751828784573e-07, -6.369595145955438e-35, 0.0, 0.0, 0.0, 1.0377080468734795e-24, 6.369592316834343e-35, 4.999751828784573e-07, 0.0, 1.024244770195612e-22, -8.293510969119955e-24, 0.0, 0.0, 0.0, 9.999980147979487e-10]
twist: 
  twist: 
    linear: 
      x: -6.17144874301e-09
      y: 0.0
      z: 0.0
    angular: 
      x: 0.0
      y: 0.0
      z: 0.0399999999999
  covariance: [0.011138979723198312, 0.0, 0.0, 0.0, 0.0, 0.0, 0.0, 42711650.78184444, 0.0, 0.0, 0.0, 0.0, 0.0, 0.0, 4.99997518028729e-07, 3.7316525665444355e-35, 3.019437627644609e-36, 0.0, 0.0, 0.0, 3.731652566544436e-35, 4.999751828477799e-07, 1.929702927772087e-38, 0.0, 0.0, 0.0, 3.019437627644608e-36, -1.9299131322839142e-38, 4.999751828477799e-07, 0.0, 0.0, 0.0, 0.0, 0.0, 0.0, 9.999999007361846e-10]
---
header: 
  seq: 10862
  stamp: 
    secs: 1518208985
    nsecs: 334925890
  frame_id: "swarmone/map"
child_frame_id: "swarmone/base_link"
pose: 
  pose: 
    position: 
      x: 0.698180112147
      y: 8.15432074128
      z: 0.0
    orientation: 
      x: 0.0
      y: 0.0
      z: 0.677971813396
      w: 0.73508789967
  covariance: [7475285002680.666, -436586008087.67175, 0.0, 0.0, 0.0, 7.99921496060127e-23, -436586008087.66797, 25510928419.71749, 0.0, 0.0, 0.0, -6.4771187990364395e-24, 0.0, 0.0, 4.999749199681212e-07, 2.653039362423277e-28, 8.278100118094148e-25, 0.0, 0.0, 0.0, 2.653039362423277e-28, 4.999749199751894e-07, 1.9507641754101335e-34, 0.0, 0.0, 0.0, 8.278100118094157e-25, -1.950764350084042e-34, 4.999749199751894e-07, 0.0, 7.999214960601271e-23, -6.47711879903644e-24, 0.0, 0.0, 0.0, 9.99997993762616e-10]
twist: 
  twist: 
    linear: 
      x: -4.8408442303e-09
      y: 0.0
      z: 0.0
    angular: 
      x: 0.0
      y: 0.0
      z: 0.0399999999999
  covariance: [0.011011218561830644, 0.0, 0.0, 0.0, 0.0, 0.0, 0.0, 42723411.92638886, 0.0, 0.0, 0.0, 0.0, 0.0, 0.0, 4.99997491733524e-07, 2.984668602641001e-35, 2.4150385752701697e-36, 0.0, 0.0, 0.0, 2.984668602641003e-35, 4.999749199444763e-07, 9.225533742648672e-39, 0.0, 0.0, 0.0, 2.4150385752701714e-36, -9.227005511477471e-39, 4.999749199444763e-07, 0.0, 0.0, 0.0, 0.0, 0.0, 0.0, 9.999998996844575e-10]
---
header: 
  seq: 10863
  stamp: 
    secs: 1518208985
    nsecs: 434494019
  frame_id: "swarmone/map"
child_frame_id: "swarmone/base_link"
pose: 
  pose: 
    position: 
      x: 0.698180112084
      y: 8.15432074049
      z: 0.0
    orientation: 
      x: 0.0
      y: 0.0
      z: 0.677971813396
      w: 0.73508789967
  covariance: [7478719899050.423, -436825526439.8362, 0.0, 0.0, 0.0, 1.5902509809794203e-22, -436825526439.8324, 25527196228.08069, 0.0, 0.0, 0.0, -1.2876528015667239e-23, 0.0, 0.0, 4.99974888932808e-07, 4.105246761421569e-28, 1.2825225275565548e-24, 0.0, 0.0, 0.0, 4.105246761421568e-28, 4.999748889419557e-07, -2.6077911361000424e-34, 0.0, 0.0, 0.0, 1.2825225275565548e-24, 2.6077907146764648e-34, 4.999748889419557e-07, 0.0, 1.5902509809794199e-22, -1.2876528015667237e-23, 0.0, 0.0, 0.0, 9.999979914247016e-10]
twist: 
  twist: 
    linear: 
      x: -7.02501134072e-09
      y: 0.0
      z: 0.0
    angular: 
      x: 0.0
      y: 0.0
      z: 0.0399999999998
  covariance: [0.010996216622388243, 0.0, 0.0, 0.0, 0.0, 0.0, 0.0, 42735161.38638656, 0.0, 0.0, 0.0, 0.0, 0.0, 0.0, 4.999974886160647e-07, 7.721927509298909e-35, 6.24971395521257e-36, 0.0, 0.0, 0.0, 7.721927509298909e-35, 4.999748889087921e-07, 9.682112141314073e-39, 0.0, 0.0, 0.0, 6.249713955212573e-36, -9.690041911338535e-39, 4.999748889087921e-07, 0.0, 0.0, 0.0, 0.0, 0.0, 0.0, 9.999998995662745e-10]
---
header: 
  seq: 10864
  stamp: 
    secs: 1518208985
    nsecs: 534846544
  frame_id: "swarmone/map"
child_frame_id: "swarmone/base_link"
pose: 
  pose: 
    position: 
      x: 0.698180112049
      y: 8.15432074006
      z: 0.0
    orientation: 
      x: 0.0
      y: 0.0
      z: 0.681638755659
      w: 0.73168887294
  covariance: [7482183132015.935, -437067030726.5666, 0.0, 0.0, 0.0, 9.044821041928961e-23, -437067030726.56287, 25543599841.016598, 0.0, 0.0, 0.0, -7.323763626432261e-24, 0.0, 0.0, 4.999750865359563e-07, 2.9061106098479903e-28, 9.007759193555742e-25, 0.0, 0.0, 0.0, 2.90611060984799e-28, 4.999750865431966e-07, -2.56709716084065e-34, 0.0, 0.0, 0.0, 9.007759193555739e-25, 2.56709695324e-34, 4.999750865431966e-07, 0.0, 9.044821041928962e-23, -7.32376362643226e-24, 0.0, 0.0, 0.0, 9.999980071023568e-10]
twist: 
  twist: 
    linear: 
      x: -5.25300138511e-09
      y: 0.0
      z: 0.0
    angular: 
      x: 0.0
      y: 0.0
      z: 0.0400000000002
  covariance: [0.011091788911394658, 0.0, 0.0, 0.0, 0.0, 0.0, 0.0, 42747005.588049054, 0.0, 0.0, 0.0, 0.0, 0.0, 0.0, 4.999975083920578e-07, 3.432659549276759e-35, 2.7775996337809136e-36, 0.0, 0.0, 0.0, 3.432659549276759e-35, 4.999750865122569e-07, 1.489072239863872e-38, 0.0, 0.0, 0.0, 2.777599633780914e-36, -1.4892692889696344e-38, 4.999750865122569e-07, 0.0, 0.0, 0.0, 0.0, 0.0, 0.0, 9.999999003513065e-10]
---
header: 
  seq: 10865
  stamp: 
    secs: 1518208985
    nsecs: 635082006
  frame_id: "swarmone/map"
child_frame_id: "swarmone/base_link"
pose: 
  pose: 
    position: 
      x: 0.698180112017
      y: 8.1543207396
      z: 0.0
    orientation: 
      x: 0.0
      y: 0.0
      z: 0.68163876295
      w: 0.731688866147
  covariance: [7485646233987.244, -437291117895.8102, 0.0, 0.0, 0.0, 8.206795617169308e-23, -437291117895.8064, 25557966437.325268, 0.0, 0.0, 0.0, -5.819783284886436e-24, 0.0, 0.0, 4.999750574918652e-07, 2.333571248189814e-28, 8.262327899337701e-25, 0.0, 0.0, 0.0, 2.333571248189815e-28, 4.999750574990455e-07, 1.673633268543471e-38, 0.0, 0.0, 0.0, 8.262327899337704e-25, -1.6751815935288812e-38, 4.999750574990455e-07, 0.0, 8.206795617169308e-23, -5.819783284886436e-24, 0.0, 0.0, 0.0, 9.999980047738577e-10]
twist: 
  twist: 
    linear: 
      x: -4.80948157418e-09
      y: 0.0
      z: 0.0
    angular: 
      x: 0.0
      y: 0.0
      z: 0.0399999999999
  covariance: [0.011077684932318284, 0.0, 0.0, 0.0, 0.0, 0.0, 0.0, 42758838.15759223, 0.0, 0.0, 0.0, 0.0, 0.0, 0.0, 4.999975054876055e-07, 3.1121879805202e-35, 2.2054831825162945e-36, 0.0, 0.0, 0.0, 3.1121879805202003e-35, 4.999750574681834e-07, 1.9751532037380648e-40, 0.0, 0.0, 0.0, 2.2054831825162935e-36, -1.9872433166453677e-40, 4.999750574681834e-07, 0.0, 0.0, 0.0, 0.0, 0.0, 0.0, 9.999999002349284e-10]
---
header: 
  seq: 10866
  stamp: 
    secs: 1518208985
    nsecs: 735171080
  frame_id: "swarmone/map"
child_frame_id: "swarmone/base_link"
pose: 
  pose: 
    position: 
      x: 0.698180111996
      y: 8.15432073931
      z: 0.0
    orientation: 
      x: 0.0
      y: 0.0
      z: 0.67797182074
      w: 0.735087892896
  covariance: [7489105556373.719, -437514965850.8457, 0.0, 0.0, 0.0, 5.721870619728468e-23, -437514965850.8419, 25572318112.344494, 0.0, 0.0, 0.0, -4.0576184368204775e-24, 0.0, 0.0, 4.999750212232638e-07, 1.6987202979478298e-28, 6.023255894830223e-25, 0.0, 0.0, 0.0, 1.69872029794783e-28, 4.99975021230105e-07, -6.452002411866571e-35, 0.0, 0.0, 0.0, 6.023255894830222e-25, 6.452001562552921e-35, 4.99975021230105e-07, 0.0, 5.721870619728468e-23, -4.057618436820479e-24, 0.0, 0.0, 0.0, 9.999980018517669e-10]
twist: 
  twist: 
    linear: 
      x: -3.49462384703e-09
      y: 0.0
      z: 0.0
    angular: 
      x: 0.0
      y: 0.0
      z: 0.0399999999996
  covariance: [0.01106010193094907, 0.0, 0.0, 0.0, 0.0, 0.0, 0.0, 42770655.624803774, 0.0, 0.0, 0.0, 0.0, 0.0, 0.0, 4.999975018623289e-07, 2.0845725637767037e-35, 1.4771770692408292e-36, 0.0, 0.0, 0.0, 2.0845725637767037e-35, 4.999750211996568e-07, -9.872276740399443e-39, 0.0, 0.0, 0.0, 1.477177069240829e-36, 9.871517904915955e-39, 4.999750211996568e-07, 0.0, 0.0, 0.0, 0.0, 0.0, 0.0, 9.999999000890136e-10]
---
header: 
  seq: 10867
  stamp: 
    secs: 1518208985
    nsecs: 834820509
  frame_id: "swarmone/map"
child_frame_id: "swarmone/base_link"
pose: 
  pose: 
    position: 
      x: 0.698180111972
      y: 8.15432073901
      z: 0.0
    orientation: 
      x: 0.0
      y: 0.0
      z: 0.681638755608
      w: 0.731688872987
  covariance: [7492548337302.627, -437755061641.8516, 0.0, 0.0, 0.0, 1.622091031166936e-22, -437755061641.8477, 25588627829.988422, 0.0, 0.0, 0.0, -1.3134149399929824e-23, 0.0, 0.0, 4.999749024436912e-07, 2.1507056876624256e-28, 6.7156047088483745e-25, 0.0, 0.0, 0.0, 2.1507056876624256e-28, 4.999749024574072e-07, -2.605176384017153e-34, 0.0, 0.0, 0.0, 6.715604708848376e-25, 2.605176274475744e-34, 4.999749024574072e-07, 0.0, 1.622091031166936e-22, -1.3134149399929825e-23, 0.0, 0.0, 0.0, 9.999979931786187e-10]
twist: 
  twist: 
    linear: 
      x: -3.06912761995e-09
      y: 0.0
      z: 0.0
    angular: 
      x: 0.0
      y: 0.0
      z: 0.0400000000006
  covariance: [0.011002583543131073, 0.0, 0.0, 0.0, 0.0, 0.0, 0.0, 42782423.34632712, 0.0, 0.0, 0.0, 0.0, 0.0, 0.0, 4.99997489939228e-07, 1.1182423146083062e-34, 9.053324524314173e-36, 0.0, 0.0, 0.0, 1.1182423146083064e-34, 4.999749024191133e-07, -5.8753543412906925e-39, 0.0, 0.0, 0.0, 9.053324524314176e-36, 5.861475433047675e-39, 4.999749024191133e-07, 0.0, 0.0, 0.0, 0.0, 0.0, 0.0, 9.999998996482107e-10]
---
header: 
  seq: 10868
  stamp: 
    secs: 1518208985
    nsecs: 935081720
  frame_id: "swarmone/map"
child_frame_id: "swarmone/base_link"
pose: 
  pose: 
    position: 
      x: 0.698180111922
      y: 8.15432073832
      z: 0.0
    orientation: 
      x: 0.0
      y: 0.0
      z: 0.677971820727
      w: 0.735087892908
  covariance: [7496016163842.376, -437979474827.8486, 0.0, 0.0, 0.0, 9.118351656439417e-23, -437979474827.84467, 25603016904.055573, 0.0, 0.0, 0.0, -6.466210684248078e-24, 0.0, 0.0, 4.999750641110992e-07, 2.707050935003812e-28, 9.58213567022547e-25, 0.0, 0.0, 0.0, 2.7070509350038114e-28, 4.999750641179172e-07, 1.285834453225511e-34, 0.0, 0.0, 0.0, 9.582135670225465e-25, -1.2858346587263244e-34, 4.999750641179172e-07, 0.0, 9.118351656439418e-23, -6.4662106842480764e-24, 0.0, 0.0, 0.0, 9.999980052824786e-10]
twist: 
  twist: 
    linear: 
      x: -5.70686690331e-09
      y: 0.0
      z: 0.0
    angular: 
      x: 0.0
      y: 0.0
      z: 0.0399999999996
  covariance: [0.011080901202487878, 0.0, 0.0, 0.0, 0.0, 0.0, 0.0, 42794265.49213361, 0.0, 0.0, 0.0, 0.0, 0.0, 0.0, 4.99997506151997e-07, 3.232677105099621e-35, 2.2912652358740324e-36, 0.0, 0.0, 0.0, 3.232677105099621e-35, 4.99975064087492e-07, 1.7055938145222153e-38, 0.0, 0.0, 0.0, 2.2912652358740328e-36, -1.7057516091651409e-38, 4.99975064087492e-07, 0.0, 0.0, 0.0, 0.0, 0.0, 0.0, 9.999999002605503e-10]
---
header: 
  seq: 10869
  stamp: 
    secs: 1518208986
    nsecs:  34917831
  frame_id: "swarmone/map"
child_frame_id: "swarmone/base_link"
pose: 
  pose: 
    position: 
      x: 0.698180111897
      y: 8.15432073801
      z: 0.0
    orientation: 
      x: 0.0
      y: 0.0
      z: 0.681638755621
      w: 0.731688872975
  covariance: [7499467938922.435, -438220214989.8632, 0.0, 0.0, 0.0, 7.536326146156122e-23, -438220214989.8593, 25619371901.53137, 0.0, 0.0, 0.0, -6.1022982041855024e-24, 0.0, 0.0, 4.999749572809716e-07, 2.2583249261450156e-28, 7.036081822128687e-25, 0.0, 0.0, 0.0, 2.2583249261450147e-28, 4.999749572888628e-07, 3.890512237109219e-34, 0.0, 0.0, 0.0, 7.036081822128685e-25, -3.890512364934483e-34, 4.999749572888628e-07, 0.0, 7.53632614615612e-23, -6.102298204185503e-24, 0.0, 0.0, 0.0, 9.999979968002012e-10]
twist: 
  twist: 
    linear: 
      x: -3.94578698313e-09
      y: 0.0
      z: 0.0
    angular: 
      x: 0.0
      y: 0.0
      z: 0.0400000000002
  covariance: [0.011029132556545355, 0.0, 0.0, 0.0, 0.0, 0.0, 0.0, 42806059.59928137, 0.0, 0.0, 0.0, 0.0, 0.0, 0.0, 4.999974954601168e-07, 3.1911327695270695e-35, 2.5824542773094532e-36, 0.0, 0.0, 0.0, 3.191132769527071e-35, 4.999749572571619e-07, -3.0853035024494545e-39, 0.0, 0.0, 0.0, 2.582454277309454e-36, 3.0840463134448304e-39, 4.999749572571619e-07, 0.0, 0.0, 0.0, 0.0, 0.0, 0.0, 9.999998998358613e-10]
---
header: 
  seq: 10870
  stamp: 
    secs: 1518208986
    nsecs: 134503841
  frame_id: "swarmone/map"
child_frame_id: "swarmone/base_link"
pose: 
  pose: 
    position: 
      x: 0.69818011186
      y: 8.15432073749
      z: 0.0
    orientation: 
      x: 0.0
      y: 0.0
      z: 0.681638762949
      w: 0.731688866148
  covariance: [7502914949981.308, -438443293709.81085, 0.0, 0.0, 0.0, 2.3317055656992467e-22, -438443293709.807, 25633676443.457058, 0.0, 0.0, 0.0, -1.653480437919218e-23, 0.0, 0.0, 4.999748872767669e-07, 2.8665555054288675e-28, 1.0218766749166006e-24, 0.0, 0.0, 0.0, 2.8665555054288666e-28, 4.999748872901826e-07, 3.912455622249479e-34, 0.0, 0.0, 0.0, 1.0218766749165999e-24, -3.912455852298692e-34, 4.999748872901826e-07, 0.0, 2.331705565699246e-22, -1.653480437919218e-23, 0.0, 0.0, 0.0, 9.999979918871797e-10]
twist: 
  twist: 
    linear: 
      x: -4.82596236236e-09
      y: 0.0
      z: 0.0
    angular: 
      x: 0.0
      y: 0.0
      z: 0.0300000010038
  covariance: [0.010995284655758084, 0.0, 0.0, 0.0, 0.0, 0.0, 0.0, 42817826.3194563, 0.0, 0.0, 0.0, 0.0, 0.0, 0.0, 4.999974884241295e-07, 1.566265981249155e-34, 1.110407754208573e-35, 0.0, 0.0, 0.0, 1.5662659812491547e-34, 4.999748872522208e-07, 7.332352359723781e-39, 0.0, 0.0, 0.0, 1.1104077542085724e-35, -7.355187629806434e-39, 4.999748872522208e-07, 0.0, 0.0, 0.0, 0.0, 0.0, 0.0, 9.999998995843045e-10]
---
header: 
  seq: 10871
  stamp: 
    secs: 1518208986
    nsecs: 235362530
  frame_id: "swarmone/map"
child_frame_id: "swarmone/base_link"
pose: 
  pose: 
    position: 
      x: 0.698180111835
      y: 8.15432073713
      z: 0.0
    orientation: 
      x: 0.0
      y: 0.0
      z: 0.688921432912
      w: 0.724836022335
  covariance: [7506407302915.395, -438669314658.02734, 0.0, 0.0, 0.0, 6.599325429065676e-23, -438669314658.0235, 25648170199.49798, 0.0, 0.0, 0.0, -4.67986808877962e-24, 0.0, 0.0, 4.999752117300214e-07, 1.437655966089617e-28, 6.738373332546551e-25, 0.0, 0.0, 0.0, 1.4376559660896165e-28, 4.999752117335556e-07, 6.353922031708166e-35, 0.0, 0.0, 0.0, 6.7383733325465505e-25, -6.353922843391066e-35, 4.999752117335556e-07, 0.0, 6.599325429065676e-23, -4.679868088779622e-24, 0.0, 0.0, 0.0, 9.999980171012265e-10]
twist: 
  twist: 
    linear: 
      x: -3.94786818069e-09
      y: 0.0
      z: 0.0
    angular: 
      x: 0.0
      y: 0.0
      z: 0.0300000000006
  covariance: [0.011153187407340942, 0.0, 0.0, 0.0, 0.0, 0.0, 0.0, 42829745.61231107, 0.0, 0.0, 0.0, 0.0, 0.0, 0.0, 4.999975209157536e-07, 2.4105141653703945e-35, 1.7084777539512566e-36, 0.0, 0.0, 0.0, 2.4105141653703923e-35, 4.999752117063753e-07, 5.021381243712617e-39, 0.0, 0.0, 0.0, 1.708477753951256e-36, -5.022185040175454e-39, 4.999752117063753e-07, 0.0, 0.0, 0.0, 0.0, 0.0, 0.0, 9.999999008513968e-10]
---
header: 
  seq: 10872
  stamp: 
    secs: 1518208986
    nsecs: 335238934
  frame_id: "swarmone/map"
child_frame_id: "swarmone/base_link"
pose: 
  pose: 
    position: 
      x: 0.698180111811
      y: 8.15432073667
      z: 0.0
    orientation: 
      x: 0.0
      y: 0.0
      z: 0.67797183474
      w: 0.735087879984
  covariance: [7509871138214.476, -438858723257.7845, 0.0, 0.0, 0.0, 7.094861394658094e-23, -438858723257.7807, 25658476261.249958, 0.0, 0.0, 0.0, -3.607002840728464e-24, 0.0, 0.0, 4.999749680330293e-07, 1.132547588768519e-28, 7.4678838281812105e-25, 0.0, 0.0, 0.0, 1.132547588768519e-28, 4.999749680365187e-07, 6.479796128372089e-35, 0.0, 0.0, 0.0, 7.467883828181212e-25, -6.479796808752017e-35, 4.999749680365187e-07, 0.0, 7.094861394658093e-23, -3.607002840728463e-24, 0.0, 0.0, 0.0, 9.9999799759694e-10]
twist: 
  twist: 
    linear: 
      x: -4.38849052381e-09
      y: 0.0
      z: 0.0
    angular: 
      x: 0.0
      y: 0.0
      z: 0.0299999999989
  covariance: [0.011034384365821801, 0.0, 0.0, 0.0, 0.0, 0.0, 0.0, 42841551.00018714, 0.0, 0.0, 0.0, 0.0, 0.0, 0.0, 4.999974965422062e-07, 2.5782791720867543e-35, 1.3101171716650404e-36, 0.0, 0.0, 0.0, 2.5782791720867527e-35, 4.999749680094224e-07, 3.14654917789331e-40, 0.0, 0.0, 0.0, 1.3101171716650399e-36, -3.15334622909591e-40, 4.999749680094224e-07, 0.0, 0.0, 0.0, 0.0, 0.0, 0.0, 9.999998998762704e-10]
---
header: 
  seq: 10873
  stamp: 
    secs: 1518208986
    nsecs: 434762716
  frame_id: "swarmone/map"
child_frame_id: "swarmone/base_link"
pose: 
  pose: 
    position: 
      x: 0.698180111863
      y: 8.15432073734
      z: 0.0
    orientation: 
      x: 0.0
      y: 0.0
      z: 0.677971812661
      w: 0.735087900347
  covariance: [7513317194266.081, -439099081770.9412, 0.0, 0.0, 0.0, -5.363169770281147e-23, -439099081770.93756, 25674806933.41444, 0.0, 0.0, 0.0, 4.34267138218445e-24, 0.0, 0.0, 4.999748791225385e-07, -1.3059395777603695e-28, -5.43654856855597e-25, 0.0, 0.0, 0.0, -1.3059395777603684e-28, 4.999748791263554e-07, -6.525068093378957e-35, 0.0, 0.0, 0.0, -5.436548568555969e-25, 6.525067555907714e-35, 4.999748791263554e-07, 0.0, -5.363169770281145e-23, 4.342671382184451e-24, 0.0, 0.0, 0.0, 9.99997990505871e-10]
twist: 
  twist: 
    linear: 
      x: 3.48692279204e-09
      y: 0.0
      z: 0.0
    angular: 
      x: 0.0
      y: 0.0
      z: 0.0399999989951
  covariance: [0.010991597412240326, 0.0, 0.0, 0.0, 0.0, 0.0, 0.0, 42853316.86591188, 0.0, 0.0, 0.0, 0.0, 0.0, 0.0, 4.999974876469495e-07, -1.860863339986464e-35, -1.50593482404006e-36, 0.0, 0.0, 0.0, -1.8608633399864622e-35, 4.999748790988572e-07, 2.832443688039698e-38, 0.0, 0.0, 0.0, -1.5059348240400607e-36, -2.8325029786478674e-38, 4.999748790988572e-07, 0.0, 0.0, 0.0, 0.0, 0.0, 0.0, 9.999998995215236e-10]
---
header: 
  seq: 10874
  stamp: 
    secs: 1518208986
    nsecs: 535280228
  frame_id: "swarmone/map"
child_frame_id: "swarmone/base_link"
pose: 
  pose: 
    position: 
      x: 0.698180111792
      y: 8.15432073644
      z: 0.0
    orientation: 
      x: 0.0
      y: 0.0
      z: 0.681638755671
      w: 0.731688872928
  covariance: [7516798941620.344, -439341939221.4764, 0.0, 0.0, 0.0, 7.813587415426154e-23, -439341939221.47266, 25691308290.29432, 0.0, 0.0, 0.0, -6.326814248812904e-24, 0.0, 0.0, 4.999751276954524e-07, 2.6486738154605044e-28, 8.196284517178987e-25, 0.0, 0.0, 0.0, 2.648673815460505e-28, 4.999751277022254e-07, -3.961318682053146e-39, 0.0, 0.0, 0.0, 8.196284517178987e-25, 3.943908365276293e-39, 4.999751277022254e-07, 0.0, 7.813587415426154e-23, -6.326814248812904e-24, 0.0, 0.0, 0.0, 9.999980103687607e-10]
twist: 
  twist: 
    linear: 
      x: -4.89583850366e-09
      y: 0.0
      z: 0.0
    angular: 
      x: 0.0
      y: 0.0
      z: 0.0400000000002
  covariance: [0.011111930294118045, 0.0, 0.0, 0.0, 0.0, 0.0, 0.0, 42865202.39827577, 0.0, 0.0, 0.0, 0.0, 0.0, 0.0, 4.999975125117408e-07, 2.7492354357037424e-35, 2.2244205554536523e-36, 0.0, 0.0, 0.0, 2.749235435703747e-35, 4.999751276718449e-07, -9.790515485515652e-40, 0.0, 0.0, 0.0, 2.2244205554536536e-36, 9.777649951729763e-40, 4.999751276718449e-07, 0.0, 0.0, 0.0, 0.0, 0.0, 0.0, 9.999999005148662e-10]
---
header: 
  seq: 10875
  stamp: 
    secs: 1518208986
    nsecs: 635220051
  frame_id: "swarmone/map"
child_frame_id: "swarmone/base_link"
pose: 
  pose: 
    position: 
      x: 0.698180111772
      y: 8.15432073615
      z: 0.0
    orientation: 
      x: 0.0
      y: 0.0
      z: 0.674287929358
      w: 0.73846854254
  covariance: [7520264589011.305, -439566250580.27484, 0.0, 0.0, 0.0, 1.745914237995485e-22, -439566250580.2712, 25705693937.232548, 0.0, 0.0, 0.0, -1.2380785921513945e-23, 0.0, 0.0, 4.999749761553671e-07, 2.1374246865110015e-28, 7.592681062237574e-25, 0.0, 0.0, 0.0, 2.1374246865110006e-28, 4.999749761687469e-07, -2.5900032563218284e-34, 0.0, 0.0, 0.0, 7.592681062237571e-25, 2.5900031256908984e-34, 4.999749761687469e-07, 0.0, 1.7459142379954853e-22, -1.2380785921513947e-23, 0.0, 0.0, 0.0, 9.999979989980333e-10]
twist: 
  twist: 
    linear: 
      x: -3.57231104106e-09
      y: 0.0
      z: 0.0
    angular: 
      x: 0.0
      y: 0.0
      z: 0.0399999999977
  covariance: [0.011038089173530625, 0.0, 0.0, 0.0, 0.0, 0.0, 0.0, 42877021.80137631, 0.0, 0.0, 0.0, 0.0, 0.0, 0.0, 4.999974973139729e-07, 1.1799994789778811e-34, 8.365657297073061e-36, 0.0, 0.0, 0.0, 1.1799994789778828e-34, 4.999749761308183e-07, 1.7627927018304462e-38, 0.0, 0.0, 0.0, 8.365657297073065e-36, -1.7640597319403552e-38, 4.999749761308183e-07, 0.0, 0.0, 0.0, 0.0, 0.0, 0.0, 9.999998999398022e-10]
---
header: 
  seq: 10876
  stamp: 
    secs: 1518208986
    nsecs: 735076189
  frame_id: "swarmone/map"
child_frame_id: "swarmone/base_link"
pose: 
  pose: 
    position: 
      x: 0.698180111744
      y: 8.15432073585
      z: 0.0
    orientation: 
      x: 0.0
      y: 0.0
      z: 0.670587166034
      w: 0.741830744005
  covariance: [7523723003317.619, -439824917556.7409, 0.0, 0.0, 0.0, 5.1833946674303824e-23, -439824917556.73737, 25724127039.121555, 0.0, 0.0, 0.0, -4.71926426706939e-24, 0.0, 0.0, 4.999749628990504e-07, 1.954103223856684e-28, 5.418000807803228e-25, 0.0, 0.0, 0.0, 1.9541032238566844e-28, 4.99974962905993e-07, -1.2963056112008517e-34, 0.0, 0.0, 0.0, 5.41800080780323e-25, 1.2963055300985022e-34, 4.99974962905993e-07, 0.0, 5.1833946674303824e-23, -4.71926426706939e-24, 0.0, 0.0, 0.0, 9.999979971914983e-10]
twist: 
  twist: 
    linear: 
      x: -3.1406297222e-09
      y: 0.0
      z: 0.0
    angular: 
      x: 0.0
      y: 0.0
      z: 0.0399999999995
  covariance: [0.011031873809740455, 0.0, 0.0, 0.0, 0.0, 0.0, 0.0, 42888833.47721318, 0.0, 0.0, 0.0, 0.0, 0.0, 0.0, 4.999974960281017e-07, 1.9132220133610893e-35, 1.740082037121315e-36, 0.0, 0.0, 0.0, 1.9132220133610903e-35, 4.999749628754242e-07, -6.100781459964717e-39, 0.0, 0.0, 0.0, 1.740082037121316e-36, 6.100157617058907e-39, 4.999749628754242e-07, 0.0, 0.0, 0.0, 0.0, 0.0, 0.0, 9.999998998559507e-10]
---
header: 
  seq: 10877
  stamp: 
    secs: 1518208986
    nsecs: 834860086
  frame_id: "swarmone/map"
child_frame_id: "swarmone/base_link"
pose: 
  pose: 
    position: 
      x: 0.698180111643
      y: 8.1543207348
      z: 0.0
    orientation: 
      x: 0.0
      y: 0.0
      z: 0.681638740953
      w: 0.73168888664
  covariance: [7527176865110.83, -440100688758.1135, 0.0, 0.0, 0.0, 1.4943423628992515e-22, -440100688758.11, 25744579697.941494, 0.0, 0.0, 0.0, -1.511352647970481e-23, 0.0, 0.0, 4.999749443395658e-07, 5.758803853786371e-28, 1.4398121254175595e-24, 0.0, 0.0, 0.0, 5.758803853786369e-28, 4.999749443471968e-07, -1.2982044998215701e-34, 0.0, 0.0, 0.0, 1.4398121254175597e-24, 1.2982038398221894e-34, 4.999749443471968e-07, 0.0, 1.494342362899251e-22, -1.5113526479704808e-23, 0.0, 0.0, 0.0, 9.99997995749099e-10]
twist: 
  twist: 
    linear: 
      x: -8.39983700334e-09
      y: 0.0
      z: 0.0
    angular: 
      x: 0.0
      y: 0.0
      z: 0.0400000000009
  covariance: [0.011022887403638453, 0.0, 0.0, 0.0, 0.0, 0.0, 0.0, 42900638.77459161, 0.0, 0.0, 0.0, 0.0, 0.0, 0.0, 4.999974941672624e-07, 5.933747539524471e-35, 5.997525497442424e-36, 0.0, 0.0, 0.0, 5.933747539524473e-35, 4.999749443158012e-07, -6.276148231649754e-39, 0.0, 0.0, 0.0, 5.997525497442425e-36, 6.269511747992423e-39, 4.999749443158012e-07, 0.0, 0.0, 0.0, 0.0, 0.0, 0.0, 9.999998997834487e-10]
---
header: 
  seq: 10878
  stamp: 
    secs: 1518208986
    nsecs: 934609413
  frame_id: "swarmone/map"
child_frame_id: "swarmone/base_link"
pose: 
  pose: 
    position: 
      x: 0.698180111556
      y: 8.15432073357
      z: 0.0
    orientation: 
      x: 0.0
      y: 0.0
      z: 0.68163876295
      w: 0.731688866147
  covariance: [7530639722864.754, -440324859059.3613, 0.0, 0.0, 0.0, 1.8449901564221636e-22, -440324859059.35767, 25758959310.301453, 0.0, 0.0, 0.0, -1.3083615672308336e-23, 0.0, 0.0, 4.999749360343362e-07, 5.359044893974191e-28, 1.9066444659491734e-24, 0.0, 0.0, 0.0, 5.359044893974192e-28, 4.999749360414057e-07, 1.299232605265306e-34, 0.0, 0.0, 0.0, 1.906644465949174e-24, -1.299233418979068e-34, 4.999749360414057e-07, 0.0, 1.8449901564221636e-22, -1.3083615672308336e-23, 0.0, 0.0, 0.0, 9.999979950477835e-10]
twist: 
  twist: 
    linear: 
      x: -1.14235923381e-08
      y: 0.0
      z: 0.0
    angular: 
      x: 0.0
      y: 0.0
      z: 0.0399999999999
  covariance: [0.011018887525649088, 0.0, 0.0, 0.0, 0.0, 0.0, 0.0, 42912442.14693477, 0.0, 0.0, 0.0, 0.0, 0.0, 0.0, 4.999974933404799e-07, 6.680791918949673e-35, 4.7343982750826554e-36, 0.0, 0.0, 0.0, 6.680791918949672e-35, 4.99974936010691e-07, -4.835713034944203e-39, 0.0, 0.0, 0.0, 4.7343982750826554e-36, 4.829327568553367e-39, 4.99974936010691e-07, 0.0, 0.0, 0.0, 0.0, 0.0, 0.0, 9.999998997487164e-10]
---
header: 
  seq: 10879
  stamp: 
    secs: 1518208987
    nsecs:  34511089
  frame_id: "swarmone/map"
child_frame_id: "swarmone/base_link"
pose: 
  pose: 
    position: 
      x: 0.698180111566
      y: 8.15432073367
      z: 0.0
    orientation: 
      x: 0.0
      y: 0.0
      z: 0.677971820754
      w: 0.735087892883
  covariance: [7534109145538.091, -440549459528.2866, 0.0, 0.0, 0.0, 5.186721557212545e-23, -440549459528.2829, 25773366921.41984, 0.0, 0.0, 0.0, -3.678120797899251e-24, 0.0, 0.0, 4.999749742585452e-07, 1.506594816317954e-28, 5.35203413155691e-25, 0.0, 0.0, 0.0, 1.5065948163179543e-28, 4.999749742655939e-07, 1.9426727766791206e-34, 0.0, 0.0, 0.0, 5.352034131556909e-25, -1.9426728383424936e-34, 4.999749742655939e-07, 0.0, 5.1867215572125445e-23, -3.6781207978992506e-24, 0.0, 0.0, 0.0, 9.999979981054123e-10]
twist: 
  twist: 
    linear: 
      x: -3.04624322692e-09
      y: 0.0
      z: 0.0
    angular: 
      x: 0.0
      y: 0.0
      z: 0.0399999999995
  covariance: [0.011037300084961319, 0.0, 0.0, 0.0, 0.0, 0.0, 0.0, 42924265.71660584, 0.0, 0.0, 0.0, 0.0, 0.0, 0.0, 4.999974971636957e-07, 1.9584811106248565e-35, 1.3878744910147757e-36, 0.0, 0.0, 0.0, 1.9584811106248565e-35, 4.999749742349e-07, 6.371421108218797e-39, 0.0, 0.0, 0.0, 1.3878744910147762e-36, -6.372115946533939e-39, 4.999749742349e-07, 0.0, 0.0, 0.0, 0.0, 0.0, 0.0, 9.99999899901599e-10]
---
header: 
  seq: 10880
  stamp: 
    secs: 1518208987
    nsecs: 134593487
  frame_id: "swarmone/map"
child_frame_id: "swarmone/base_link"
pose: 
  pose: 
    position: 
      x: 0.69818011152
      y: 8.1543207331
      z: 0.0
    orientation: 
      x: 0.0
      y: 0.0
      z: 0.67428792196
      w: 0.738468549296
  covariance: [7537583485366.094, -440791857764.76715, 0.0, 0.0, 0.0, 7.974791235668846e-23, -440791857764.7635, 25789842481.72964, 0.0, 0.0, 0.0, -6.457339787946937e-24, 0.0, 0.0, 4.999750194502848e-07, 2.644924995433669e-28, 8.220173812862024e-25, 0.0, 0.0, 0.0, 2.64492499543367e-28, 4.999750194572985e-07, 3.226292120868096e-34, 0.0, 0.0, 0.0, 8.220173812862026e-25, -3.22629229447478e-34, 4.999750194572985e-07, 0.0, 7.974791235668843e-23, -6.4573397879469375e-24, 0.0, 0.0, 0.0, 9.999980017203877e-10]
twist: 
  twist: 
    linear: 
      x: -4.81222166147e-09
      y: 0.0
      z: 0.0
    angular: 
      x: 0.0
      y: 0.0
      z: 0.0300000009987
  covariance: [0.011059169343339253, 0.0, 0.0, 0.0, 0.0, 0.0, 0.0, 42936112.85252726, 0.0, 0.0, 0.0, 0.0, 0.0, 0.0, 4.999975016838076e-07, 2.940050998440328e-35, 2.378901243988104e-36, 0.0, 0.0, 0.0, 2.940050998440328e-35, 4.999750194266395e-07, -1.8201510065337858e-39, 0.0, 0.0, 0.0, 2.3789012439881067e-36, 1.818859029833634e-39, 4.999750194266395e-07, 0.0, 0.0, 0.0, 0.0, 0.0, 0.0, 9.999999000823492e-10]
---
header: 
  seq: 10881
  stamp: 
