header: 
  seq: 8182
  stamp: 
    secs: 1518208716
    nsecs: 334698677
  frame_id: "swarmone/odom"
child_frame_id: "swarmone/base_link"
pose: 
  pose: 
    position: 
      x: 0.317016411843
      y: 11.7541394578
      z: 0.0
    orientation: 
      x: 0.0
      y: 0.0
      z: 0.677972059203
      w: 0.735087672961
  covariance: [181541697951.6745, -12274939716.71589, 0.0, 0.0, 0.0, -2.501696488248501e-20, -12274939716.71592, 832775144.1341395, 0.0, 0.0, 0.0, 2.02484790036997e-21, 0.0, 0.0, 5.742829489827574e-07, -1.053598723089767e-25, -1.9278349759052838e-18, 0.0, 0.0, 0.0, -1.053598723089767e-25, 4.5685484676723505e-07, -1.4187041193027455e-31, 0.0, 0.0, 0.0, -1.927834975905284e-18, 1.4186905146523687e-31, 4.5685484676723505e-07, 0.0, -2.501696488248501e-20, 2.02484790036997e-21, 0.0, 0.0, 0.0, 1.0166631468068934e-06]
twist: 
  twist: 
    linear: 
      x: 7.91278842833e-13
      y: 0.0
      z: 0.0
    angular: 
      x: 0.0
      y: 0.0
      z: 0.000117455485137
  covariance: [9.999996014880948e-10, 0.0, 0.0, 0.0, 0.0, 0.0, 0.0, 1825503.0873832556, 0.0, 0.0, 0.0, 0.0, 0.0, 0.0, 5.025901188560892e-07, -2.023546532797854e-29, -1.638629909289786e-30, 0.0, 0.0, 0.0, -2.0235465327978542e-29, 3.3444254298246465e-07, 8.016526499900722e-35, 0.0, 0.0, 0.0, -1.638629909289786e-30, -8.016526590626929e-35, 3.3444254298246465e-07, 0.0, 0.0, 0.0, 0.0, 0.0, 0.0, 9.970636114131374e-10]
---
header: 
  seq: 8183
  stamp: 
    secs: 1518208716
    nsecs: 434574604
  frame_id: "swarmone/odom"
child_frame_id: "swarmone/base_link"
pose: 
  pose: 
    position: 
      x: 0.317040554924
      y: 11.7544376302
      z: 0.0
    orientation: 
      x: 0.0
      y: 0.0
      z: 0.681638999425
      w: 0.731688645848
  covariance: [181652693782.37018, -12283228553.546703, 0.0, 0.0, 0.0, -1.4891100469503999e-16, -12283228553.546734, 833389733.7041466, 0.0, 0.0, 0.0, 1.1068763063753027e-17, 0.0, 0.0, 5.690338233621015e-07, -3.6096008039277755e-22, -7.750600186375848e-15, 0.0, 0.0, 0.0, -3.609600803927776e-22, 4.526016380909934e-07, -6.773459917757788e-30, 0.0, 0.0, 0.0, -7.750600186375848e-15, -6.209691455351927e-30, 4.526016380909932e-07, 0.0, -1.4891100469503999e-16, 1.1068763063753027e-17, 0.0, 0.0, 0.0, 9.880529173138656e-07]
twist: 
  twist: 
    linear: 
      x: 2.39985998695e-09
      y: 0.0
      z: 0.0
    angular: 
      x: 0.0
      y: 0.0
      z: 0.000120839421708
  covariance: [9.999995995036845e-10, 0.0, 0.0, 0.0, 0.0, 0.0, 0.0, 1826171.7105725284, 0.0, 0.0, 0.0, 0.0, 0.0, 0.0, 4.978257866994885e-07, -7.7934988558894e-26, -5.52680342941423e-27, 0.0, 0.0, 0.0, -7.7934988558894e-26, 3.3232334321007153e-07, -1.775495663747285e-34, 0.0, 0.0, 0.0, -5.526803429414231e-27, -6.506570230015034e-35, 3.3232334321007153e-07, 0.0, 0.0, 0.0, 0.0, 0.0, 0.0, 9.969790129491292e-10]
---
header: 
  seq: 8184
  stamp: 
    secs: 1518208716
    nsecs: 534964800
  frame_id: "swarmone/odom"
child_frame_id: "swarmone/base_link"
pose: 
  pose: 
    position: 
      x: 0.317058373688
      y: 11.754688914
      z: 0.0
    orientation: 
      x: 0.0
      y: 0.0
      z: 0.688921619638
      w: 0.724835844861
  covariance: [181764400643.19492, -12291008785.654383, 0.0, 0.0, 0.0, -1.2249971861222504e-16, -12291008785.654415, 833931438.384966, 0.0, 0.0, 0.0, 7.05520101779928e-18, 0.0, 0.0, 5.663604443206281e-07, -1.5979526223951166e-22, -6.464878328724864e-15, 0.0, 0.0, 0.0, -1.5979526223951163e-22, 4.50450008932739e-07, -2.4907371426618513e-30, 0.0, 0.0, 0.0, -6.464878328724864e-15, -2.2738291916439125e-30, 4.50450008932739e-07, 0.0, -1.2249971861222504e-16, 7.05520101779928e-18, 0.0, 0.0, 0.0, 9.737478025686186e-07]
twist: 
  twist: 
    linear: 
      x: 2.00065109791e-09
      y: 0.0
      z: 0.0
    angular: 
      x: 0.0
      y: 0.0
      z: 9.19541839423e-05
  covariance: [9.999996015552993e-10, 0.0, 0.0, 0.0, 0.0, 0.0, 0.0, 1826843.9410615254, 0.0, 0.0, 0.0, 0.0, 0.0, 0.0, 4.954092841308231e-07, -6.361891543410015e-26, -3.234493458276968e-27, 0.0, 0.0, 0.0, -6.361891543410012e-26, 3.3125905198611275e-07, 4.78988189258975e-35, 0.0, 0.0, 0.0, -3.234493458276969e-27, -6.478607841165519e-35, 3.3125905198611275e-07, 0.0, 0.0, 0.0, 0.0, 0.0, 0.0, 9.969348590145497e-10]
---
header: 
  seq: 8185
  stamp: 
    secs: 1518208716
    nsecs: 634700775
  frame_id: "swarmone/odom"
child_frame_id: "swarmone/base_link"
pose: 
  pose: 
    position: 
      x: 0.317083615348
      y: 11.7551853784
      z: 0.0
    orientation: 
      x: 0.0
      y: 0.0
      z: 0.68163899428
      w: 0.731688650641
  covariance: [181875569149.8003, -12297635920.471678, 0.0, 0.0, 0.0, -2.396612615696756e-16, -12297635920.471706, 834317953.0384098, 0.0, 0.0, 0.0, 1.5373440683939327e-17, 0.0, 0.0, 5.636536500001169e-07, -5.777437334335034e-22, -1.2778970813708955e-14, 0.0, 0.0, 0.0, -5.777437334335036e-22, 4.482813323759327e-07, -1.6549200258105288e-29, 0.0, 0.0, 0.0, -1.2778970813708954e-14, -1.7290816834201048e-29, 4.4828133237593234e-07, 0.0, -2.3966126156967553e-16, 1.5373440683939327e-17, 0.0, 0.0, 0.0, 9.59442687821428e-07]
twist: 
  twist: 
    linear: 
      x: 3.99843927586e-09
      y: 0.0
      z: 0.0
    angular: 
      x: 0.0
      y: 0.0
      z: 0.000124424127687
  covariance: [9.99999598941688e-10, 0.0, 0.0, 0.0, 0.0, 0.0, 0.0, 1827511.954114771, 0.0, 0.0, 0.0, 0.0, 0.0, 0.0, 4.929693290236639e-07, -1.22721690217391e-25, -8.702534364759853e-27, 0.0, 0.0, 0.0, -1.22721690217391e-25, 3.301907815778724e-07, -3.716398430427243e-34, 0.0, 0.0, 0.0, -8.702534364759852e-27, -3.3986448723198815e-34, 3.301907815778724e-07, 0.0, 0.0, 0.0, 0.0, 0.0, 0.0, 9.96889395251742e-10]
---
header: 
  seq: 8186
  stamp: 
    secs: 1518208716
    nsecs: 734682798
  frame_id: "swarmone/odom"
child_frame_id: "swarmone/base_link"
pose: 
  pose: 
    position: 
      x: 0.317076550109
      y: 11.7550857453
      z: 0.0
    orientation: 
      x: 0.0
      y: 0.0
      z: 0.685288896524
      w: 0.728271328765
  covariance: [181986930790.30072, -12305391944.47071, 0.0, 0.0, 0.0, 4.732469811544076e-17, -12305391944.47074, 834857959.8995546, 0.0, 0.0, 0.0, -3.0408267594134984e-18, 0.0, 0.0, 5.609128837409912e-07, 9.752834302379391e-23, 2.548672112146586e-15, 0.0, 0.0, 0.0, 9.752834302379391e-23, 4.460955410055596e-07, -3.8045986153186225e-32, 0.0, 0.0, 0.0, 2.548672112146586e-15, -1.0941999466541956e-30, 4.460955410055595e-07, 0.0, 4.732469811544076e-17, -3.0408267594134984e-18, 0.0, 0.0, 0.0, 9.451375730757382e-07]
twist: 
  twist: 
    linear: 
      x: -7.99228929566e-10
      y: 0.0
      z: 0.0
    angular: 
      x: 0.0
      y: 0.0
      z: 0.000126297437061
  covariance: [9.999995999286573e-10, 0.0, 0.0, 0.0, 0.0, 0.0, 0.0, 1828181.7785815515, 0.0, 0.0, 0.0, 0.0, 0.0, 0.0, 4.905057272890463e-07, 2.3920576145671533e-26, 1.4561050696005288e-27, 0.0, 0.0, 0.0, 2.3920576145671518e-26, 3.29119542423508e-07, 8.937624667494438e-38, 0.0, 0.0, 0.0, 1.4561050696005285e-27, -8.942434258795722e-38, 3.29119542423508e-07, 0.0, 0.0, 0.0, 0.0, 0.0, 0.0, 9.96842562499133e-10]
---
header: 
  seq: 8187
  stamp: 
    secs: 1518208716
    nsecs: 835327148
  frame_id: "swarmone/odom"
child_frame_id: "swarmone/base_link"
pose: 
  pose: 
    position: 
      x: 0.317088855767
      y: 11.7552879059
      z: 0.0
    orientation: 
      x: 0.0
      y: 0.0
      z: 0.685288907548
      w: 0.728271318391
  covariance: [182099159115.78516, -12312644799.061823, 0.0, 0.0, 0.0, -9.774635796311205e-17, -12312644799.061853, 835325099.4704508, 0.0, 0.0, 0.0, 5.949932154441339e-18, 0.0, 0.0, 5.690338496483184e-07, -2.0831009742091153e-22, -5.207661616619969e-15, 0.0, 0.0, 0.0, -2.0831009742091153e-22, 4.5260172295987713e-07, -2.4499567216993393e-30, 0.0, 0.0, 0.0, -5.207661616619969e-15, -2.5843090101230982e-30, 4.5260172295987713e-07, 0.0, -9.774635796311206e-17, 5.94993215444134e-18, 0.0, 0.0, 0.0, 9.880529173151377e-07]
twist: 
  twist: 
    linear: 
      x: 1.60025160918e-09
      y: 0.0
      z: 0.0
    angular: 
      x: 0.0
      y: 0.0
      z: 0.00012083942218
  covariance: [9.999996025614683e-10, 0.0, 0.0, 0.0, 0.0, 0.0, 0.0, 1828856.2055539812, 0.0, 0.0, 0.0, 0.0, 0.0, 0.0, 4.978258402233482e-07, -5.239672404677109e-26, -3.1894566617235863e-27, 0.0, 0.0, 0.0, -5.239672404677109e-26, 3.323237212217894e-07, -6.447263357846784e-35, 0.0, 0.0, 0.0, -3.1894566617235863e-27, 2.6326198891804373e-37, 3.323237212217894e-07, 0.0, 0.0, 0.0, 0.0, 0.0, 0.0, 9.969790129491643e-10]
---
header: 
  seq: 8188
  stamp: 
    secs: 1518208716
    nsecs: 935203075
  frame_id: "swarmone/odom"
child_frame_id: "swarmone/base_link"
pose: 
  pose: 
    position: 
      x: 0.317107030853
      y: 11.755586483
      z: 0.0
    orientation: 
      x: 0.0
      y: 0.0
      z: 0.68163898669
      w: 0.731688657712
  covariance: [182210585243.40897, -12319845766.496693, 0.0, 0.0, 0.0, -1.4184746174063006e-16, -12319845766.496725, 835788895.8410475, 0.0, 0.0, 0.0, 9.564571810559653e-18, 0.0, 0.0, 5.581374566474823e-07, -3.335855900742609e-22, -7.604136395141117e-15, 0.0, 0.0, 0.0, -3.3358559007426092e-22, 4.438923209023896e-07, -4.5216262802331274e-30, 0.0, 0.0, 0.0, -7.604136395141116e-15, -6.95989085407158e-30, 4.438923209023895e-07, 0.0, -1.4184746174063006e-16, 9.564571810559653e-18, 0.0, 0.0, 0.0, 9.30832458329461e-07]
twist: 
  twist: 
    linear: 
      x: 2.39948297603e-09
      y: 0.0
      z: 0.0
    angular: 
      x: 0.0
      y: 0.0
      z: 0.000128228016886
  covariance: [9.999995995036769e-10, 0.0, 0.0, 0.0, 0.0, 0.0, 0.0, 1829525.6472055325, 0.0, 0.0, 0.0, 0.0, 0.0, 0.0, 4.880180422794485e-07, -6.962991634975849e-26, -4.937673570189518e-27, 0.0, 0.0, 0.0, -6.962991634975848e-26, 3.280446945191996e-07, 6.282094845828536e-35, 0.0, 0.0, 0.0, -4.937673570189518e-27, -1.7949098403449753e-34, 3.280446945191996e-07, 0.0, 0.0, 0.0, 0.0, 0.0, 0.0, 9.96794297977614e-10]
---
header: 
  seq: 8189
  stamp: 
    secs: 1518208717
    nsecs:  34777641
  frame_id: "swarmone/odom"
child_frame_id: "swarmone/base_link"
pose: 
  pose: 
    position: 
      x: 0.317114040953
      y: 11.7556853405
      z: 0.0
    orientation: 
      x: 0.0
      y: 0.0
      z: 0.688922168994
      w: 0.724835322724
  covariance: [182321656260.3878, -12327580872.174118, 0.0, 0.0, 0.0, -1.1509777405382824e-16, -12327580872.174152, 836327399.7795392, 0.0, 0.0, 0.0, 6.160702487495023e-18, 0.0, 0.0, 7.694465403064758e-07, -2.7513608522117546e-22, -2.705527625655508e-15, 0.0, 0.0, 0.0, -2.7513608522117546e-22, 6.473079292790904e-07, -2.8881066123577642e-30, 0.0, 0.0, 0.0, -2.7055276256555068e-15, -3.5693665013538214e-30, 6.473079292790904e-07, 0.0, -1.1509777405382824e-16, 6.160702487495024e-18, 0.0, 0.0, 0.0, 3.005074096514755e-06]
twist: 
  twist: 
    linear: 
      x: 8.01847831189e-10
      y: 0.0
      z: 0.0
    angular: 
      x: 0.0
      y: 0.0
      z: 3.98661083125e-05
  covariance: [9.999995982915649e-10, 0.0, 0.0, 0.0, 0.0, 0.0, 0.0, 1830193.2315197354, 0.0, 0.0, 0.0, 0.0, 0.0, 0.0, 7.002417394838875e-07, -1.229166275409405e-25, -6.248008620300002e-27, 0.0, 0.0, 0.0, -1.229166275409405e-25, 4.547142298658179e-07, -1.9257856464045381e-34, 0.0, 0.0, 0.0, -6.2480086203000036e-27, -2.2746143747919638e-34, 4.547142298658179e-07, 0.0, 0.0, 0.0, 0.0, 0.0, 0.0, 9.99003346793087e-10]
---
header: 
  seq: 8190
  stamp: 
    secs: 1518208717
    nsecs: 135352373
  frame_id: "swarmone/odom"
child_frame_id: "swarmone/base_link"
pose: 
  pose: 
    position: 
      x: 0.317137145518
      y: 11.7561397697
      z: 0.0
    orientation: 
      x: 0.0
      y: 0.0
      z: 0.685288901206
      w: 0.728271324359
  covariance: [182434034543.1866, -12334279480.974585, 0.0, 0.0, 0.0, -3.705394259113531e-16, -12334279480.974617, 836718048.8639102, 0.0, 0.0, 0.0, 2.0285354763866657e-17, 0.0, 0.0, 5.636536796023673e-07, -4.5045233758280455e-22, -1.160058189919278e-14, 0.0, 0.0, 0.0, -4.504523375828047e-22, 4.482814274464955e-07, -1.221810007275386e-29, 0.0, 0.0, 0.0, -1.1600581899192781e-14, -1.1733055855844815e-29, 4.4828142744649513e-07, 0.0, -3.705394259113531e-16, 2.0285354763866654e-17, 0.0, 0.0, 0.0, 9.594426878228775e-07]
twist: 
  twist: 
    linear: 
      x: 3.59972442826e-09
      y: 0.0
      z: 0.0
    angular: 
      x: 0.0
      y: 0.0
      z: 0.000124424128124
  covariance: [9.999996022869084e-10, 0.0, 0.0, 0.0, 0.0, 0.0, 0.0, 1830867.6861465855, 0.0, 0.0, 0.0, 0.0, 0.0, 0.0, 4.929693890941582e-07, -1.11700562910734e-25, -6.797199089710692e-27, 0.0, 0.0, 0.0, -1.1170056291073405e-25, 3.3019120406099425e-07, -2.2975880806556027e-34, 0.0, 0.0, 0.0, -6.797199089710693e-27, -2.298004405033151e-34, 3.3019120406099425e-07, 0.0, 0.0, 0.0, 0.0, 0.0, 0.0, 9.968893952517828e-10]
---
header: 
  seq: 8191
  stamp: 
    secs: 1518208717
    nsecs: 234590292
  frame_id: "swarmone/odom"
child_frame_id: "swarmone/base_link"
pose: 
  pose: 
    position: 
      x: 0.317161071148
      y: 11.7565328263
      z: 0.0
    orientation: 
      x: 0.0
      y: 0.0
      z: 0.685288914494
      w: 0.728271311856
  covariance: [182544911418.32516, -12341444480.410734, 0.0, 0.0, 0.0, -1.974631379707817e-16, -12341444480.410769, 837179500.2650226, 0.0, 0.0, 0.0, 1.2019805361365803e-17, 0.0, 0.0, 5.742829107267761e-07, -4.2624311077016505e-22, -1.0356049119270025e-14, 0.0, 0.0, 0.0, -4.262431107701652e-22, 4.568547224402028e-07, -1.0725599963847017e-29, 0.0, 0.0, 0.0, -1.0356049119270025e-14, -1.0012067647477423e-29, 4.568547224402025e-07, 0.0, -1.9746313797078172e-16, 1.2019805361365804e-17, 0.0, 0.0, 0.0, 1.0166631468049937e-06]
twist: 
  twist: 
    linear: 
      x: 3.19986421735e-09
      y: 0.0
      z: 0.0
    angular: 
      x: 0.0
      y: 0.0
      z: 0.000117455484472
  covariance: [9.999995969288483e-10, 0.0, 0.0, 0.0, 0.0, 0.0, 0.0, 1831533.3384888743, 0.0, 0.0, 0.0, 0.0, 0.0, 0.0, 5.025900405261667e-07, -1.089267971637848e-25, -6.630515933553031e-27, 0.0, 0.0, 0.0, -1.0892679716378482e-25, 3.344419825378836e-07, -2.249557334250269e-34, 0.0, 0.0, 0.0, -6.630515933553033e-27, -1.6048575590716383e-34, 3.344419825378836e-07, 0.0, 0.0, 0.0, 0.0, 0.0, 0.0, 9.97063611413088e-10]
---
header: 
  seq: 8192
  stamp: 
    secs: 1518208717
    nsecs: 334535122
  frame_id: "swarmone/odom"
child_frame_id: "swarmone/base_link"
pose: 
  pose: 
    position: 
      x: 0.317182302321
      y: 11.7568816275
      z: 0.0
    orientation: 
      x: 0.0
      y: 0.0
      z: 0.688921772132
      w: 0.724835699922
  covariance: [182656632560.79175, -12348663779.523973, 0.0, 0.0, 0.0, -2.173719910767724e-16, -12348663779.524008, 837644432.0336335, 0.0, 0.0, 0.0, 1.1644413267510582e-17, 0.0, 0.0, 6.285704645004993e-07, -4.484013231382444e-22, -9.744790288041046e-15, 0.0, 0.0, 0.0, -4.484013231382445e-22, 5.031771402025565e-07, -1.1554672092386982e-29, 0.0, 0.0, 0.0, -9.744790288041046e-15, -1.1973912904876239e-29, 5.031771402025563e-07, 0.0, -2.1737199107677236e-16, 1.1644413267510582e-17, 0.0, 0.0, 0.0, 1.35998590071265e-06]
twist: 
  twist: 
    linear: 
      x: 2.79983875147e-09
      y: 0.0
      z: 0.0
    angular: 
      x: 0.0
      y: 0.0
      z: 8.79129522029e-05
  covariance: [9.999995997797906e-10, 0.0, 0.0, 0.0, 0.0, 0.0, 0.0, 1832203.895587752, 0.0, 0.0, 0.0, 0.0, 0.0, 0.0, 5.534311063504368e-07, -1.5874020374047432e-25, -8.069911913282389e-27, 0.0, 0.0, 0.0, -1.5874020374047432e-25, 3.5885922491539143e-07, -3.020074488375606e-34, 0.0, 0.0, 0.0, -8.069911913282392e-27, -2.9557584702860174e-34, 3.5885922491539143e-07, 0.0, 0.0, 0.0, 0.0, 0.0, 0.0, 9.97802175098389e-10]
---
header: 
  seq: 8193
  stamp: 
    secs: 1518208717
    nsecs: 434671164
  frame_id: "swarmone/odom"
child_frame_id: "swarmone/base_link"
pose: 
  pose: 
    position: 
      x: 0.317197575466
      y: 11.7571820484
      z: 0.0
    orientation: 
      x: 0.0
      y: 0.0
      z: 0.688921682874
      w: 0.724835784758
  covariance: [182768684813.75055, -12355342353.845856, 0.0, 0.0, 0.0, -1.6672224155806102e-16, -12355342353.84589, 838033885.7340891, 0.0, 0.0, 0.0, 8.476107581388719e-18, 0.0, 0.0, 5.690338323391989e-07, -2.598499598138019e-22, -7.774353645235222e-15, 0.0, 0.0, 0.0, -2.5984995981380193e-22, 4.5260166728081453e-07, -4.215657043251188e-30, 0.0, 0.0, 0.0, -7.774353645235217e-15, -5.159414768572694e-30, 4.526016672808144e-07, 0.0, -1.6672224155806102e-16, 8.476107581388717e-18, 0.0, 0.0, 0.0, 9.880529173143086e-07]
twist: 
  twist: 
    linear: 
      x: 2.40124996276e-09
      y: 0.0
      z: 0.0
    angular: 
      x: 0.0
      y: 0.0
      z: 0.000120839421819
  covariance: [9.999996005441102e-10, 0.0, 0.0, 0.0, 0.0, 0.0, 0.0, 1832875.899697249, 0.0, 0.0, 0.0, 0.0, 0.0, 0.0, 4.978258050060237e-07, -7.829007862896385e-26, -3.9802694787830356e-27, 0.0, 0.0, 0.0, -7.829007862896384e-26, 3.3232347311136164e-07, -1.6095937311604606e-34, 0.0, 0.0, 0.0, -3.980269478783035e-27, -4.0597615018245554e-35, 3.3232347311136164e-07, 0.0, 0.0, 0.0, 0.0, 0.0, 0.0, 9.969790129491412e-10]
---
header: 
  seq: 8194
  stamp: 
    secs: 1518208717
    nsecs: 534704208
  frame_id: "swarmone/odom"
child_frame_id: "swarmone/base_link"
pose: 
  pose: 
    position: 
      x: 0.317233128127
      y: 11.7578813615
      z: 0.0
    orientation: 
      x: 0.0
      y: 0.0
      z: 0.688921689787
      w: 0.724835778188
  covariance: [182880676653.782, -12362017027.946032, 0.0, 0.0, 0.0, -3.5185994422472074e-16, -12362017027.946066, 838423099.4954561, 0.0, 0.0, 0.0, 1.7888505408424877e-17, 0.0, 0.0, 5.742829376129794e-07, -6.283462802717448e-22, -1.82685396699734e-14, 0.0, 0.0, 0.0, -6.283462802717448e-22, 4.568548100294422e-07, -2.657619258818803e-29, 0.0, 0.0, 0.0, -1.82685396699734e-14, -2.735159632869382e-29, 4.568548100294414e-07, 0.0, -3.518599442247207e-16, 1.7888505408424877e-17, 0.0, 0.0, 0.0, 1.0166631468063295e-06]
twist: 
  twist: 
    linear: 
      x: 5.59985572149e-09
      y: 0.0
      z: 0.0
    angular: 
      x: 0.0
      y: 0.0
      z: 0.000117455484934
  covariance: [9.999996001327202e-10, 0.0, 0.0, 0.0, 0.0, 0.0, 0.0, 1833547.3766468745, 0.0, 0.0, 0.0, 0.0, 0.0, 0.0, 5.025900955783895e-07, -1.922630487298796e-25, -9.7746582540467e-27, 0.0, 0.0, 0.0, -1.9226304872987965e-25, 3.3444237647656245e-07, -6.34755063069841e-34, 0.0, 0.0, 0.0, -9.774658254046698e-27, -4.823303441214844e-34, 3.3444237647656245e-07, 0.0, 0.0, 0.0, 0.0, 0.0, 0.0, 9.970636114131225e-10]
---
header: 
  seq: 8195
  stamp: 
    secs: 1518208717
    nsecs: 634819031
  frame_id: "swarmone/odom"
child_frame_id: "swarmone/base_link"
pose: 
  pose: 
    position: 
      x: 0.317266194793
      y: 11.7585317758
      z: 0.0
    orientation: 
      x: 0.0
      y: 0.0
      z: 0.688921672506
      w: 0.724835794613
  covariance: [182992814948.98007, -12368700116.110655, 0.0, 0.0, 0.0, -3.1458916181613057e-16, -12368700116.11069, 838812790.2166874, 0.0, 0.0, 0.0, 1.5993657754170383e-17, 0.0, 0.0, 5.609128884842093e-07, -5.307542140076463e-22, -1.659918037264979e-14, 0.0, 0.0, 0.0, -5.307542140076464e-22, 4.4609555618262986e-07, -2.0530206587160167e-29, 0.0, 0.0, 0.0, -1.6599180372649785e-14, -2.153520050067565e-29, 4.460955561826291e-07, 0.0, -3.1458916181613057e-16, 1.5993657754170386e-17, 0.0, 0.0, 0.0, 9.451375730759608e-07]
twist: 
  twist: 
    linear: 
      x: 5.19947137428e-09
      y: 0.0
      z: 0.0
    angular: 
      x: 0.0
      y: 0.0
      z: 0.000126297437133
  covariance: [9.999996004593544e-10, 0.0, 0.0, 0.0, 0.0, 0.0, 0.0, 1834219.5667121299, 0.0, 0.0, 0.0, 0.0, 0.0, 0.0, 4.905057368719664e-07, -1.5588601251556412e-25, -7.925249132698952e-27, 0.0, 0.0, 0.0, -1.5588601251556414e-25, 3.291196089155587e-07, -4.4495420617086015e-34, 0.0, 0.0, 0.0, -7.925249132698953e-27, -4.374947626672821e-34, 3.291196089155587e-07, 0.0, 0.0, 0.0, 0.0, 0.0, 0.0, 9.968425624991396e-10]
---
header: 
  seq: 8196
  stamp: 
    secs: 1518208717
    nsecs: 734925985
  frame_id: "swarmone/odom"
child_frame_id: "swarmone/base_link"
pose: 
  pose: 
    position: 
      x: 0.317289082215
      y: 11.7589819662
      z: 0.0
    orientation: 
      x: 0.0
      y: 0.0
      z: 0.688921675962
      w: 0.724835791328
  covariance: [183104999368.40594, -12375385642.161722, 0.0, 0.0, 0.0, -2.145476866762711e-16, -12375385642.161755, 839202609.6984397, 0.0, 0.0, 0.0, 1.0907572973292214e-17, 0.0, 0.0, 5.636536630980921e-07, -3.747583880976153e-22, -1.1545415442871404e-14, 0.0, 0.0, 0.0, -3.7475838809761536e-22, 4.482813743981236e-07, -9.583288505884201e-30, 0.0, 0.0, 0.0, -1.1545415442871404e-14, -1.0248362834053245e-29, 4.4828137439812316e-07, 0.0, -2.145476866762711e-16, 1.0907572973292212e-17, 0.0, 0.0, 0.0, 9.594426878220466e-07]
twist: 
  twist: 
    linear: 
      x: 3.59923596135e-09
      y: 0.0
      z: 0.0
    angular: 
      x: 0.0
      y: 0.0
      z: 0.00012442412797
  covariance: [9.999996004279338e-10, 0.0, 0.0, 0.0, 0.0, 0.0, 0.0, 1834891.8681986323, 0.0, 0.0, 0.0, 0.0, 0.0, 0.0, 4.929693555461634e-07, -1.1100800235185733e-25, -5.643649834833118e-27, 0.0, 0.0, 0.0, -1.1100800235185729e-25, 3.3019096650680584e-07, -2.2687191317536854e-34, 0.0, 0.0, 0.0, -5.6436498348331165e-27, -1.3838396296053886e-34, 3.3019096650680584e-07, 0.0, 0.0, 0.0, 0.0, 0.0, 0.0, 9.9688939525176e-10]
---
header: 
  seq: 8197
  stamp: 
    secs: 1518208717
    nsecs: 835184574
  frame_id: "swarmone/odom"
child_frame_id: "swarmone/base_link"
pose: 
  pose: 
    position: 
      x: 0.317296735965
      y: 11.759132509
      z: 0.0
    orientation: 
      x: 0.0
      y: 0.0
      z: 0.685288901209
      w: 0.728271324357
  covariance: [183217408786.2523, -12382084351.672606, 0.0, 0.0, 0.0, -7.196700515271736e-17, -12382084351.672638, 839593191.2421564, 0.0, 0.0, 0.0, 4.139866216255828e-18, 0.0, 0.0, 5.63653668426792e-07, -1.4973318952181202e-22, -3.855230752665245e-15, 0.0, 0.0, 0.0, -1.4973318952181204e-22, 4.482813913633275e-07, -1.5418774303770469e-30, 0.0, 0.0, 0.0, -3.855230752665245e-15, -1.1039299171783098e-30, 4.4828139136332753e-07, 0.0, -7.196700515271734e-17, 4.139866216255828e-18, 0.0, 0.0, 0.0, 9.594426878222988e-07]
twist: 
  twist: 
    linear: 
      x: 1.20012995332e-09
      y: 0.0
      z: 0.0
    angular: 
      x: 0.0
      y: 0.0
      z: 0.000124424128061
  covariance: [9.99999601032263e-10, 0.0, 0.0, 0.0, 0.0, 0.0, 0.0, 1835565.3526693236, 0.0, 0.0, 0.0, 0.0, 0.0, 0.0, 4.92969366338472e-07, -3.704736508379171e-26, -2.2550874675466004e-27, 0.0, 0.0, 0.0, -3.704736508379173e-26, 3.301910417975076e-07, -3.2013681779678e-35, 0.0, 0.0, 0.0, -2.255087467546601e-27, -1.5632700561199598e-35, 3.301910417975076e-07, 0.0, 0.0, 0.0, 0.0, 0.0, 0.0, 9.968893952517675e-10]
---
header: 
  seq: 8198
  stamp: 
    secs: 1518208717
    nsecs: 935287237
  frame_id: "swarmone/odom"
child_frame_id: "swarmone/base_link"
pose: 
  pose: 
    position: 
      x: 0.317308908902
      y: 11.7593324892
      z: 0.0
    orientation: 
      x: 0.0
      y: 0.0
      z: 0.685288945747
      w: 0.728271282447
  covariance: [183329635693.32043, -12389334763.36459, 0.0, 0.0, 0.0, -1.0817758581544041e-16, -12389334763.364622, 840060038.6557642, 0.0, 0.0, 0.0, 6.5848943820578705e-18, 0.0, 0.0, 5.964037984803995e-07, -2.500237844424812e-22, -5.391728336552684e-15, 0.0, 0.0, 0.0, -2.5002378444248116e-22, 4.7520375376777626e-07, -1.7706124472567304e-30, 0.0, 0.0, 0.0, -5.391728336552685e-15, -5.644946659103716e-31, 4.7520375376777626e-07, 0.0, -1.0817758581544042e-16, 6.584894382057871e-18, 0.0, 0.0, 0.0, 1.1454091795213621e-06]
twist: 
  twist: 
    linear: 
      x: 1.60027864311e-09
      y: 0.0
      z: 0.0
    angular: 
      x: 0.0
      y: 0.0
      z: 0.000104310659643
  covariance: [9.999996004108076e-10, 0.0, 0.0, 0.0, 0.0, 0.0, 0.0, 1836237.95410761, 0.0, 0.0, 0.0, 0.0, 0.0, 0.0, 5.229565332252853e-07, -6.806774317522371e-26, -4.143371745786428e-27, 0.0, 0.0, 0.0, -6.80677431752237e-26, 3.4381361498434746e-07, 5.097714000268982e-35, 0.0, 0.0, 0.0, -4.143371745786429e-27, 3.044508038104451e-36, 3.4381361498434746e-07, 0.0, 0.0, 0.0, 0.0, 0.0, 0.0, 9.973922322101747e-10]
---
header: 
  seq: 8199
  stamp: 
    secs: 1518208718
    nsecs:  35518885
  frame_id: "swarmone/odom"
child_frame_id: "swarmone/base_link"
pose: 
  pose: 
    position: 
      x: 0.317327154699
      y: 11.7596322366
      z: 0.0
    orientation: 
      x: 0.0
      y: 0.0
      z: 0.685291241173
      w: 0.72826912249
  covariance: [183442062253.93002, -12396597937.132195, 0.0, 0.0, 0.0, -1.1161831571241815e-15, -12396597937.132229, 840527699.8756016, 0.0, 0.0, 0.0, 6.794352379393102e-17, 0.0, 0.0, 9.162016196268925e-07, -1.9180606331975533e-21, -4.467205723065678e-15, 0.0, 0.0, 0.0, -1.918060633197553e-21, 8.492465201928179e-07, -1.0170104794443924e-28, 0.0, 0.0, 0.0, -4.467205723065678e-15, -1.027989763901094e-28, 8.492465201928176e-07, 0.0, -1.1161831571241815e-15, 6.794352379393102e-17, 0.0, 0.0, 0.0, 1.0601090026720129e-05]
twist: 
  twist: 
    linear: 
      x: 2.39765146886e-09
      y: 0.0
      z: 0.0
    angular: 
      x: 0.0
      y: 0.0
      z: 1.13142486913e-05
  covariance: [9.999996009250728e-10, 0.0, 0.0, 0.0, 0.0, 0.0, 0.0, 1836911.586812036, 0.0, 0.0, 0.0, 0.0, 0.0, 0.0, 8.809528383003362e-07, -5.933807411362016e-25, -3.611962677710643e-26, 0.0, 0.0, 0.0, -5.933807411362016e-25, 6.77409367953247e-07, -5.644548267038341e-33, 0.0, 0.0, 0.0, -3.611962677710644e-26, -5.162937288997533e-33, 6.77409367953247e-07, 0.0, 0.0, 0.0, 0.0, 0.0, 0.0, 9.997171436417355e-10]
---
header: 
  seq: 8200
  stamp: 
    secs: 1518208718
    nsecs: 135666847
  frame_id: "swarmone/odom"
child_frame_id: "swarmone/base_link"
pose: 
  pose: 
    position: 
      x: 0.317336318204
      y: 11.759782793
      z: 0.0
    orientation: 
      x: 0.0
      y: 0.0
      z: 0.685288911021
      w: 0.728271315124
  covariance: [183554450023.60812, -12403858119.618484, 0.0, 0.0, 0.0, -3.146184203437037e-16, -12403858119.618515, 840995135.3548987, 0.0, 0.0, 0.0, 1.914937071500794e-17, 0.0, 0.0, 5.716744685764623e-07, -1.5880835204037884e-22, -3.9149966561428304e-15, 0.0, 0.0, 0.0, -1.588083520403789e-22, 4.547365405941675e-07, -1.0230658607385648e-30, 0.0, 0.0, 0.0, -3.914996656142831e-15, -1.880058490183131e-30, 4.5473654059416757e-07, 0.0, -3.1461842034370375e-16, 1.914937071500794e-17, 0.0, 0.0, 0.0, 1.0023580320606852e-06]
twist: 
  twist: 
    linear: 
      x: 1.2038498939e-09
      y: 0.0
      z: 0.0
    angular: 
      x: 0.0
      y: 0.0
      z: 0.000119123426265
  covariance: [9.999996005941174e-10, 0.0, 0.0, 0.0, 0.0, 0.0, 0.0, 1837584.821614797, 0.0, 0.0, 0.0, 0.0, 0.0, 0.0, 5.002193092588965e-07, -4.058250342496531e-26, -2.470307308430385e-27, 0.0, 0.0, 0.0, -4.058250342496532e-26, 3.333846561116562e-07, -9.980804894185378e-35, 0.0, 0.0, 0.0, -2.470307308430385e-27, 1.2968528888425052e-35, 3.333846561116562e-07, 0.0, 0.0, 0.0, 0.0, 0.0, 0.0, 9.970219128567127e-10]
---
header: 
  seq: 8201
  stamp: 
    secs: 1518208718
    nsecs: 234635353
  frame_id: "swarmone/odom"
child_frame_id: "swarmone/base_link"
pose: 
  pose: 
    position: 
      x: 0.317360115487
      y: 11.7601737521
      z: 0.0
    orientation: 
      x: 0.0
      y: 0.0
      z: 0.68892168572
      w: 0.724835782053
  covariance: [183665568215.24222, -12411036423.490875, 0.0, 0.0, 0.0, -1.9795827766611602e-16, -12411036423.490904, 841457310.8947784, 0.0, 0.0, 0.0, 1.0726132867505285e-17, 0.0, 0.0, 5.716744279491136e-07, -3.488417490329983e-22, -1.0286118399227235e-14, 0.0, 0.0, 0.0, -3.4884174903299825e-22, 4.5473640820067576e-07, -8.35645760540223e-30, 0.0, 0.0, 0.0, -1.0286118399227235e-14, -8.398162776815198e-30, 4.5473640820067555e-07, 0.0, -1.9795827766611602e-16, 1.0726132867505287e-17, 0.0, 0.0, 0.0, 1.0023580320584365e-06]
twist: 
  twist: 
    linear: 
      x: 3.20039967618e-09
      y: 0.0
      z: 0.0
    angular: 
      x: 0.0
      y: 0.0
      z: 0.00011912342572
  covariance: [9.99999595831616e-10, 0.0, 0.0, 0.0, 0.0, 0.0, 0.0, 1838250.2892177363, 0.0, 0.0, 0.0, 0.0, 0.0, 0.0, 5.002192260351909e-07, -1.0589914982089429e-25, -5.383961306911941e-27, 0.0, 0.0, 0.0, -1.0589914982089426e-25, 3.3338405222898675e-07, -1.5343964508436337e-34, 0.0, 0.0, 0.0, -5.3839613069119385e-27, -2.3308279372468843e-34, 3.3338405222898675e-07, 0.0, 0.0, 0.0, 0.0, 0.0, 0.0, 9.9702191285666e-10]
---
header: 
  seq: 8202
  stamp: 
    secs: 1518208718
    nsecs: 335222006
  frame_id: "swarmone/odom"
child_frame_id: "swarmone/base_link"
pose: 
  pose: 
    position: 
      x: 0.317388358259
      y: 11.7607292449
      z: 0.0
    orientation: 
      x: 0.0
      y: 0.0
      z: 0.68163899427
      w: 0.731688650651
  covariance: [183778621394.15353, -12417772747.59341, 0.0, 0.0, 0.0, -2.685217814131235e-16, -12417772747.593441, 841850056.2513263, 0.0, 0.0, 0.0, 1.7189763910069844e-17, 0.0, 0.0, 5.636536799017833e-07, -6.410367863877177e-22, -1.4177757873263984e-14, 0.0, 0.0, 0.0, -6.410367863877179e-22, 4.482814279696855e-07, -2.0940449577349798e-29, 0.0, 0.0, 0.0, -1.4177757873263984e-14, -2.0716605886744737e-29, 4.482814279696851e-07, 0.0, -2.685217814131235e-16, 1.7189763910069847e-17, 0.0, 0.0, 0.0, 9.594426878228421e-07]
twist: 
  twist: 
    linear: 
      x: 4.39869081437e-09
      y: 0.0
      z: 0.0
    angular: 
      x: 0.0
      y: 0.0
      z: 0.000124424128254
  covariance: [9.999996023335097e-10, 0.0, 0.0, 0.0, 0.0, 0.0, 0.0, 1838926.801900927, 0.0, 0.0, 0.0, 0.0, 0.0, 0.0, 4.929693895798823e-07, -1.3615788256284892e-25, -9.655282355470703e-27, 0.0, 0.0, 0.0, -1.361578825628489e-25, 3.3019120395662153e-07, -4.365093418633793e-34, 0.0, 0.0, 0.0, -9.655282355470703e-27, -3.2457709999740834e-34, 3.3019120395662153e-07, 0.0, 0.0, 0.0, 0.0, 0.0, 0.0, 9.96889395251783e-10]
---
header: 
  seq: 8203
  stamp: 
    secs: 1518208718
    nsecs: 434687376
  frame_id: "swarmone/odom"
child_frame_id: "swarmone/base_link"
pose: 
  pose: 
    position: 
      x: 0.317391857924
      y: 11.7607785967
      z: 0.0
    orientation: 
      x: 0.0
      y: 0.0
      z: 0.685288899993
      w: 0.728271325501
  covariance: [183890332924.3306, -12425550025.083467, 0.0, 0.0, 0.0, -2.3800080397043364e-17, -12425550025.083496, 842391317.948129, 0.0, 0.0, 0.0, 1.5283857722755886e-18, 0.0, 0.0, 5.636536403803844e-07, -4.955687757415009e-23, -1.2757457217281813e-15, 0.0, 0.0, 0.0, -4.9556877574150097e-23, 4.482813017063981e-07, -7.468334916135891e-31, 0.0, 0.0, 0.0, -1.2757457217281811e-15, 4.5706024221657354e-31, 4.482813017063981e-07, 0.0, -2.3800080397043367e-17, 1.5283857722755886e-18, 0.0, 0.0, 0.0, 9.59442687820973e-07]
twist: 
  twist: 
    linear: 
      x: 4.0039177876e-10
      y: 0.0
      z: 0.0
    angular: 
      x: 0.0
      y: 0.0
      z: 0.000124424127569
  covariance: [9.999995978505668e-10, 0.0, 0.0, 0.0, 0.0, 0.0, 0.0, 1839595.9364024573, 0.0, 0.0, 0.0, 0.0, 0.0, 0.0, 4.929693095415742e-07, -1.2259453800979662e-26, -7.462603347332075e-28, 0.0, 0.0, 0.0, -1.2259453800979662e-26, 3.3019064568280626e-07, 6.458143552624701e-35, 0.0, 0.0, 0.0, -7.462603347332076e-28, -6.458147383606672e-35, 3.3019064568280626e-07, 0.0, 0.0, 0.0, 0.0, 0.0, 0.0, 9.968893952517288e-10]
---
header: 
  seq: 8204
  stamp: 
    secs: 1518208718
    nsecs: 534962654
  frame_id: "swarmone/odom"
child_frame_id: "swarmone/base_link"
pose: 
  pose: 
    position: 
      x: 0.31740407124
      y: 11.7609792403
      z: 0.0
    orientation: 
      x: 0.0
      y: 0.0
      z: 0.685288897131
      w: 0.728271328194
  covariance: [184003083293.4355, -12432833475.247108, 0.0, 0.0, 0.0, -9.498295554573305e-17, -12432833475.24714, 842860247.9607551, 0.0, 0.0, 0.0, 5.7817196457183436e-18, 0.0, 0.0, 5.60912894184438e-07, -1.9571911978577946e-22, -5.1150938124359585e-15, 0.0, 0.0, 0.0, -1.9571911978577948e-22, 4.460955742367872e-07, -2.532011766650082e-30, 0.0, 0.0, 0.0, -5.115093812435957e-15, -2.027990017057982e-30, 4.460955742367872e-07, 0.0, -9.498295554573305e-17, 5.7817196457183436e-18, 0.0, 0.0, 0.0, 9.451375730762256e-07]
twist: 
  twist: 
    linear: 
      x: 1.5996160091e-09
      y: 0.0
      z: 0.0
    angular: 
      x: 0.0
      y: 0.0
      z: 0.000126297437245
  covariance: [9.99999601098665e-10, 0.0, 0.0, 0.0, 0.0, 0.0, 0.0, 1840270.6836949713, 0.0, 0.0, 0.0, 0.0, 0.0, 0.0, 4.905057483783776e-07, -4.800776539310425e-26, -2.922295109857509e-27, 0.0, 0.0, 0.0, -4.800776539310424e-26, 3.2911968855307345e-07, -6.461264461966197e-35, 0.0, 0.0, 0.0, -2.922295109857508e-27, -1.8412965033582615e-37, 3.2911968855307345e-07, 0.0, 0.0, 0.0, 0.0, 0.0, 0.0, 9.968425624991474e-10]
---
header: 
  seq: 8205
  stamp: 
    secs: 1518208718
    nsecs: 635094643
  frame_id: "swarmone/odom"
child_frame_id: "swarmone/base_link"
pose: 
  pose: 
    position: 
      x: 0.31740711392
      y: 11.7610292262
      z: 0.0
    orientation: 
      x: 0.0
      y: 0.0
      z: 0.685289681949
      w: 0.728270589694
  covariance: [184115727678.61255, -12440109949.8396, 0.0, 0.0, 0.0, -7.749314638973619e-17, -12440109949.839632, 843328721.460591, 0.0, 0.0, 0.0, 4.717106917275207e-18, 0.0, 0.0, 8.185252455102002e-07, -2.0863115113752194e-22, -1.233037264145719e-15, 0.0, 0.0, 0.0, -2.0863115113752191e-22, 7.077599895214848e-07, -1.7838378616881036e-30, 0.0, 0.0, 0.0, -1.2330372641457194e-15, -1.051294294746273e-30, 7.077599895214848e-07, 0.0, -7.749314638973619e-17, 4.717106917275207e-18, 0.0, 0.0, 0.0, 4.178093505697682e-06]
twist: 
  twist: 
    linear: 
      x: 4.00683969727e-10
      y: 0.0
      z: 0.0
    angular: 
      x: 0.0
      y: 0.0
      z: 2.86868892846e-05
  covariance: [9.999996005278305e-10, 0.0, 0.0, 0.0, 0.0, 0.0, 0.0, 1840944.6314203504, 0.0, 0.0, 0.0, 0.0, 0.0, 0.0, 7.571657110572493e-07, -7.924413453345709e-26, -4.8236834171084816e-27, 0.0, 0.0, 0.0, -7.924413453345714e-26, 5.072446409985731e-07, 1.8715189603889776e-34, 0.0, 0.0, 0.0, -4.823683417108482e-27, -1.8715189778253868e-34, 5.072446409985731e-07, 0.0, 0.0, 0.0, 0.0, 0.0, 0.0, 9.992828274106539e-10]
---
header: 
  seq: 8206
  stamp: 
    secs: 1518208718
    nsecs: 735309362
  frame_id: "swarmone/odom"
child_frame_id: "swarmone/base_link"
pose: 
  pose: 
    position: 
      x: 0.317416265638
      y: 11.7611795784
      z: 0.0
    orientation: 
      x: 0.0
      y: 0.0
      z: 0.685288904075
      w: 0.728271321659
  covariance: [184228520329.09418, -12447395750.123577, 0.0, 0.0, 0.0, -1.5305413148085693e-16, -12447395750.123613, 843797779.10652, 0.0, 0.0, 0.0, 9.316318912652702e-18, 0.0, 0.0, 5.6636043839239e-07, -1.526016026427423e-22, -3.872248686419509e-15, 0.0, 0.0, 0.0, -1.526016026427423e-22, 4.504500229037531e-07, -1.0992258365659667e-30, 0.0, 0.0, 0.0, -3.872248686419508e-15, -1.6261618940306196e-30, 4.50450022903753e-07, 0.0, -1.5305413148085695e-16, 9.316318912652702e-18, 0.0, 0.0, 0.0, 9.737478025684161e-07]
twist: 
  twist: 
    linear: 
      x: 1.20033784431e-09
      y: 0.0
      z: 0.0
    angular: 
      x: 0.0
      y: 0.0
      z: 0.000122605578281
  covariance: [9.99999600858472e-10, 0.0, 0.0, 0.0, 0.0, 0.0, 0.0, 1841619.3007036361, 0.0, 0.0, 0.0, 0.0, 0.0, 0.0, 4.954092722563033e-07, -3.820238618057711e-26, -2.3254284884072887e-27, 0.0, 0.0, 0.0, -3.820238618057712e-26, 3.312589740476278e-07, -1.6186369615175674e-34, 0.0, 0.0, 0.0, -2.325428488407289e-27, -1.1486847941948756e-36, 3.312589740476278e-07, 0.0, 0.0, 0.0, 0.0, 0.0, 0.0, 9.969348590145416e-10]
---
header: 
  seq: 8207
  stamp: 
    secs: 1518208718
    nsecs: 834323168
  frame_id: "swarmone/odom"
child_frame_id: "swarmone/base_link"
pose: 
  pose: 
    position: 
      x: 0.317428174273
      y: 11.7613752113
      z: 0.0
    orientation: 
      x: 0.0
      y: 0.0
      z: 0.681638993673
      w: 0.731688651206
  covariance: [184340015547.81317, -12454597825.553753, 0.0, 0.0, 0.0, -9.516309845015626e-17, -12454597825.553791, 844261454.4165262, 0.0, 0.0, 0.0, 6.426376538113529e-18, 0.0, 0.0, 5.636536242149875e-07, -2.2949977392104734e-22, -5.075434123433886e-15, 0.0, 0.0, 0.0, -2.2949977392104734e-22, 4.4828124994784873e-07, -2.9294606544714758e-30, 0.0, 0.0, 0.0, -5.075434123433887e-15, -2.4093910720982627e-30, 4.482812499478487e-07, 0.0, -9.516309845015625e-17, 6.426376538113528e-18, 0.0, 0.0, 0.0, 9.594426878202091e-07]
twist: 
  twist: 
    linear: 
      x: 1.59973691759e-09
      y: 0.0
      z: 0.0
    angular: 
      x: 0.0
      y: 0.0
      z: 0.000124424127283
  covariance: [9.999995960165183e-10, 0.0, 0.0, 0.0, 0.0, 0.0, 0.0, 1842286.047011037, 0.0, 0.0, 0.0, 0.0, 0.0, 0.0, 4.929692768061351e-07, -4.874143851749487e-26, -3.456439530543923e-27, 0.0, 0.0, 0.0, -4.874143851749487e-26, 3.301904174024864e-07, -1.2783776611231901e-34, 0.0, 0.0, 0.0, -3.4564395305439216e-27, -4.85352919509779e-35, 3.301904174024864e-07, 0.0, 0.0, 0.0, 0.0, 0.0, 0.0, 9.968893952517067e-10]
---
header: 
  seq: 8208
  stamp: 
    secs: 1518208718
    nsecs: 935314655
  frame_id: "swarmone/odom"
child_frame_id: "swarmone/base_link"
pose: 
  pose: 
    position: 
      x: 0.31743539066
      y: 11.7614769804
      z: 0.0
    orientation: 
      x: 0.0
      y: 0.0
      z: 0.692537233409
      w: 0.721382131982
  covariance: [184453718390.4922, -12462513083.19168, 0.0, 0.0, 0.0, -4.9333317936126656e-17, -12462513083.191723, 844812272.6399952, 0.0, 0.0, 0.0, 2.4983796274444156e-18, 0.0, 0.0, 5.690338613970409e-07, -7.023988909840033e-23, -2.6150245089583798e-15, 0.0, 0.0, 0.0, -7.023988909840035e-23, 4.5260176099691643e-07, -3.9188156104139265e-31, 0.0, 0.0, 0.0, -2.6150245089583798e-15, -4.605417749949386e-31, 4.5260176099691643e-07, 0.0, -4.9333317936126656e-17, 2.498379627444415e-18, 0.0, 0.0, 0.0, 9.880529173157073e-07]
twist: 
  twist: 
    linear: 
      x: 8.01030784672e-10
      y: 0.0
      z: 0.0
    angular: 
      x: 0.0
      y: 0.0
      z: 0.000120839422383
  covariance: [9.99999603927585e-10, 0.0, 0.0, 0.0, 0.0, 0.0, 0.0, 1842966.2765388181, 0.0, 0.0, 0.0, 0.0, 0.0, 0.0, 4.978258641496199e-07, -2.6338013516605465e-26, -1.0751214441626355e-27, 0.0, 0.0, 0.0, -2.633801351660547e-26, 3.3232389027412446e-07, -5.583943848798351e-35, 0.0, 0.0, 0.0, -1.0751214441626357e-27, 5.626569664788699e-35, 3.3232389027412446e-07, 0.0, 0.0, 0.0, 0.0, 0.0, 0.0, 9.969790129491796e-10]
---
header: 
  seq: 8209
  stamp: 
    secs: 1518208719
    nsecs:  34549475
  frame_id: "swarmone/odom"
child_frame_id: "swarmone/base_link"
pose: 
  pose: 
    position: 
      x: 0.317455464364
      y: 11.761968722
      z: 0.0
    orientation: 
      x: 0.0
      y: 0.0
      z: 0.685288891409
      w: 0.728271333578
  covariance: [184565685522.2759, -12468622866.669552, 0.0, 0.0, 0.0, -2.3270924202969733e-16, -12468622866.669594, 845124511.9464623, 0.0, 0.0, 0.0, 1.2528725003930826e-17, 0.0, 0.0, 5.553267001552451e-07, -4.64703875402871e-22, -1.252646434626724e-14, 0.0, 0.0, 0.0, -4.64703875402871e-22, 4.4167144142091004e-07, -1.280059693213177e-29, 0.0, 0.0, 0.0, -1.2526464346267243e-14, -1.3380796163904155e-29, 4.416714414209096e-07, 0.0, -2.3270924202969733e-16, 1.2528725003930828e-17, 0.0, 0.0, 0.0, 9.165273435822823e-07]
twist: 
  twist: 
    linear: 
      x: 3.99883742785e-09
      y: 0.0
      z: 0.0
    angular: 
      x: 0.0
      y: 0.0
      z: 0.000130218534178
  covariance: [9.999995969162665e-10, 0.0, 0.0, 0.0, 0.0, 0.0, 0.0, 1843634.8370831846, 0.0, 0.0, 0.0, 0.0, 0.0, 0.0, 4.855059053009607e-07, -1.1200356624592163e-25, -6.817349408907632e-27, 0.0, 0.0, 0.0, -1.1200356624592163e-25, 3.2696612504704267e-07, -1.951330659147724e-34, 0.0, 0.0, 0.0, -6.817349408907632e-27, -2.4354600644470312e-34, 3.2696612504704267e-07, 0.0, 0.0, 0.0, 0.0, 0.0, 0.0, 9.96744535009983e-10]
---
header: 
  seq: 8210
  stamp: 
    secs: 1518208719
    nsecs: 135186672
  frame_id: "swarmone/odom"
child_frame_id: "swarmone/base_link"
pose: 
  pose: 
    position: 
      x: 0.317458542898
      y: 11.7620192982
      z: 0.0
    orientation: 
      x: 0.0
      y: 0.0
      z: 0.688921622834
      w: 0.724835841824
  covariance: [184679174973.2123, -12475953005.683052, 0.0, 0.0, 0.0, -2.422640405414512e-17, -12475953005.683094, 845596386.0828781, 0.0, 0.0, 0.0, 1.3086062807310593e-18, 0.0, 0.0, 5.690338494022322e-07, -3.2689803546131076e-23, -1.3035162166866982e-15, 0.0, 0.0, 0.0, -3.268980354613108e-23, 4.526016894165663e-07, -6.819488855455425e-31, 0.0, 0.0, 0.0, -1.3035162166866982e-15, 4.84196756200731e-31, 4.526016894165663e-07, 0.0, -2.422640405414512e-17, 1.3086062807310591e-18, 0.0, 0.0, 0.0, 9.880529173151252e-07]
twist: 
  twist: 
    linear: 
      x: 4.00763191296e-10
      y: 0.0
      z: 0.0
    angular: 
      x: 0.0
      y: 0.0
      z: 9.06295666854e-05
  covariance: [9.999996025332137e-10, 0.0, 0.0, 0.0, 0.0, 0.0, 0.0, 1844313.0107791675, 0.0, 0.0, 0.0, 0.0, 0.0, 0.0, 4.978258397200186e-07, -1.3122358214479715e-26, -6.671432002814747e-28, 0.0, 0.0, 0.0, -1.312235821447971e-26, 3.323237176221717e-07, 4.0447601900042363e-35, 0.0, 0.0, 0.0, -6.671432002814743e-28, -4.044762333345259e-35, 3.323237176221717e-07, 0.0, 0.0, 0.0, 0.0, 0.0, 0.0, 9.96979012949164e-10]
---
header: 
  seq: 8211
  stamp: 
    secs: 1518208719
    nsecs: 234880209
  frame_id: "swarmone/odom"
child_frame_id: "swarmone/base_link"
pose: 
  pose: 
    position: 
      x: 0.31747619756
      y: 11.7623665378
      z: 0.0
    orientation: 
      x: 0.0
      y: 0.0
      z: 0.68163899428
      w: 0.731688650641
  covariance: [184791718059.7561, -12482657603.660603, 0.0, 0.0, 0.0, -1.6852695406200352e-16, -12482657603.660643, 845987224.3335912, 0.0, 0.0, 0.0, 1.0799405031146916e-17, 0.0, 0.0, 5.636536484967727e-07, -4.042659846213153e-22, -8.941882915478937e-15, 0.0, 0.0, 0.0, -4.042659846213152e-22, 4.482813275732213e-07, -7.300721642697035e-30, 0.0, 0.0, 0.0, -8.941882915478935e-15, -9.268198078480138e-30, 4.4828132757322117e-07, 0.0, -1.685269540620035e-16, 1.0799405031146914e-17, 0.0, 0.0, 0.0, 9.594426878213573e-07]
twist: 
  twist: 
    linear: 
      x: 2.79908026445e-09
      y: 0.0
      z: 0.0
    angular: 
      x: 0.0
      y: 0.0
      z: 0.000124424127659
  covariance: [9.999995987709655e-10, 0.0, 0.0, 0.0, 0.0, 0.0, 0.0, 1844984.989294039, 0.0, 0.0, 0.0, 0.0, 0.0, 0.0, 4.929693259803743e-07, -8.587350565373014e-26, -6.089511531077629e-27, 0.0, 0.0, 0.0, -8.587350565373008e-26, 3.3019076037620616e-07, -1.6214551351561983e-34, 0.0, 0.0, 0.0, -6.08951153107763e-27, -2.258141842308773e-34, 3.3019076037620616e-07, 0.0, 0.0, 0.0, 0.0, 0.0, 0.0, 9.9688939525174e-10]
---
header: 
  seq: 8212
  stamp: 
    secs: 1518208719
    nsecs: 334769249
  frame_id: "swarmone/odom"
child_frame_id: "swarmone/base_link"
pose: 
  pose: 
    position: 
      x: 0.317476199871
      y: 11.7623665704
      z: 0.0
    orientation: 
      x: 0.0
      y: 0.0
      z: 0.685289407001
      w: 0.728270848415
  covariance: [184904399581.8483, -12490500871.275858, 0.0, 0.0, 0.0, -8.4695079982117e-20, -12490500871.275898, 846532968.423078, 0.0, 0.0, 0.0, 5.156603366467799e-21, 0.0, 0.0, 7.717053547762048e-07, -2.7851286459266953e-25, -2.2565778877721794e-18, 0.0, 0.0, 0.0, -2.785128645926695e-25, 6.499570537769335e-07, -1.5921231019471421e-31, 0.0, 0.0, 0.0, -2.2565778877721794e-18, 1.5915279944679664e-31, 6.499570537769335e-07, 0.0, -8.4695079982117e-20, 5.156603366467799e-21, 0.0, 0.0, 0.0, 3.047989440753635e-06]
twist: 
  twist: 
    linear: 
      x: 1.0747870163e-12
      y: 0.0
      z: 0.0
    angular: 
      x: 0.0
      y: 0.0
      z: 3.93057173866e-05
  covariance: [9.999995995562446e-10, 0.0, 0.0, 0.0, 0.0, 0.0, 0.0, 1845658.4492726943, 0.0, 0.0, 0.0, 0.0, 0.0, 0.0, 7.027906599618987e-07, -1.041032126531585e-28, -6.336397471442023e-30, 0.0, 0.0, 0.0, -1.041032126531585e-28, 4.5683278782479695e-07, -1.928122847024423e-34, 0.0, 0.0, 0.0, -6.33639747144202e-30, 1.9281227196037224e-34, 4.5683278782479695e-07, 0.0, 0.0, 0.0, 0.0, 0.0, 0.0, 9.990173565747499e-10]
---
header: 
  seq: 8213
  stamp: 
    secs: 1518208719
    nsecs: 435320854
  frame_id: "swarmone/odom"
child_frame_id: "swarmone/base_link"
pose: 
  pose: 
    position: 
      x: 0.317488484766
      y: 11.7625683945
      z: 0.0
    orientation: 
      x: 0.0
      y: 0.0
      z: 0.685288904075
      w: 0.728271321659
  covariance: [185017958780.46774, -12497835137.647701, 0.0, 0.0, 0.0, -1.6700415095861075e-16, -12497835137.647738, 847005086.7837955, 0.0, 0.0, 0.0, 1.0165559514058956e-17, 0.0, 0.0, 5.663604500064574e-07, -2.0416857082566143e-22, -5.180515779989394e-15, 0.0, 0.0, 0.0, -2.0416857082566143e-22, 4.5045006006996775e-07, -2.5929511560494417e-30, 0.0, 0.0, 0.0, -5.1805157799893945e-15, -2.285283238518643e-30, 4.5045006006996764e-07, 0.0, -1.6700415095861075e-16, 1.0165559514058954e-17, 0.0, 0.0, 0.0, 9.737478025689417e-07]
twist: 
  twist: 
    linear: 
      x: 1.6005274675e-09
      y: 0.0
      z: 0.0
    angular: 
      x: 0.0
      y: 0.0
      z: 0.000122605578501
  covariance: [9.99999602195447e-10, 0.0, 0.0, 0.0, 0.0, 0.0, 0.0, 1846336.5418194924, 0.0, 0.0, 0.0, 0.0, 0.0, 0.0, 4.9540929579994e-07, -5.105081807725983e-26, -3.1075293481244874e-27, 0.0, 0.0, 0.0, -5.105081807725983e-26, 3.31259137473964e-07, -6.584785233247031e-35, 0.0, 0.0, 0.0, -3.107529348124489e-27, -3.364940805818687e-35, 3.31259137473964e-07, 0.0, 0.0, 0.0, 0.0, 0.0, 0.0, 9.969348590145571e-10]
---
header: 
  seq: 8214
  stamp: 
    secs: 1518208719
    nsecs: 535047293
  frame_id: "swarmone/odom"
child_frame_id: "swarmone/base_link"
pose: 
  pose: 
    position: 
      x: 0.317506605077
      y: 11.7628660798
      z: 0.0
    orientation: 
      x: 0.0
      y: 0.0
      z: 0.685288911021
      w: 0.728271315123
  covariance: [185130641111.84573, -12505112720.149775, 0.0, 0.0, 0.0, -1.4810521822526913e-16, -12505112720.14981, 847473554.5458814, 0.0, 0.0, 0.0, 9.01533205529951e-18, 0.0, 0.0, 5.716744540371106e-07, -3.153829439357421e-22, -7.771978260950139e-15, 0.0, 0.0, 0.0, -3.1538294393574213e-22, 4.5473649265626624e-07, -6.206180104061776e-30, 0.0, 0.0, 0.0, -7.771978260950139e-15, -5.2391774715138085e-30, 4.547364926562662e-07, 0.0, -1.481052182252691e-16, 9.015332055299508e-18, 0.0, 0.0, 0.0, 1.0023580320597155e-06]
twist: 
  twist: 
    linear: 
      x: 2.39959928577e-09
      y: 0.0
      z: 0.0
    angular: 
      x: 0.0
      y: 0.0
      z: 0.00011912342618
  covariance: [9.999995989033353e-10, 0.0, 0.0, 0.0, 0.0, 0.0, 0.0, 1847009.233695994, 0.0, 0.0, 0.0, 0.0, 0.0, 0.0, 5.00219279304219e-07, -7.996904707296889e-26, -4.867819866772548e-27, 0.0, 0.0, 0.0, -7.99690470729689e-26, 3.333844309105564e-07, -1.2886930738632215e-34, 0.0, 0.0, 0.0, -4.8678198667725506e-27, -1.6083444847387766e-34, 3.333844309105564e-07, 0.0, 0.0, 0.0, 0.0, 0.0, 0.0, 9.97021912856694e-10]
---
header: 
  seq: 8215
  stamp: 
    secs: 1518208719
    nsecs: 634793997
  frame_id: "swarmone/odom"
child_frame_id: "swarmone/base_link"
pose: 
  pose: 
    position: 
      x: 0.317515029072
      y: 11.7630201997
      z: 0.0
    orientation: 
      x: 0.0
      y: 0.0
      z: 0.869900371699
      w: 0.493227476239
  covariance: [185243398482.9449, -12512389519.087433, 0.0, 0.0, 0.0, -7.070238544655935e-17, -12512389519.087471, 847941567.1794976, 0.0, 0.0, 0.0, -2.586309467468015e-17, 0.0, 0.0, 5.768598226971353e-07, 1.4345705147173007e-21, -4.069212343872711e-15, 0.0, 0.0, 0.0, 1.4345705147173009e-21, 4.5895664868257953e-07, 1.2345337678273919e-29, 0.0, 0.0, 0.0, -4.0692123438727115e-15, 1.524593701416039e-29, 4.5895664868257964e-07, 0.0, -7.070238544655935e-17, -2.5863094674680154e-17, 0.0, 0.0, 0.0, 1.0309682615519533e-06]
twist: 
  twist: 
    linear: 
      x: 0.0970999623228
      y: 0.0
      z: 0.0
    angular: 
      x: 0.0
      y: 0.0
      z: -0.00985520797714
  covariance: [9.999995989848336e-10, 0.0, 0.0, 0.0, 0.0, 0.0, 0.0, 1847682.2256937458, 0.0, 0.0, 0.0, 0.0, 0.0, 0.0, 5.049384846473835e-07, -3.75999478683102e-26, 2.2498890052654404e-26, 0.0, 0.0, 0.0, -3.75999478683102e-26, 3.354966780600608e-07, 8.969558404494883e-34, 0.0, 0.0, 0.0, 2.2498890052654404e-26, -2.5874755429240168e-34, 3.354966780600608e-07, 0.0, 0.0, 0.0, 0.0, 0.0, 0.0, 9.971041583847575e-10]
---
header: 
  seq: 8216
  stamp: 
    secs: 1518208719
    nsecs: 735265493
  frame_id: "swarmone/odom"
child_frame_id: "swarmone/base_link"
pose: 
  pose: 
    position: 
      x: 0.300764044472
      y: 11.7910406666
      z: 0.0
    orientation: 
      x: 0.0
      y: 0.0
      z: 0.609159493951
      w: 0.793047735593
  covariance: [185341095047.53098, -12486516721.584164, 0.0, 0.0, 0.0, -3.1792713223097866e-14, -12486516721.584202, 843957968.4576899, 0.0, 0.0, 0.0, 4.338443840870222e-15, 0.0, 0.0, 7.709573572834309e-07, -1.0131433324579355e-19, -7.486442541269977e-13, 0.0, 0.0, 0.0, -1.0131433324579354e-19, 6.490783508589631e-07, -3.5965431497892173e-25, 0.0, 0.0, 0.0, -7.486442541269977e-13, -3.5965454936109703e-25, 6.490783508565161e-07, 0.0, -3.1792713223097866e-14, 4.338443840870223e-15, 0.0, 0.0, 0.0, 3.0336843260084872e-06]
twist: 
  twist: 
    linear: 
      x: 0.232200127663
      y: 0.0
      z: 0.0
    angular: 
      x: 0.0
      y: 0.0
      z: -0.109881527684
  covariance: [9.999996018777287e-10, 0.0, 0.0, 0.0, 0.0, 0.0, 0.0, 1848360.2731183302, 0.0, 0.0, 0.0, 0.0, 0.0, 0.0, 7.019458669044143e-07, -3.3259661192973175e-23, -8.886649415762008e-24, 0.0, 0.0, 0.0, -3.325966119297318e-23, 4.5612865884543094e-07, -5.115519408494706e-29, 0.0, 0.0, 0.0, -8.88664941576201e-24, -5.115498997661094e-29, 4.5612865884543094e-07, 0.0, 0.0, 0.0, 0.0, 0.0, 0.0, 9.990127306164593e-10]
---
header: 
  seq: 8217
  stamp: 
    secs: 1518208719
    nsecs: 835313797
  frame_id: "swarmone/odom"
child_frame_id: "swarmone/base_link"
pose: 
  pose: 
    position: 
      x: 0.305434259595
      y: 11.80856382
      z: 0.0
    orientation: 
      x: 0.0
      y: 0.0
      z: 0.764328911426
      w: 0.644826577584
  covariance: [185450675679.76794, -12504868319.136282, 0.0, 0.0, 0.0, -1.0898404098267847e-14, -12504868319.136322, 845950133.3393368, 0.0, 0.0, 0.0, 2.0104310692163736e-15, 0.0, 0.0, 5.636536611581896e-07, 4.949346645155153e-20, -1.6702918791057532e-13, 0.0, 0.0, 0.0, 4.9493466451551527e-20, 4.482812390302027e-07, 2.616212784892211e-25, 0.0, 0.0, 0.0, -1.6702918791057532e-13, 2.6162127799760042e-25, 4.4828123903013863e-07, 0.0, -1.0898404098267847e-14, 2.0104310692163732e-15, 0.0, 0.0, 0.0, 9.59442687822007e-07]
twist: 
  twist: 
    linear: 
      x: 0.301099931719
      y: 0.0
      z: 0.0
    angular: 
      x: 0.0
      y: 0.0
      z: -0.119626727601
  covariance: [9.999996001942505e-10, 0.0, 0.0, 0.0, 0.0, 0.0, 0.0, 1849035.6293763774, 0.0, 0.0, 0.0, 0.0, 0.0, 0.0, 4.929693517446102e-07, -1.598155389528974e-24, 2.676354456273929e-25, 0.0, 0.0, 0.0, -1.5981553895289742e-24, 3.3019094366235674e-07, 1.043791814746704e-31, 0.0, 0.0, 0.0, 2.6763544562739296e-25, 1.0444510507329124e-31, 3.3019094366235674e-07, 0.0, 0.0, 0.0, 0.0, 0.0, 0.0, 9.968893952517571e-10]
---
header: 
  seq: 8218
  stamp: 
    secs: 1518208719
    nsecs: 935402393
  frame_id: "swarmone/odom"
child_frame_id: "swarmone/base_link"
pose: 
  pose: 
    position: 
      x: 0.299167353192
      y: 11.8452772371
      z: 0.0
    orientation: 
      x: 0.0
      y: 0.0
      z: 0.605186144421
      w: 0.796083997202
  covariance: [185562569787.92273, -12499126766.41494, 0.0, 0.0, 0.0, -1.3602176863531449e-14, -12499126766.414982, 844648332.317009, 0.0, 0.0, 0.0, 1.1459929737392162e-15, 0.0, 0.0, 5.868628247206356e-07, 6.857428752683677e-20, -5.891225363822538e-13, 0.0, 0.0, 0.0, 6.857428752683678e-20, 4.672037897012907e-07, -2.255867095225628e-25, 0.0, 0.0, 0.0, -5.891225363822539e-13, -2.2558633881664265e-25, 4.6720378970045044e-07, 0.0, -1.3602176863531447e-14, 1.1459929737392162e-15, 0.0, 0.0, 0.0, 1.0881887205369297e-06]
twist: 
  twist: 
    linear: 
      x: 0.322100048373
      y: 0.0
      z: 0.0
    angular: 
      x: 0.0
      y: 0.0
      z: -0.099835344184
  covariance: [9.999996003546482e-10, 0.0, 0.0, 0.0, 0.0, 0.0, 0.0, 1849711.4222108987, 0.0, 0.0, 0.0, 0.0, 0.0, 0.0, 5.141145027300873e-07, -6.645868975749267e-24, -1.843599788845817e-24, 0.0, 0.0, 0.0, -6.645868975749267e-24, 3.3968141353964943e-07, -3.4269149712303e-30, 0.0, 0.0, 0.0, -1.843599788845817e-24, -3.426914588405055e-30, 3.3968141353964943e-07, 0.0, 0.0, 0.0, 0.0, 0.0, 0.0, 9.972557345796765e-10]
---
header: 
  seq: 8219
  stamp: 
    secs: 1518208720
    nsecs:  35383940
  frame_id: "swarmone/odom"
child_frame_id: "swarmone/base_link"
pose: 
  pose: 
    position: 
      x: 0.306295941241
      y: 11.8709659216
      z: 0.0
    orientation: 
      x: 0.0
      y: 0.0
      z: 0.666869993424
      w: 0.745174081588
  covariance: [185671885914.84354, -12518019805.460247, 0.0, 0.0, 0.0, -1.5067740718879084e-14, -12518019805.460289, 846715229.0874279, 0.0, 0.0, 0.0, 2.4513738080327035e-15, 0.0, 0.0, 7.679156726566257e-07, -1.4605009563768163e-20, -2.8718144819292654e-13, 0.0, 0.0, 0.0, -1.4605009563768154e-20, 6.455194025711377e-07, 8.798823342339742e-26, 0.0, 0.0, 0.0, -2.8718144819292654e-13, 8.798787731311059e-26, 6.455194025707823e-07, 0.0, -1.5067740718879087e-14, 2.451373808032704e-15, 0.0, 0.0, 0.0, 2.976463867023207e-06]
twist: 
  twist: 
    linear: 
      x: 0.263199979191
      y: 0.0
      z: 0.0
    angular: 
      x: 0.0
      y: 0.0
      z: -0.00996981354657
  covariance: [9.999995999267833e-10, 0.0, 0.0, 0.0, 0.0, 0.0, 0.0, 1850386.6566273996, 0.0, 0.0, 0.0, 0.0, 0.0, 0.0, 6.985180462800457e-07, -1.284758500224207e-23, -1.4288425731622664e-24, 0.0, 0.0, 0.0, -1.2847585002242065e-23, 4.5329285877449346e-07, -3.196256663770715e-30, 0.0, 0.0, 0.0, -1.4288425731622667e-24, -3.196414218418912e-30, 4.5329285877449346e-07, 0.0, 0.0, 0.0, 0.0, 0.0, 0.0, 9.989937828747394e-10]
---
header: 
  seq: 8220
  stamp: 
    secs: 1518208720
    nsecs: 134312630
  frame_id: "swarmone/odom"
child_frame_id: "swarmone/base_link"
pose: 
  pose: 
    position: 
      x: 0.309106052311
      y: 11.8962093194
      z: 0.0
    orientation: 
      x: 0.0
      y: 0.0
      z: 0.624897703222
      w: 0.780706641773
  covariance: [185783504756.77252, -12528034060.262789, 0.0, 0.0, 0.0, -1.6612811902316973e-14, -12528034060.262833, 847561850.9929775, 0.0, 0.0, 0.0, 2.2964201598625875e-15, 0.0, 0.0, 5.66360393194666e-07, -6.598324833791102e-20, -3.2233554687354423e-13, 0.0, 0.0, 0.0, -6.598324833791103e-20, 4.5044993838321285e-07, -3.029317098523923e-26, 0.0, 0.0, 0.0, -3.223355468735442e-13, -3.029240895065523e-26, 4.504499383829731e-07, 0.0, -1.6612811902316976e-14, 2.2964201598625875e-15, 0.0, 0.0, 0.0, 9.737478025662223e-07]
twist: 
  twist: 
    linear: 
      x: 0.202300019405
      y: 0.0
      z: 0.0
    angular: 
      x: 0.0
      y: 0.0
      z: 0.0400613027113
  covariance: [9.99999595669476e-10, 0.0, 0.0, 0.0, 0.0, 0.0, 0.0, 1851054.9422058417, 0.0, 0.0, 0.0, 0.0, 0.0, 0.0, 4.954091804265638e-07, -3.1166340540286918e-24, -6.976805119481329e-25, 0.0, 0.0, 0.0, -3.116634054028691e-24, 3.3125832761798124e-07, -7.018775221664798e-31, 0.0, 0.0, 0.0, -6.976805119481329e-25, -7.018472037690938e-31, 3.3125832761798124e-07, 0.0, 0.0, 0.0, 0.0, 0.0, 0.0, 9.969348590144806e-10]
---
header: 
  seq: 8221
  stamp: 
    secs: 1518208720
    nsecs: 235166311
  frame_id: "swarmone/odom"
child_frame_id: "swarmone/base_link"
pose: 
  pose: 
    position: 
      x: 0.3126361801
      y: 11.9119531945
      z: 0.0
    orientation: 
      x: 0.0
      y: 0.0
      z: 0.827702428817
      w: 0.56116725611
  covariance: [185895271434.73065, -12544382992.051401, 0.0, 0.0, 0.0, -4.383008766945147e-15, -12544382992.051441, 849271983.7456883, 0.0, 0.0, 0.0, -1.690367682915336e-16, 0.0, 0.0, 5.742829649128677e-07, 1.0643413738399389e-19, -1.5353739221589145e-13, 0.0, 0.0, 0.0, 1.0643413738399388e-19, 4.5685513699430436e-07, 1.066680317590802e-26, 0.0, 0.0, 0.0, -1.5353739221589145e-13, 1.0669888726447485e-26, 4.56855136994249e-07, 0.0, -4.383008766945146e-15, -1.690367682915337e-16, 0.0, 0.0, 0.0, 1.016663146807685e-06]
twist: 
  twist: 
    linear: 
      x: 0.211699962722
      y: 0.0
      z: 0.0
    angular: 
      x: 0.0
      y: 0.0
      z: 0.00035236651403
  covariance: [9.999996033863977e-10, 0.0, 0.0, 0.0, 0.0, 0.0, 0.0, 1851736.3971491891, 0.0, 0.0, 0.0, 0.0, 0.0, 0.0, 5.025901514738855e-07, -1.5060169155568407e-24, 5.984615990624101e-25, 0.0, 0.0, 0.0, -1.5060169155568415e-24, 3.3444277638375016e-07, 2.653844300108147e-31, 0.0, 0.0, 0.0, 5.984615990624104e-25, 2.6499859464511e-31, 3.3444277638375016e-07, 0.0, 0.0, 0.0, 0.0, 0.0, 0.0, 9.970636114131577e-10]
---
header: 
  seq: 8222
  stamp: 
    secs: 1518208720
    nsecs: 335261822
  frame_id: "swarmone/odom"
child_frame_id: "swarmone/base_link"
pose: 
  pose: 
    position: 
      x: 0.299309327056
      y: 11.945409105
      z: 0.0
    orientation: 
      x: 0.0
      y: 0.0
      z: 0.685288918709
      w: 0.728271307889
  covariance: [186000933643.9586, -12526934914.287216, 0.0, 0.0, 0.0, -1.351916633753398e-14, -12526934914.287256, 846402873.6756194, 0.0, 0.0, 0.0, -1.7783569721285385e-15, 0.0, 0.0, 5.581374645959245e-07, -2.3954427971972192e-20, -6.446411429206961e-13, 0.0, 0.0, 0.0, -2.3954427971972192e-20, 4.4389234615554106e-07, -3.271178839091967e-26, 0.0, 0.0, 0.0, -6.446411429206962e-13, -3.271101416383677e-26, 4.438923461546004e-07, 0.0, -1.3519166337533982e-14, -1.778356972128539e-15, 0.0, 0.0, 0.0, 9.308324583298279e-07]
twist: 
  twist: 
    linear: 
      x: 0.30510008104
      y: 0.0
      z: 0.0
    angular: 
      x: 0.0
      y: 0.0
      z: -0.0895832588006
  covariance: [9.999996003822693e-10, 0.0, 0.0, 0.0, 0.0, 0.0, 0.0, 1852412.8945791926, 0.0, 0.0, 0.0, 0.0, 0.0, 0.0, 4.880180582795088e-07, -5.910049692342565e-24, -3.579683881389532e-25, 0.0, 0.0, 0.0, -5.9100496923425696e-24, 3.280448047078744e-07, -6.505466369176305e-31, 0.0, 0.0, 0.0, -3.579683881389534e-25, -6.504815393340777e-31, 3.280448047078744e-07, 0.0, 0.0, 0.0, 0.0, 0.0, 0.0, 9.967942979776257e-10]
---
header: 
  seq: 8223
  stamp: 
    secs: 1518208720
    nsecs: 434751034
  frame_id: "swarmone/odom"
child_frame_id: "swarmone/base_link"
pose: 
  pose: 
    position: 
      x: 0.301222658122
      y: 11.9767921801
      z: 0.0
    orientation: 
      x: 0.0
      y: 0.0
      z: 0.572866972855
      w: 0.81964835839
  covariance: [186113829566.0101, -12534216916.923988, 0.0, 0.0, 0.0, -1.0310182786858148e-14, -12534216916.92403, 846871129.5557848, 0.0, 0.0, 0.0, 2.280089261886295e-15, 0.0, 0.0, 5.819211344415282e-07, 1.937304459558114e-19, -4.3155487789496857e-13, 0.0, 0.0, 0.0, 1.9373044595581143e-19, 4.631116300459514e-07, 2.629691921586956e-25, 0.0, 0.0, 0.0, -4.315548778949687e-13, 2.629576505267e-25, 4.6311163004550585e-07, 0.0, -1.0310182786858146e-14, 2.280089261886295e-15, 0.0, 0.0, 0.0, 1.059578491043722e-06]
twist: 
  twist: 
    linear: 
      x: 0.324900000816
      y: 0.0
      z: 0.0
    angular: 
      x: 0.0
      y: 0.0
      z: -0.089943639693
  covariance: [9.99999597946931e-10, 0.0, 0.0, 0.0, 0.0, 0.0, 0.0, 1853085.457580026, 0.0, 0.0, 0.0, 0.0, 0.0, 0.0, 5.095693822578375e-07, -4.556294061257556e-24, -1.6662442111636065e-24, 0.0, 0.0, 0.0, -4.556294061257557e-24, 3.375954450342816e-07, -2.187468777740278e-30, 0.0, 0.0, 0.0, -1.6662442111636072e-24, -2.1875364963032562e-30, 3.375954450342816e-07, 0.0, 0.0, 0.0, 0.0, 0.0, 0.0, 9.97181983264722e-10]
---
header: 
  seq: 8224
  stamp: 
    secs: 1518208720
    nsecs: 535320759
  frame_id: "swarmone/odom"
child_frame_id: "swarmone/base_link"
pose: 
  pose: 
    position: 
      x: 0.309808409848
      y: 12.0002621643
      z: 0.0
    orientation: 
      x: 0.0
      y: 0.0
      z: 0.685289056334
      w: 0.728271178387
