header: 
  seq: 11468
  stamp: 
    secs: 1518209044
    nsecs: 935050726
  frame_id: "swarmone/odom"
child_frame_id: "swarmone/base_link"
pose: 
  pose: 
    position: 
      x: -0.10613273659
      y: 16.6190741532
      z: 0.0
    orientation: 
      x: 0.0
      y: 0.0
      z: 0.655617657185
      w: 0.755093032405
  covariance: [978959188241.392, -65549646157.864456, 0.0, 0.0, 0.0, -9.437438788959939e-17, -65549646157.86399, 4395718565.621765, 0.0, 0.0, 0.0, 1.3376056929891685e-17, 0.0, 0.0, 5.636536747181479e-07, -4.618254636425838e-22, -5.148489955510965e-15, 0.0, 0.0, 0.0, -4.6182546364258365e-22, 4.482814104256635e-07, -4.098337907770104e-30, 0.0, 0.0, 0.0, -5.148489955510966e-15, -6.800042333992745e-30, 4.4828141042566346e-07, 0.0, -9.437438788959939e-17, 1.3376056929891687e-17, 0.0, 0.0, 0.0, 9.594426878225954e-07]
twist: 
  twist: 
    linear: 
      x: 1.5997457907e-09
      y: 0.0
      z: 0.0
    angular: 
      x: 0.0
      y: 0.0
      z: 0.000124424128128
  covariance: [9.999996017463395e-10, 0.0, 0.0, 0.0, 0.0, 0.0, 0.0, 5026758.033115098, 0.0, 0.0, 0.0, 0.0, 0.0, 0.0, 4.929693790768821e-07, -4.9075136997709844e-26, -6.955617077784417e-27, 0.0, 0.0, 0.0, -4.9075136997709855e-26, 3.301911305939781e-07, -1.3173605923471985e-34, 0.0, 0.0, 0.0, -6.955617077784415e-27, -2.9052654325019663e-34, 3.301911305939781e-07, 0.0, 0.0, 0.0, 0.0, 0.0, 0.0, 9.96889395251776e-10]
---
header: 
  seq: 11469
  stamp: 
    secs: 1518209045
    nsecs:  35336018
  frame_id: "swarmone/odom"
child_frame_id: "swarmone/base_link"
pose: 
  pose: 
    position: 
      x: -0.106118627351
      y: 16.619173702
      z: 0.0
    orientation: 
      x: 0.0
      y: 0.0
      z: 0.659384939466
      w: 0.75180549453
  covariance: [979385761554.1154, -65594288118.62266, 0.0, 0.0, 0.0, -5.143213064598618e-17, -65594288118.62219, 4399803977.618335, 0.0, 0.0, 0.0, 6.927437869629865e-18, 0.0, 0.0, 5.844066849790072e-07, -2.479815608332416e-22, -2.657133914415236e-15, 0.0, 0.0, 0.0, -2.4798156083324166e-22, 4.651659023592911e-07, -2.9059027457677264e-30, 0.0, 0.0, 0.0, -2.6571339144152363e-15, -2.6526529384801632e-31, 4.651659023592911e-07, 0.0, -5.143213064598618e-17, 6.927437869629866e-18, 0.0, 0.0, 0.0, 1.0738836057911545e-06]
twist: 
  twist: 
    linear: 
      x: 8.00135705522e-10
      y: 0.0
      z: 0.0
    angular: 
      x: 0.0
      y: 0.0
      z: 0.000111226030176
  covariance: [9.999996011384956e-10, 0.0, 0.0, 0.0, 0.0, 0.0, 0.0, 5028076.939243431, 0.0, 0.0, 0.0, 0.0, 0.0, 0.0, 5.118525550150121e-07, -3.020570133332254e-26, -3.973452410722466e-27, 0.0, 0.0, 0.0, -3.0205701333322565e-26, 3.386403154223169e-07, -2.891546322129661e-34, 0.0, 0.0, 0.0, -3.973452410722465e-27, 1.9285778969199928e-34, 3.386403154223169e-07, 0.0, 0.0, 0.0, 0.0, 0.0, 0.0, 9.972193478632955e-10]
---
header: 
  seq: 11470
  stamp: 
    secs: 1518209045
    nsecs: 134827375
  frame_id: "swarmone/odom"
child_frame_id: "swarmone/base_link"
pose: 
  pose: 
    position: 
      x: -0.106099273887
      y: 16.6193208224
      z: 0.0
    orientation: 
      x: 0.0
      y: 0.0
      z: 0.655617690222
      w: 0.755093003721
  covariance: [979809683613.064, -65636497598.35838, 0.0, 0.0, 0.0, -7.999628306539294e-17, -65636497598.35791, 4403573191.385293, 0.0, 0.0, 0.0, 1.1068511284156279e-17, 0.0, 0.0, 5.868628057700983e-07, -4.0352955664290327e-22, -3.966062042034672e-15, 0.0, 0.0, 0.0, -4.035295566429033e-22, 4.6720399469590155e-07, -2.591417568903401e-30, 0.0, 0.0, 0.0, -3.966062042034672e-15, -5.156284273354664e-30, 4.672039946959016e-07, 0.0, -7.999628306539294e-17, 1.1068511284156279e-17, 0.0, 0.0, 0.0, 1.0881887205359334e-06]
twist: 
  twist: 
    linear: 
      x: 1.19941758088e-09
      y: 0.0
      z: 0.0
    angular: 
      x: 0.0
      y: 0.0
      z: 0.000109770561791
  covariance: [9.999995979556404e-10, 0.0, 0.0, 0.0, 0.0, 0.0, 0.0, 5029385.631866474, 0.0, 0.0, 0.0, 0.0, 0.0, 0.0, 5.141144634317974e-07, -4.594770368765625e-26, -6.512372114437663e-27, 0.0, 0.0, 0.0, -4.594770368765627e-26, 3.3968112366894e-07, -2.199266034318482e-34, 0.0, 0.0, 0.0, -6.512372114437661e-27, -1.2368321026126273e-34, 3.3968112366894e-07, 0.0, 0.0, 0.0, 0.0, 0.0, 0.0, 9.972557345796538e-10]
---
header: 
  seq: 11471
  stamp: 
    secs: 1518209045
    nsecs: 235242367
  frame_id: "swarmone/odom"
child_frame_id: "swarmone/base_link"
pose: 
  pose: 
    position: 
      x: -0.106106343983
      y: 16.6192709394
      z: 0.0
    orientation: 
      x: 0.0
      y: 0.0
      z: 0.655617649984
      w: 0.755093038658
  covariance: [980237105753.2847, -65681235655.75457, 0.0, 0.0, 0.0, 2.441096573393243e-17, -65681235655.75409, 4407668737.321448, 0.0, 0.0, 0.0, -3.4598603101704466e-18, 0.0, 0.0, 5.581374760923986e-07, 1.108571385660449e-22, 1.2737394551535912e-15, 0.0, 0.0, 0.0, 1.108571385660449e-22, 4.43892381565651e-07, 1.9138973101235082e-30, 0.0, 0.0, 0.0, 1.2737394551535908e-15, -2.553025636894738e-30, 4.43892381565651e-07, 0.0, 2.441096573393243e-17, -3.4598603101704466e-18, 0.0, 0.0, 0.0, 9.308324583303596e-07]
twist: 
  twist: 
    linear: 
      x: -3.997287089e-10
      y: 0.0
      z: 0.0
    angular: 
      x: 0.0
      y: 0.0
      z: 0.000128228017211
  covariance: [9.999996016537139e-10, 0.0, 0.0, 0.0, 0.0, 0.0, 0.0, 5030706.704044791, 0.0, 0.0, 0.0, 0.0, 0.0, 0.0, 4.880180814419501e-07, 1.157801066465783e-26, 1.64099817962122e-27, 0.0, 0.0, 0.0, 1.1578010664657831e-26, 3.2804496427184244e-07, -1.5912540828308133e-34, 0.0, 0.0, 0.0, 1.64099817962122e-27, 1.5912539120424763e-34, 3.2804496427184244e-07, 0.0, 0.0, 0.0, 0.0, 0.0, 0.0, 9.96794297977642e-10]
---
header: 
  seq: 11472
  stamp: 
    secs: 1518209045
    nsecs: 334681749
  frame_id: "swarmone/odom"
child_frame_id: "swarmone/base_link"
pose: 
  pose: 
    position: 
      x: -0.106099407165
      y: 16.6193198826
      z: 0.0
    orientation: 
      x: 0.0
      y: 0.0
      z: 0.659384914367
      w: 0.751805516543
  covariance: [980660522421.3058, -65725557793.5411, 0.0, 0.0, 0.0, -2.3620994289172194e-17, -65725557793.54062, 4411726895.986993, 0.0, 0.0, 0.0, 3.1850468439551287e-18, 0.0, 0.0, 5.663604111461374e-07, -1.0838053955455937e-22, -1.2807142620946364e-15, 0.0, 0.0, 0.0, -1.0838053955455937e-22, 4.5044993403415373e-07, -1.1766633649515426e-31, 0.0, 0.0, 0.0, -1.2807142620946362e-15, -5.224884737929244e-31, 4.5044993403415373e-07, 0.0, -2.3620994289172194e-17, 3.1850468439551287e-18, 0.0, 0.0, 0.0, 9.737478025670295e-07]
twist: 
  twist: 
    linear: 
      x: 4.0012641876e-10
      y: 0.0
      z: 0.0
    angular: 
      x: 0.0
      y: 0.0
      z: 0.000122605577959
  covariance: [9.999995977454607e-10, 0.0, 0.0, 0.0, 0.0, 0.0, 0.0, 5032015.168949267, 0.0, 0.0, 0.0, 0.0, 0.0, 0.0, 4.954092167563154e-07, -1.2511066035329846e-26, -1.6458023258833905e-27, 0.0, 0.0, 0.0, -1.2511066035329846e-26, 3.3125857896691923e-07, -3.2701886799079865e-35, 0.0, 0.0, 0.0, -1.6458023258833915e-27, 3.270188679907898e-35, 3.3125857896691923e-07, 0.0, 0.0, 0.0, 0.0, 0.0, 0.0, 9.96934859014505e-10]
---
header: 
  seq: 11473
  stamp: 
    secs: 1518209045
    nsecs: 434355497
  frame_id: "swarmone/odom"
child_frame_id: "swarmone/base_link"
pose: 
  pose: 
    position: 
      x: -0.106086451848
      y: 16.6194183684
      z: 0.0
    orientation: 
      x: 0.0
      y: 0.0
      z: 0.663135669718
      w: 0.748499220806
  covariance: [981085664603.2048, -65767898566.66131, 0.0, 0.0, 0.0, -4.623423018950618e-17, -65767898566.660835, 4415509629.228357, 0.0, 0.0, 0.0, 5.775133891322687e-18, 0.0, 0.0, 5.55326716403059e-07, -1.8527191632139663e-22, -2.517532728493908e-15, 0.0, 0.0, 0.0, -1.852719163213966e-22, 4.416714919462249e-07, -1.8520531375071047e-30, 0.0, 0.0, 0.0, -2.5175327284939076e-15, -2.4574661569403207e-31, 4.416714919462249e-07, 0.0, -4.6234230189506186e-17, 5.775133891322687e-18, 0.0, 0.0, 0.0, 9.165273435830215e-07]
twist: 
  twist: 
    linear: 
      x: 8.00251971026e-10
      y: 0.0
      z: 0.0
    angular: 
      x: 0.0
      y: 0.0
      z: 0.000130218534468
  covariance: [9.999995986913034e-10, 0.0, 0.0, 0.0, 0.0, 0.0, 0.0, 5033326.945399851, 0.0, 0.0, 0.0, 0.0, 0.0, 0.0, 4.855059379221051e-07, -2.238717496998107e-26, -2.717560364898674e-27, 0.0, 0.0, 0.0, -2.2387174969981075e-26, 3.2696634810990555e-07, -2.259566697814596e-34, 0.0, 0.0, 0.0, -2.7175603648986747e-27, 2.2574549000930676e-34, 3.2696634810990555e-07, 0.0, 0.0, 0.0, 0.0, 0.0, 0.0, 9.967445350100065e-10]
---
header: 
  seq: 11474
  stamp: 
    secs: 1518209045
    nsecs: 534857988
  frame_id: "swarmone/odom"
child_frame_id: "swarmone/base_link"
pose: 
  pose: 
    position: 
      x: -0.1060621258
      y: 16.619618762
      z: 0.0
    orientation: 
      x: 0.0
      y: 0.0
      z: 0.651834018053
      w: 0.75836166366
  covariance: [981515033409.8223, -65808483437.578835, 0.0, 0.0, 0.0, -9.486062978762854e-17, -65808483437.57836, 4419035809.108416, 0.0, 0.0, 0.0, 1.348276327087833e-17, 0.0, 0.0, 5.663604481885309e-07, -5.041714420930269e-22, -5.1730861465266814e-15, 0.0, 0.0, 0.0, -5.04171442093027e-22, 4.504500526218034e-07, -6.125193702872605e-30, 0.0, 0.0, 0.0, -5.1730861465266814e-15, -5.9035895431247085e-30, 4.5045005262180317e-07, 0.0, -9.486062978762854e-17, 1.3482763270878329e-17, 0.0, 0.0, 0.0, 9.737478025688022e-07]
twist: 
  twist: 
    linear: 
      x: 1.59861517079e-09
      y: 0.0
      z: 0.0
    angular: 
      x: 0.0
      y: 0.0
      z: 0.00012260557861
  covariance: [9.999996020004769e-10, 0.0, 0.0, 0.0, 0.0, 0.0, 0.0, 5034649.859495669, 0.0, 0.0, 0.0, 0.0, 0.0, 0.0, 4.954092919801216e-07, -5.039151102708379e-26, -7.656915966779514e-27, 0.0, 0.0, 0.0, -5.039151102708379e-26, 3.312591069726575e-07, 6.513813653684641e-35, 0.0, 0.0, 0.0, -7.656915966779513e-27, -1.9297693237047213e-34, 3.312591069726575e-07, 0.0, 0.0, 0.0, 0.0, 0.0, 0.0, 9.969348590145548e-10]
---
header: 
  seq: 11475
  stamp: 
    secs: 1518209045
    nsecs: 635317326
  frame_id: "swarmone/odom"
child_frame_id: "swarmone/base_link"
pose: 
  pose: 
    position: 
      x: -0.106115115547
      y: 16.619270021
      z: 0.0
    orientation: 
      x: 0.0
      y: 0.0
      z: 0.659385226715
      w: 0.751805242592
  covariance: [981942612396.4348, -65855433327.033875, 0.0, 0.0, 0.0, 4.0006323124982295e-16, -65855433327.0334, 4423431986.029895, 0.0, 0.0, 0.0, -5.3777476492372885e-17, 0.0, 0.0, 7.671425924698292e-07, 1.84641114912054e-21, 9.561059099952671e-15, 0.0, 0.0, 0.0, 1.84641114912054e-21, 6.446184155832253e-07, -7.589267661248653e-29, 0.0, 0.0, 0.0, 9.561059099952672e-15, -7.573377959112324e-29, 6.446184155832249e-07, 0.0, 4.000632312498229e-16, -5.3777476492372885e-17, 0.0, 0.0, 0.0, 2.9621587522778802e-06]
twist: 
  twist: 
    linear: 
      x: -2.79580775284e-09
      y: 0.0
      z: 0.0
    angular: 
      x: 0.0
      y: 0.0
      z: 3.03320323991e-05
  covariance: [9.999996018295258e-10, 0.0, 0.0, 0.0, 0.0, 0.0, 0.0, 5035972.437191253, 0.0, 0.0, 0.0, 0.0, 0.0, 0.0, 6.9764875133023e-07, 4.242705002824642e-25, 5.580785327299992e-26, 0.0, 0.0, 0.0, 4.242705002824641e-25, 4.525794806621411e-07, -4.144795222627455e-33, 0.0, 0.0, 0.0, 5.580785327299993e-26, -4.685970657172269e-33, 4.525794806621411e-07, 0.0, 0.0, 0.0, 0.0, 0.0, 0.0, 9.989889317519525e-10]
---
header: 
  seq: 11476
  stamp: 
    secs: 1518209045
    nsecs: 734740257
  frame_id: "swarmone/odom"
child_frame_id: "swarmone/base_link"
pose: 
  pose: 
    position: 
      x: -0.106057143228
      y: 16.6197106876
      z: 0.0
    orientation: 
      x: 0.0
      y: 0.0
      z: 0.651833999357
      w: 0.75836167973
  covariance: [982367128269.2882, -65897722560.4677, 0.0, 0.0, 0.0, -3.5164240294679104e-16, -65897722560.46722, 4427211894.773734, 0.0, 0.0, 0.0, 4.896657244195711e-17, 0.0, 0.0, 5.524799866030814e-07, -1.0138518653933698e-21, -1.1230915125359927e-14, 0.0, 0.0, 0.0, -1.0138518653933696e-21, 4.3943284907172084e-07, -2.751036814185721e-29, 0.0, 0.0, 0.0, -1.1230915125359927e-14, -2.3376748025934151e-29, 4.3943284907172063e-07, 0.0, -3.5164240294679104e-16, 4.8966572441957104e-17, 0.0, 0.0, 0.0, 9.02222228836555e-07]
twist: 
  twist: 
    linear: 
      x: 3.59764893397e-09
      y: 0.0
      z: 0.0
    angular: 
      x: 0.0
      y: 0.0
      z: 0.000132271824975
  covariance: [9.999995976794434e-10, 0.0, 0.0, 0.0, 0.0, 0.0, 0.0, 5037281.598324148, 0.0, 0.0, 0.0, 0.0, 0.0, 0.0, 4.829690567683222e-07, -9.723652466732381e-26, -1.4770412083816363e-26, 0.0, 0.0, 0.0, -9.723652466732382e-26, 3.25884516123039e-07, -2.6913507032618614e-34, 0.0, 0.0, 0.0, -1.477041208381637e-26, -7.167828603504785e-34, 3.25884516123039e-07, 0.0, 0.0, 0.0, 0.0, 0.0, 0.0, 9.966932027136464e-10]
---
header: 
  seq: 11477
  stamp: 
    secs: 1518209045
    nsecs: 835212708
  frame_id: "swarmone/odom"
child_frame_id: "swarmone/base_link"
pose: 
  pose: 
    position: 
      x: -0.106057137403
      y: 16.619710726
      z: 0.0
    orientation: 
      x: 0.0
      y: 0.0
      z: 0.659384924505
      w: 0.751805507652
  covariance: [982795060032.9369, -65944720005.03556, 0.0, 0.0, 0.0, -2.0181213867878807e-20, -65944720005.03508, 4431614138.733706, 0.0, 0.0, 0.0, 2.657703809351137e-21, 0.0, 0.0, 5.742829522774206e-07, -1.3733798195698885e-25, -1.5547773236222502e-18, 0.0, 0.0, 0.0, -1.3733798195698885e-25, 4.568548567759967e-07, 3.505296764903226e-31, 0.0, 0.0, 0.0, -1.5547773236222506e-18, -3.505311067047529e-31, 4.568548567759967e-07, 0.0, -2.0181213867878807e-20, 2.657703809351137e-21, 0.0, 0.0, 0.0, 1.0166631468070558e-06]
twist: 
  twist: 
    linear: 
      x: 6.42951729819e-13
      y: 0.0
      z: 0.0
    angular: 
      x: 0.0
      y: 0.0
      z: 0.000117455485206
  covariance: [9.999996018814735e-10, 0.0, 0.0, 0.0, 0.0, 0.0, 0.0, 5038604.809569034, 0.0, 0.0, 0.0, 0.0, 0.0, 0.0, 5.025901255976575e-07, -1.6245197792089564e-29, -2.1370574214983503e-30, 0.0, 0.0, 0.0, -1.6245197792089564e-29, 3.3444259113085425e-07, 5.540904971892467e-37, 0.0, 0.0, 0.0, -2.1370574214983503e-30, -5.541385204568515e-37, 3.3444259113085425e-07, 0.0, 0.0, 0.0, 0.0, 0.0, 0.0, 9.970636114131413e-10]
---
header: 
  seq: 11478
  stamp: 
    secs: 1518209045
    nsecs: 934678793
  frame_id: "swarmone/odom"
child_frame_id: "swarmone/base_link"
pose: 
  pose: 
    position: 
      x: -0.106024911754
      y: 16.6199556945
      z: 0.0
    orientation: 
      x: 0.0
      y: 0.0
      z: 0.651834454989
      w: 0.758361288101
  covariance: [983220055090.9152, -65987065796.15448, 0.0, 0.0, 0.0, -2.631873242290623e-16, -65987065796.15399, 4435400446.485072, 0.0, 0.0, 0.0, 3.9139460866831805e-17, 0.0, 0.0, 7.52290163973872e-07, -1.8648776519173304e-21, -6.88688482602109e-15, 0.0, 0.0, 0.0, -1.8648776519173304e-21, 6.275786393243498e-07, -4.976409359377865e-29, 0.0, 0.0, 0.0, -6.88688482602109e-15, -5.3932244223433e-29, 6.275786393243497e-07, 0.0, -2.6318732422906234e-16, 3.9139460866831805e-17, 0.0, 0.0, 0.0, 2.7046666868461382e-06]
twist: 
  twist: 
    linear: 
      x: 1.99899634432e-09
      y: 0.0
      z: 0.0
    angular: 
      x: 0.0
      y: 0.0
      z: 4.4285867509e-05
  covariance: [9.999995978534737e-10, 0.0, 0.0, 0.0, 0.0, 0.0, 0.0, 5039914.995333005, 0.0, 0.0, 0.0, 0.0, 0.0, 0.0, 6.810970118094568e-07, -2.743977390508616e-25, -4.169706507616087e-26, 0.0, 0.0, 0.0, -2.743977390508616e-25, 4.3940933262117484e-07, -1.727953722696613e-33, 0.0, 0.0, 0.0, -4.169706507616086e-26, -1.9204534400732165e-33, 4.3940933262117484e-07, 0.0, 0.0, 0.0, 0.0, 0.0, 0.0, 9.98892852757112e-10]
---
header: 
  seq: 11479
  stamp: 
    secs: 1518209046
    nsecs:  35120249
  frame_id: "swarmone/odom"
child_frame_id: "swarmone/base_link"
pose: 
  pose: 
    position: 
      x: -0.106017336886
      y: 16.6200055493
      z: 0.0
    orientation: 
      x: 0.0
      y: 0.0
      z: 0.65938490658
      w: 0.751805523373
  covariance: [983648152381.3663, -66034088602.945366, 0.0, 0.0, 0.0, -3.803711552487612e-17, -66034088602.94488, 4439806611.801863, 0.0, 0.0, 0.0, 5.4600062452524824e-18, 0.0, 0.0, 5.609129001877045e-07, -1.0520298821035169e-22, -1.2811443408695939e-15, 0.0, 0.0, 0.0, -1.0520298821035169e-22, 4.460955927970808e-07, -1.7834079356262121e-31, 0.0, 0.0, 0.0, -1.281144340869594e-15, -4.354981851674697e-31, 4.460955927970808e-07, 0.0, -3.8037115524876116e-17, 5.4600062452524824e-18, 0.0, 0.0, 0.0, 9.451375730765487e-07]
twist: 
  twist: 
    linear: 
      x: 4.00001360376e-10
      y: 0.0
      z: 0.0
    angular: 
      x: 0.0
      y: 0.0
      z: 0.000126297437222
  covariance: [9.999996017591017e-10, 0.0, 0.0, 0.0, 0.0, 0.0, 0.0, 5041238.259314157, 0.0, 0.0, 0.0, 0.0, 0.0, 0.0, 4.905057606129324e-07, -1.196440883362157e-26, -1.5743031961843514e-27, 0.0, 0.0, 0.0, -1.1964408833621569e-26, 3.2911977638917136e-07, -3.2640051029304607e-35, 0.0, 0.0, 0.0, -1.574303196184351e-27, 3.2639870398221154e-35, 3.2911977638917136e-07, 0.0, 0.0, 0.0, 0.0, 0.0, 0.0, 9.968425624991559e-10]
---
header: 
  seq: 11480
  stamp: 
    secs: 1518209046
    nsecs: 134582520
  frame_id: "swarmone/odom"
child_frame_id: "swarmone/base_link"
pose: 
  pose: 
    position: 
      x: -0.106010885621
      y: 16.6200545903
      z: 0.0
    orientation: 
      x: 0.0
      y: 0.0
      z: 0.655617657818
      w: 0.755093031856
  covariance: [984073427050.9644, -66076467994.58483, 0.0, 0.0, 0.0, -2.3501617936359416e-17, -66076467994.58435, 4443597125.469507, 0.0, 0.0, 0.0, 3.2518819849447675e-18, 0.0, 0.0, 5.636536402682751e-07, -1.1441247169723778e-22, -1.2753735376894761e-15, 0.0, 0.0, 0.0, -1.1441247169723775e-22, 4.4828130030151773e-07, 8.23383568193931e-31, 0.0, 0.0, 0.0, -1.2753735376894763e-15, -1.4921360415654234e-30, 4.4828130030151773e-07, 0.0, -2.350161793635942e-17, 3.2518819849447675e-18, 0.0, 0.0, 0.0, 9.594426878209674e-07]
twist: 
  twist: 
    linear: 
      x: 4.0025541952e-10
      y: 0.0
      z: 0.0
    angular: 
      x: 0.0
      y: 0.0
      z: 0.00012442412757
  covariance: [9.999995978380308e-10, 0.0, 0.0, 0.0, 0.0, 0.0, 0.0, 5042548.851266075, 0.0, 0.0, 0.0, 0.0, 0.0, 0.0, 4.929693093133965e-07, -1.2156908971392172e-26, -1.7230375574659964e-27, 0.0, 0.0, 0.0, -1.2156908971392182e-26, 3.301906440686972e-07, 3.248331030679097e-35, 0.0, 0.0, 0.0, -1.7230375574659964e-27, -3.2483310306800196e-35, 3.301906440686972e-07, 0.0, 0.0, 0.0, 0.0, 0.0, 0.0, 9.968893952517288e-10]
---
header: 
  seq: 11481
  stamp: 
    secs: 1518209046
    nsecs: 235068560
  frame_id: "swarmone/odom"
child_frame_id: "swarmone/base_link"
pose: 
  pose: 
    position: 
      x: -0.105989655235
      y: 16.6202043812
      z: 0.0
    orientation: 
      x: 0.0
      y: 0.0
      z: 0.655618204467
      w: 0.755092557221
  covariance: [984502641730.7965, -66121429273.23666, 0.0, 0.0, 0.0, -1.7960850867136215e-16, -66121429273.236176, 4447719935.2598095, 0.0, 0.0, 0.0, 2.545663969159506e-17, 0.0, 0.0, 7.760927527314304e-07, -1.1867100656058225e-21, -4.048792141551645e-15, 0.0, 0.0, 0.0, -1.1867100656058221e-21, 6.551376789938606e-07, -2.163978690086728e-29, 0.0, 0.0, 0.0, -4.048792141551644e-15, -2.1276815110960618e-29, 6.551376789938604e-07, 0.0, -1.7960850867136217e-16, 2.5456639691595063e-17, 0.0, 0.0, 0.0, 3.1338201292313345e-06]
twist: 
  twist: 
    linear: 
      x: 1.19945398839e-09
      y: 0.0
      z: 0.0
    angular: 
      x: 0.0
      y: 0.0
      z: 3.82309070145e-05
  covariance: [9.999996019353306e-10, 0.0, 0.0, 0.0, 0.0, 0.0, 0.0, 5043873.163843015, 0.0, 0.0, 0.0, 0.0, 0.0, 0.0, 7.077606299424492e-07, -1.9111430344095161e-25, -2.708736186268801e-26, 0.0, 0.0, 0.0, -1.9111430344095166e-25, 4.610208858392326e-07, -7.708503877047415e-34, 0.0, 0.0, 0.0, -2.7087361862688024e-26, -3.85442638145682e-34, 4.610208858392326e-07, 0.0, 0.0, 0.0, 0.0, 0.0, 0.0, 9.990442268502955e-10]
---
header: 
  seq: 11482
  stamp: 
    secs: 1518209046
    nsecs: 334498405
  frame_id: "swarmone/odom"
child_frame_id: "swarmone/base_link"
pose: 
  pose: 
    position: 
      x: -0.105982734988
      y: 16.6202532056
      z: 0.0
    orientation: 
      x: 0.0
      y: 0.0
      z: 0.651834002337
      w: 0.758361677168
  covariance: [984927492578.8944, -66165937111.6134, 0.0, 0.0, 0.0, -4.0654383788386827e-17, -66165937111.61292, 4451801869.238838, 0.0, 0.0, 0.0, 5.914909932179397e-18, 0.0, 0.0, 5.553267075220797e-07, -1.1485763635589253e-22, -1.2523782181686612e-15, 0.0, 0.0, 0.0, -1.1485763635589253e-22, 4.416714638247463e-07, 9.53157388392363e-31, 0.0, 0.0, 0.0, -1.2523782181686614e-15, -1.6001253956584788e-30, 4.416714638247463e-07, 0.0, -4.065438378838682e-17, 5.914909932179396e-18, 0.0, 0.0, 0.0, 9.16527343582672e-07]
twist: 
  twist: 
    linear: 
      x: 3.98913213009e-10
      y: 0.0
      z: 0.0
    angular: 
      x: 0.0
      y: 0.0
      z: 0.00013021853417
  covariance: [9.999995977074658e-10, 0.0, 0.0, 0.0, 0.0, 0.0, 0.0, 5045183.784965909, 0.0, 0.0, 0.0, 0.0, 0.0, 0.0, 4.855059202260935e-07, -1.1118145865445019e-26, -1.6891234385452672e-27, 0.0, 0.0, 0.0, -1.1118145865445016e-26, 3.2696623097045767e-07, -6.379257798307771e-35, 0.0, 0.0, 0.0, -1.6891234385452672e-27, 6.379313200867083e-35, 3.2696623097045767e-07, 0.0, 0.0, 0.0, 0.0, 0.0, 0.0, 9.967445350099936e-10]
---
header: 
  seq: 11483
  stamp: 
    secs: 1518209046
    nsecs: 434979200
  frame_id: "swarmone/odom"
child_frame_id: "swarmone/base_link"
pose: 
  pose: 
    position: 
      x: -0.106005470162
      y: 16.6201035791
      z: 0.0
    orientation: 
      x: 0.0
      y: 0.0
      z: 0.659384847617
      w: 0.751805575088
  covariance: [985356353109.9226, -66213058812.65431, 0.0, 0.0, 0.0, 6.975456634846768e-17, -66213058812.65384, 4456220422.277712, 0.0, 0.0, 0.0, -9.640272496106512e-18, 0.0, 0.0, 5.609129014620583e-07, 2.367919931617722e-22, 3.8427938239188886e-15, 0.0, 0.0, 0.0, 2.3679199316177223e-22, 4.460955646162178e-07, -1.904955018117809e-30, 0.0, 0.0, 0.0, 3.842793823918889e-15, -3.033833519720029e-31, 4.460955646162178e-07, 0.0, 6.975456634846767e-17, -9.64027249610651e-18, 0.0, 0.0, 0.0, 9.451375730765645e-07]
twist: 
  twist: 
    linear: 
      x: -1.19913012723e-09
      y: 0.0
      z: 0.0
    angular: 
      x: 0.0
      y: 0.0
      z: 9.47230780876e-05
  covariance: [9.9999960191454e-10, 0.0, 0.0, 0.0, 0.0, 0.0, 0.0, 5046508.48966384, 0.0, 0.0, 0.0, 0.0, 0.0, 0.0, 4.905057630712909e-07, 3.582349767587025e-26, 4.7125486779896054e-27, 0.0, 0.0, 0.0, 3.582349767587026e-26, 3.291197902949018e-07, -3.311196839041487e-35, 0.0, 0.0, 0.0, 4.712548677989607e-27, -3.57561140247728e-34, 3.291197902949018e-07, 0.0, 0.0, 0.0, 0.0, 0.0, 0.0, 9.968425624991576e-10]
---
header: 
  seq: 11484
  stamp: 
    secs: 1518209046
    nsecs: 534458637
  frame_id: "swarmone/odom"
child_frame_id: "swarmone/base_link"
pose: 
  pose: 
    position: 
      x: -0.105979666386
      y: 16.6202997332
      z: 0.0
    orientation: 
      x: 0.0
      y: 0.0
      z: 0.655617654217
      w: 0.755093034982
  covariance: [985782292752.8363, -66255519191.38382, 0.0, 0.0, 0.0, -9.304578427373984e-17, -66255519191.38336, 4460020732.378395, 0.0, 0.0, 0.0, 1.287131631301373e-17, 0.0, 0.0, 5.609128656979405e-07, -4.484110838086785e-22, -5.0747885247600104e-15, 0.0, 0.0, 0.0, -4.484110838086786e-22, 4.4609548255318544e-07, -3.000022495900854e-30, 0.0, 0.0, 0.0, -5.0747885247600104e-15, -7.36507151143588e-30, 4.4609548255318544e-07, 0.0, -9.304578427373984e-17, 1.287131631301373e-17, 0.0, 0.0, 0.0, 9.451375730748956e-07]
twist: 
  twist: 
    linear: 
      x: 1.59974056658e-09
      y: 0.0
      z: 0.0
    angular: 
      x: 0.0
      y: 0.0
      z: 0.000126297436697
  covariance: [9.99999597907428e-10, 0.0, 0.0, 0.0, 0.0, 0.0, 0.0, 5047820.221206403, 0.0, 0.0, 0.0, 0.0, 0.0, 0.0, 4.905056908520528e-07, -4.7244895208864224e-26, -6.696156879269482e-27, 0.0, 0.0, 0.0, -4.724489520886422e-26, 3.2911928992682725e-07, 1.5954042029928384e-34, 0.0, 0.0, 0.0, -6.696156879269484e-27, -2.25648408875621e-34, 3.2911928992682725e-07, 0.0, 0.0, 0.0, 0.0, 0.0, 0.0, 9.968425624991077e-10]
---
header: 
  seq: 11485
  stamp: 
    secs: 1518209046
    nsecs: 652762413
  frame_id: "swarmone/odom"
child_frame_id: "swarmone/base_link"
pose: 
  pose: 
    position: 
      x: -0.105960024052
      y: 16.6204383222
      z: 0.0
    orientation: 
      x: 0.0
      y: 0.0
      z: 0.663135694273
      w: 0.748499199052
  covariance: [986288332483.6162, -66308545183.2296, 0.0, 0.0, 0.0, -5.822822451071587e-17, -66308545183.22913, 4464886439.957535, 0.0, 0.0, 0.0, 7.44347577844065e-18, 0.0, 0.0, 5.74283455785083e-07, -2.521340306108903e-22, -3.0884924647205095e-15, 0.0, 0.0, 0.0, -2.5213403061089033e-22, 4.5685649579369864e-07, -7.641141506333097e-31, 0.0, 0.0, 0.0, -3.088492464720509e-15, -2.8942034759236118e-30, 4.568564957936986e-07, 0.0, -5.822822451071587e-17, 7.44347577844065e-18, 0.0, 0.0, 0.0, 1.0166631468320602e-06]
twist: 
  twist: 
    linear: 
      x: 8.00664822203e-10
      y: 0.0
      z: 0.0
    angular: 
      x: 0.0
      y: 0.0
      z: 0.000117455493957
  covariance: [9.999996618878584e-10, 0.0, 0.0, 0.0, 0.0, 0.0, 0.0, 5049380.4655345585, 0.0, 0.0, 0.0, 0.0, 0.0, 0.0, 5.025911565522715e-07, -3.23089340542647e-26, -3.921886106463848e-27, 0.0, 0.0, 0.0, -3.230893405426469e-26, 3.3444996808179503e-07, 9.642388920237324e-35, 0.0, 0.0, 0.0, -3.9218861064638486e-27, -9.677717261986968e-35, 3.3444996808179503e-07, 0.0, 0.0, 0.0, 0.0, 0.0, 0.0, 9.970636114137884e-10]
---
header: 
  seq: 11486
  stamp: 
    secs: 1518209046
    nsecs: 743883848
  frame_id: "swarmone/odom"
child_frame_id: "swarmone/base_link"
pose: 
  pose: 
    position: 
      x: -0.105920018742
      y: 16.6207678813
      z: 0.0
    orientation: 
      x: 0.0
      y: 0.0
      z: 0.655617654966
      w: 0.755093034332
  covariance: [986679269667.6177, -66345537209.89556, 0.0, 0.0, 0.0, -1.7483555786369797e-16, -66345537209.8951, 4468106693.792676, 0.0, 0.0, 0.0, 2.3533111621367738e-17, 0.0, 0.0, 5.609125365043024e-07, -8.215029694247111e-22, -9.296578734875026e-15, 0.0, 0.0, 0.0, -8.215029694247111e-22, 4.4609443508217785e-07, -1.8878778351089874e-29, 0.0, 0.0, 0.0, -9.296578734875026e-15, -1.5907670056941443e-29, 4.4609443508217754e-07, 0.0, -1.7483555786369797e-16, 2.3533111621367738e-17, 0.0, 0.0, 0.0, 9.451375730595307e-07]
twist: 
  twist: 
    linear: 
      x: 3.19941829453e-09
      y: 0.0
      z: 0.0
    angular: 
      x: 0.0
      y: 0.0
      z: 0.000126297430944
  covariance: [9.99999561026009e-10, 0.0, 0.0, 0.0, 0.0, 0.0, 0.0, 5050582.435876993, 0.0, 0.0, 0.0, 0.0, 0.0, 0.0, 4.905050260938262e-07, -8.655376996728705e-26, -1.2267309155784688e-26, 0.0, 0.0, 0.0, -8.655376996728708e-26, 3.2911468409251237e-07, -4.8511126161580175e-34, 0.0, 0.0, 0.0, -1.2267309155784688e-26, -2.9297543055465216e-34, 3.2911468409251237e-07, 0.0, 0.0, 0.0, 0.0, 0.0, 0.0, 9.96842562498648e-10]
---
header: 
  seq: 11487
  stamp: 
    secs: 1518209046
    nsecs: 835298777
  frame_id: "swarmone/odom"
child_frame_id: "swarmone/base_link"
pose: 
  pose: 
    position: 
      x: -0.105896583392
      y: 16.6209332314
      z: 0.0
    orientation: 
      x: 0.0
      y: 0.0
      z: 0.659385165438
      w: 0.751805296337
  covariance: [987070560103.5205, -66386544441.21298, 0.0, 0.0, 0.0, -1.8756540057089797e-16, -66386544441.212524, 4471870639.6573715, 0.0, 0.0, 0.0, 2.4963998269746803e-17, 0.0, 0.0, 7.478220769125147e-07, -8.73744753756239e-22, -5.089879243837946e-15, 0.0, 0.0, 0.0, -8.737447537562389e-22, 6.225509554316181e-07, -1.8557707293423008e-29, 0.0, 0.0, 0.0, -5.089879243837946e-15, -1.6712894538127933e-29, 6.22550955431618e-07, 0.0, -1.87565400570898e-16, 2.4963998269746807e-17, 0.0, 0.0, 0.0, 2.633141113100797e-06]
twist: 
  twist: 
    linear: 
      x: 1.60104576558e-09
      y: 0.0
      z: 0.0
    angular: 
      x: 0.0
      y: 0.0
      z: 3.41149116552e-05
  covariance: [9.999995624353425e-10, 0.0, 0.0, 0.0, 0.0, 0.0, 0.0, 5051788.469304533, 0.0, 0.0, 0.0, 0.0, 0.0, 0.0, 6.761724811924708e-07, -1.970372444793912e-25, -2.5918742017564584e-26, 0.0, 0.0, 0.0, -1.9703724447939122e-25, 4.356347029820698e-07, -7.705505314967393e-34, 0.0, 0.0, 0.0, -2.591874201756458e-26, -1.0183672296365066e-33, 4.356347029820698e-07, 0.0, 0.0, 0.0, 0.0, 0.0, 0.0, 9.988628356585006e-10]
---
header: 
  seq: 11488
  stamp: 
    secs: 1518209046
    nsecs: 934725523
  frame_id: "swarmone/odom"
child_frame_id: "swarmone/base_link"
pose: 
  pose: 
    position: 
      x: -0.105845045014
      y: 16.6213250077
      z: 0.0
    orientation: 
      x: 0.0
      y: 0.0
      z: 0.655617589595
      w: 0.755093091092
  covariance: [987496867091.7188, -66429054540.860405, 0.0, 0.0, 0.0, -2.930484054021228e-16, -66429054540.85995, 4475677698.909976, 0.0, 0.0, 0.0, 3.9772998338906266e-17, 0.0, 0.0, 5.553267073896405e-07, -6.450159406187343e-22, -1.0038305943934614e-14, 0.0, 0.0, 0.0, -6.450159406187343e-22, 4.4167143212576615e-07, -1.438456176683653e-29, 0.0, 0.0, 0.0, -1.0038305943934614e-14, -1.4737162631833126e-29, 4.4167143212576593e-07, 0.0, -2.930484054021228e-16, 3.9772998338906266e-17, 0.0, 0.0, 0.0, 9.165273435826527e-07]
twist: 
  twist: 
    linear: 
      x: 3.19832334054e-09
      y: 0.0
      z: 0.0
    angular: 
      x: 0.0
      y: 0.0
      z: 9.76639006351e-05
  covariance: [9.999995976947917e-10, 0.0, 0.0, 0.0, 0.0, 0.0, 0.0, 5053100.420274705, 0.0, 0.0, 0.0, 0.0, 0.0, 0.0, 4.855059199363458e-07, -8.919275079580136e-26, -1.2639968606333685e-26, 0.0, 0.0, 0.0, -8.919275079580132e-26, 3.2696622810370065e-07, -3.6521673877274433e-34, 0.0, 0.0, 0.0, -1.2639968606333686e-26, -4.28367087911996e-34, 3.2696622810370065e-07, 0.0, 0.0, 0.0, 0.0, 0.0, 0.0, 9.96744535009993e-10]
---
header: 
  seq: 11489
  stamp: 
    secs: 1518209047
    nsecs:  35204172
  frame_id: "swarmone/odom"
child_frame_id: "swarmone/base_link"
pose: 
  pose: 
    position: 
      x: -0.105837963378
      y: 16.6213749732
      z: 0.0
    orientation: 
      x: 0.0
      y: 0.0
      z: 0.663135672672
      w: 0.74849921819
  covariance: [987927245708.6609, -66474165365.62427, 0.0, 0.0, 0.0, -2.3053047510450336e-17, -66474165365.6238, 4479819612.607418, 0.0, 0.0, 0.0, 2.9529016332200632e-18, 0.0, 0.0, 5.581374783545902e-07, -9.530305534069359e-23, -1.2752243283566474e-15, 0.0, 0.0, 0.0, -9.530305534069358e-23, 4.438923890269329e-07, -1.1092886464519175e-30, 0.0, 0.0, 0.0, -1.2752243283566476e-15, 5.591434588614563e-31, 4.438923890269329e-07, 0.0, -2.3053047510450336e-17, 2.9529016332200632e-18, 0.0, 0.0, 0.0, 9.308324583304601e-07]
twist: 
  twist: 
    linear: 
      x: 4.00003522276e-10
      y: 0.0
      z: 0.0
    angular: 
      x: 0.0
      y: 0.0
      z: 0.000128228017232
  covariance: [9.999996019060385e-10, 0.0, 0.0, 0.0, 0.0, 0.0, 0.0, 5054426.482001816, 0.0, 0.0, 0.0, 0.0, 0.0, 0.0, 4.88018085983487e-07, -1.1620377892460004e-26, -1.4105934550282401e-27, 0.0, 0.0, 0.0, -1.1620377892460007e-26, 3.280449952611767e-07, -9.63324839262014e-35, 0.0, 0.0, 0.0, -1.4105934550282401e-27, 9.633244453073603e-35, 3.280449952611767e-07, 0.0, 0.0, 0.0, 0.0, 0.0, 0.0, 9.96794297977645e-10]
---
header: 
  seq: 11490
  stamp: 
    secs: 1518209047
    nsecs: 134636402
  frame_id: "swarmone/odom"
child_frame_id: "swarmone/base_link"
pose: 
  pose: 
    position: 
      x: -0.105832006409
      y: 16.6214240469
      z: 0.0
    orientation: 
      x: 0.0
      y: 0.0
      z: 0.659384962941
      w: 0.751805473941
  covariance: [988354412403.7638, -66514597942.55834, 0.0, 0.0, 0.0, -2.2937898475362417e-17, -66514597942.55788, 4483341344.42815, 0.0, 0.0, 0.0, 2.93964678486141e-18, 0.0, 0.0, 5.581374404866692e-07, -1.2764225296676646e-22, -1.2625223757960973e-15, 0.0, 0.0, 0.0, -1.276422529667665e-22, 4.438923006079723e-07, -1.1012826596468568e-30, 0.0, 0.0, 0.0, -1.2625223757960971e-15, 3.7185638575066763e-31, 4.438923006079723e-07, 0.0, -2.2937898475362417e-17, 2.9396467848614105e-18, 0.0, 0.0, 0.0, 9.308324583287149e-07]
twist: 
  twist: 
    linear: 
      x: 4.00249746541e-10
      y: 0.0
      z: 0.0
    angular: 
      x: 0.0
      y: 0.0
      z: 0.000160285020715
  covariance: [9.99999597716525e-10, 0.0, 0.0, 0.0, 0.0, 0.0, 0.0, 5055738.962030551, 0.0, 0.0, 0.0, 0.0, 0.0, 0.0, 4.880180097331444e-07, -1.1490206593219787e-26, -1.511489955621087e-27, 0.0, 0.0, 0.0, -1.1490206593219784e-26, 3.2804447038282494e-07, -1.927662229933301e-34, 0.0, 0.0, 0.0, -1.5114899556210859e-27, 1.9276622299332812e-34, 3.2804447038282494e-07, 0.0, 0.0, 0.0, 0.0, 0.0, 0.0, 9.967942979775911e-10]
---
header: 
  seq: 11491
  stamp: 
    secs: 1518209047
    nsecs: 234597921
  frame_id: "swarmone/odom"
child_frame_id: "swarmone/base_link"
pose: 
  pose: 
    position: 
      x: -0.105812468967
      y: 16.6215725662
      z: 0.0
    orientation: 
      x: 0.0
      y: 0.0
      z: 0.655617592292
      w: 0.755093088749
  covariance: [988783458953.087, -66557390908.864044, 0.0, 0.0, 0.0, -6.904834721041996e-17, -66557390908.86358, 4487175401.678036, 0.0, 0.0, 0.0, 9.551622421725563e-18, 0.0, 0.0, 5.581374597405929e-07, -2.4842286527051263e-22, -3.804458696142684e-15, 0.0, 0.0, 0.0, -2.4842286527051263e-22, 4.438922981110996e-07, -2.672231776110076e-30, 0.0, 0.0, 0.0, -3.804458696142684e-15, -1.605764363383905e-30, 4.4389229811109966e-07, 0.0, -6.904834721041996e-17, 9.551622421725565e-18, 0.0, 0.0, 0.0, 9.308324583296024e-07]
twist: 
  twist: 
    linear: 
      x: 1.19937556978e-09
      y: 0.0
      z: 0.0
    angular: 
      x: 0.0
      y: 0.0
      z: 9.6171012817e-05
  covariance: [9.999995998465875e-10, 0.0, 0.0, 0.0, 0.0, 0.0, 0.0, 5057058.657547464, 0.0, 0.0, 0.0, 0.0, 0.0, 0.0, 4.880180485031619e-07, -3.457711091059345e-26, -4.900709198108779e-27, 0.0, 0.0, 0.0, -3.457711091059346e-26, 3.2804473727159137e-07, 1.9228026141443213e-34, 0.0, 0.0, 0.0, -4.9007091981087805e-27, -2.8978377851244425e-34, 3.2804473727159137e-07, 0.0, 0.0, 0.0, 0.0, 0.0, 0.0, 9.967942979776186e-10]
---
header: 
  seq: 11492
  stamp: 
    secs: 1518209047
    nsecs: 335060596
  frame_id: "swarmone/odom"
child_frame_id: "swarmone/base_link"
pose: 
  pose: 
    position: 
      x: -0.105826608789
      y: 16.6214728018
      z: 0.0
    orientation: 
      x: 0.0
      y: 0.0
      z: 0.659385441348
      w: 0.751805054344
  covariance: [989214218080.6093, -66602550780.54631, 0.0, 0.0, 0.0, 1.1734168678221644e-16, -66602550780.545845, 4491323640.3951435, 0.0, 0.0, 0.0, -1.559307115934209e-17, 0.0, 0.0, 7.731868047474807e-07, 7.238598811495022e-22, 2.7067174294660094e-15, 0.0, 0.0, 0.0, 7.23859881149502e-22, 6.51701153224148e-07, -1.4942445436289244e-29, 0.0, 0.0, 0.0, 2.7067174294660098e-15, -9.989972887478532e-30, 6.51701153224148e-07, 0.0, 1.1734168678221644e-16, -1.559307115934209e-17, 0.0, 0.0, 0.0, 3.0765996702468235e-06]
twist: 
  twist: 
    linear: 
      x: -7.97866890178e-10
      y: 0.0
      z: 0.0
    angular: 
      x: 0.0
      y: 0.0
      z: 3.89407948086e-05
  covariance: [9.999996018427435e-10, 0.0, 0.0, 0.0, 0.0, 0.0, 0.0, 5058385.200704675, 0.0, 0.0, 0.0, 0.0, 0.0, 0.0, 7.044660024328013e-07, 1.253430143988611e-25, 1.6487959571373934e-26, 0.0, 0.0, 0.0, 1.2534301439886112e-25, 4.582361553163228e-07, -8.35046179753775e-34, 0.0, 0.0, 0.0, 1.6487959571373934e-26, -2.5681117290423265e-34, 4.582361553163228e-07, 0.0, 0.0, 0.0, 0.0, 0.0, 0.0, 9.99026479646185e-10]
---
header: 
  seq: 11493
  stamp: 
    secs: 1518209047
    nsecs: 434490442
  frame_id: "swarmone/odom"
child_frame_id: "swarmone/base_link"
pose: 
  pose: 
    position: 
      x: -0.105787946244
      y: 16.6217667124
      z: 0.0
    orientation: 
      x: 0.0
      y: 0.0
      z: 0.659384848863
      w: 0.751805573995
  covariance: [989641279676.8638, -66645152007.96393, 0.0, 0.0, 0.0, -2.445916477625104e-16, -66645152007.96348, 4495141679.276237, 0.0, 0.0, 0.0, 3.217506516076399e-17, 0.0, 0.0, 5.609128640369176e-07, -4.685569394668461e-22, -7.607880035825108e-15, 0.0, 0.0, 0.0, -4.685569394668462e-22, 4.4609544591666144e-07, -8.803228700654343e-30, 0.0, 0.0, 0.0, -7.607880035825112e-15, -7.433682785547316e-30, 4.4609544591666144e-07, 0.0, -2.445916477625104e-16, 3.217506516076399e-17, 0.0, 0.0, 0.0, 9.451375730748719e-07]
twist: 
  twist: 
    linear: 
      x: 2.3994500371e-09
      y: 0.0
      z: 0.0
    angular: 
      x: 0.0
      y: 0.0
      z: 9.4723077448e-05
  covariance: [9.999995977074505e-10, 0.0, 0.0, 0.0, 0.0, 0.0, 0.0, 5059698.334431325, 0.0, 0.0, 0.0, 0.0, 0.0, 0.0, 4.905056876302152e-07, -7.107966401417258e-26, -9.350335450959172e-27, 0.0, 0.0, 0.0, -7.107966401417259e-26, 3.2911927140330254e-07, -7.069270808532377e-35, 0.0, 0.0, 0.0, -9.350335450959176e-27, -2.6266918370734243e-34, 3.2911927140330254e-07, 0.0, 0.0, 0.0, 0.0, 0.0, 0.0, 9.968425624991052e-10]
---
header: 
  seq: 11494
  stamp: 
    secs: 1518209047
    nsecs: 534976244
  frame_id: "swarmone/odom"
child_frame_id: "swarmone/base_link"
pose: 
  pose: 
    position: 
      x: -0.105761615467
      y: 16.6219668727
      z: 0.0
    orientation: 
      x: 0.0
      y: 0.0
      z: 0.655617654211
      w: 0.755093034988
  covariance: [990073026498.991, -66688224502.23857, 0.0, 0.0, 0.0, -9.399504932487981e-17, -66688224502.238106, 4499002542.401379, 0.0, 0.0, 0.0, 1.300265542780844e-17, 0.0, 0.0, 5.609129016424267e-07, -4.530033619541631e-22, -5.126760501868212e-15, 0.0, 0.0, 0.0, -4.530033619541632e-22, 4.460955969291913e-07, -4.3104144649265366e-30, 0.0, 0.0, 0.0, -5.126760501868212e-15, -6.268007698504925e-30, 4.460955969291913e-07, 0.0, -9.399504932487982e-17, 1.3002655427808439e-17, 0.0, 0.0, 0.0, 9.451375730765735e-07]
twist: 
  twist: 
    linear: 
      x: 1.59999946712e-09
      y: 0.0
      z: 0.0
    angular: 
      x: 0.0
      y: 0.0
      z: 0.000126297437329
  covariance: [9.999996019343827e-10, 0.0, 0.0, 0.0, 0.0, 0.0, 0.0, 5061025.644651716, 0.0, 0.0, 0.0, 0.0, 0.0, 0.0, 4.905057634377937e-07, -4.7728771447437283e-26, -6.764738637058168e-27, 0.0, 0.0, 0.0, -4.772877144743726e-26, 3.291197928787606e-07, -6.348739083231574e-35, 0.0, 0.0, 0.0, -6.764738637058164e-27, -9.672881017338203e-35, 3.291197928787606e-07, 0.0, 0.0, 0.0, 0.0, 0.0, 0.0, 9.96842562499158e-10]
---
header: 
  seq: 11495
  stamp: 
    secs: 1518209047
    nsecs: 634830713
  frame_id: "swarmone/odom"
child_frame_id: "swarmone/base_link"
pose: 
  pose: 
    position: 
      x: -0.105733641469
      y: 16.6221642476
      z: 0.0
    orientation: 
      x: 0.0
      y: 0.0
      z: 0.663135676233
      w: 0.748499215034
  covariance: [990501624305.5366, -66733168229.93893, 0.0, 0.0, 0.0, -9.352196110611408e-17, -66733168229.93847, 4503132870.368499, 0.0, 0.0, 0.0, 1.1985912271642058e-17, 0.0, 0.0, 5.60912879177723e-07, -3.8662166762939676e-22, -5.094239878782396e-15, 0.0, 0.0, 0.0, -3.866216676293967e-22, 4.4609552578186104e-07, -4.930439111172785e-30, 0.0, 0.0, 0.0, -5.094239878782397e-15, -4.040615926486651e-30, 4.460955257818609e-07, 0.0, -9.352196110611408e-17, 1.1985912271642056e-17, 0.0, 0.0, 0.0, 9.451375730755248e-07]
twist: 
  twist: 
    linear: 
      x: 1.59987188861e-09
      y: 0.0
      z: 0.0
    angular: 
      x: 0.0
      y: 0.0
      z: 0.000126297436984
  covariance: [9.999995994176032e-10, 0.0, 0.0, 0.0, 0.0, 0.0, 0.0, 5062344.845570762, 0.0, 0.0, 0.0, 0.0, 0.0, 0.0, 4.905057180729092e-07, -4.7550925783153394e-26, -5.7721807630541884e-27, 0.0, 0.0, 0.0, -4.7550925783153394e-26, 3.2911947854168174e-07, -3.502367434784372e-35, 0.0, 0.0, 0.0, -5.772180763054189e-27, -9.722844621504755e-35, 3.2911947854168174e-07, 0.0, 0.0, 0.0, 0.0, 0.0, 0.0, 9.968425624991265e-10]
---
header: 
  seq: 11496
  stamp: 
    secs: 1518209047
    nsecs: 734790087
  frame_id: "swarmone/odom"
child_frame_id: "swarmone/base_link"
pose: 
  pose: 
    position: 
      x: -0.105715588336
      y: 16.6223129717
      z: 0.0
    orientation: 
      x: 0.0
      y: 0.0
      z: 0.663135673913
      w: 0.748499217089
  covariance: [990931951893.9502, -66773919334.45713, 0.0, 0.0, 0.0, -6.956273422009871e-17, -66773919334.45667, 4506685393.647725, 0.0, 0.0, 0.0, 8.444019130166178e-18, 0.0, 0.0, 5.581374596646369e-07, -2.8440075219266454e-22, -3.805265980895513e-15, 0.0, 0.0, 0.0, -2.8440075219266454e-22, 4.4389232983794663e-07, -3.0914374139191435e-30, 0.0, 0.0, 0.0, -3.805265980895513e-15, -1.8068583953896395e-30, 4.438923298379465e-07, 0.0, -6.95627342200987e-17, 8.444019130166178e-18, 0.0, 0.0, 0.0, 9.308324583295992e-07]
twist: 
  twist: 
    linear: 
      x: 1.19974857696e-09
      y: 0.0
      z: 0.0
    angular: 
      x: 0.0
      y: 0.0
      z: 0.000128228016948
  covariance: [9.999995998380014e-10, 0.0, 0.0, 0.0, 0.0, 0.0, 0.0, 5063665.661986355, 0.0, 0.0, 0.0, 0.0, 0.0, 0.0, 4.880180483513732e-07, -3.46759577623649e-26, -4.209218687108383e-27, 0.0, 0.0, 0.0, -3.4675957762364884e-26, 3.280447362492348e-07, -9.95258575954903e-35, 0.0, 0.0, 0.0, -4.209218687108382e-27, 6.288788219655531e-35, 3.280447362492348e-07, 0.0, 0.0, 0.0, 0.0, 0.0, 0.0, 9.967942979776184e-10]
---
header: 
  seq: 11497
  stamp: 
    secs: 1518209047
    nsecs: 834837198
  frame_id: "swarmone/odom"
child_frame_id: "swarmone/base_link"
pose: 
  pose: 
    position: 
      x: -0.105709556398
      y: 16.6223626623
      z: 0.0
    orientation: 
      x: 0.0
      y: 0.0
      z: 0.655617647642
      w: 0.755093040691
  covariance: [991362806835.8191, -66814723740.46411, 0.0, 0.0, 0.0, -2.2826048710567468e-17, -66814723740.46366, 4510243015.387441, 0.0, 0.0, 0.0, 3.0785198941867384e-18, 0.0, 0.0, 5.553267301079891e-07, -1.0832142669760804e-22, -1.2640623836203024e-15, 0.0, 0.0, 0.0, -1.0832142669760804e-22, 4.4167153480843346e-07, -7.506564333128152e-31, 0.0, 0.0, 0.0, -1.2640623836203028e-15, 1.3484139094859727e-31, 4.4167153480843346e-07, 0.0, -2.2826048710567465e-17, 3.078519894186739e-18, 0.0, 0.0, 0.0, 9.165273435836444e-07]
twist: 
  twist: 
    linear: 
      x: 4.00370777764e-10
      y: 0.0
      z: 0.0
    angular: 
      x: 0.0
      y: 0.0
      z: 0.000130218534719
  covariance: [9.999996001889263e-10, 0.0, 0.0, 0.0, 0.0, 0.0, 0.0, 5064987.867757158, 0.0, 0.0, 0.0, 0.0, 0.0, 0.0, 4.855059654353481e-07, -1.1210737349954919e-26, -1.5889071992231858e-27, 0.0, 0.0, 0.0, -1.1210737349954913e-26, 3.269665361972649e-07, 9.624420594476961e-35, 0.0, 0.0, 0.0, -1.5889071992231861e-27, -9.624420778516622e-35, 3.269665361972649e-07, 0.0, 0.0, 0.0, 0.0, 0.0, 0.0, 9.96744535010026e-10]
---
header: 
  seq: 11498
  stamp: 
    secs: 1518209047
    nsecs: 934845686
  frame_id: "swarmone/odom"
child_frame_id: "swarmone/base_link"
pose: 
  pose: 
    position: 
      x: -0.105681498495
      y: 16.6225606247
      z: 0.0
    orientation: 
      x: 0.0
      y: 0.0
      z: 0.655617591663
      w: 0.755093089296
  covariance: [991792513258.2844, -66859793476.26024, 0.0, 0.0, 0.0, -9.160348786652603e-17, -66859793476.259796, 4514386690.018793, 0.0, 0.0, 0.0, 1.2983321518419305e-17, 0.0, 0.0, 5.581374614376082e-07, -3.3140181178211146e-22, -5.07579720368452e-15, 0.0, 0.0, 0.0, -3.314018117821115e-22, 4.438923034827999e-07, -3.0864493315434442e-30, 0.0, 0.0, 0.0, -5.075797203684521e-15, -4.527358434015466e-30, 4.438923034827999e-07, 0.0, -9.160348786652604e-17, 1.2983321518419306e-17, 0.0, 0.0, 0.0, 9.308324583296803e-07]
twist: 
  twist: 
    linear: 
      x: 1.5995030838e-09
      y: 0.0
      z: 0.0
    angular: 
      x: 0.0
      y: 0.0
      z: 9.61710127913e-05
  covariance: [9.999996000345136e-10, 0.0, 0.0, 0.0, 0.0, 0.0, 0.0, 5066309.793095678, 0.0, 0.0, 0.0, 0.0, 0.0, 0.0, 4.880180519191432e-07, -4.6131212033888205e-26, -6.538363978086214e-27, 0.0, 0.0, 0.0, -4.613121203388823e-26, 3.2804476076454425e-07, -2.588145089765913e-34, 0.0, 0.0, 0.0, -6.538363978086215e-27, -3.344547984272858e-35, 3.2804476076454425e-07, 0.0, 0.0, 0.0, 0.0, 0.0, 0.0, 9.96794297977621e-10]
---
header: 
  seq: 11499
  stamp: 
    secs: 1518209048
    nsecs:  35073757
  frame_id: "swarmone/odom"
child_frame_id: "swarmone/base_link"
pose: 
  pose: 
    position: 
      x: -0.105681496252
      y: 16.6225606406
      z: 0.0
    orientation: 
      x: 0.0
      y: 0.0
      z: 0.659384917957
      w: 0.751805513395
  covariance: [992223312929.2456, -66904981251.333885, 0.0, 0.0, 0.0, -7.932348910011634e-21, -66904981251.33345, 4518541911.6399555, 0.0, 0.0, 0.0, 1.0441983290191179e-21, 0.0, 0.0, 5.690338354525007e-07, -5.352064334376922e-26, -6.234891482653424e-19, 0.0, 0.0, 0.0, -5.352064334376921e-26, 4.5260167628226236e-07, 8.877067458753523e-31, 0.0, 0.0, 0.0, -6.234891482653423e-19, -8.87706967473645e-31, 4.5260167628226236e-07, 0.0, -7.932348910011634e-21, 1.0441983290191179e-21, 0.0, 0.0, 0.0, 9.880529173144494e-07]
twist: 
  twist: 
    linear: 
      x: 2.58019006344e-13
      y: 0.0
      z: 0.0
    angular: 
      x: 0.0
      y: 0.0
      z: 0.000120839421887
  covariance: [9.999996009107769e-10, 0.0, 0.0, 0.0, 0.0, 0.0, 0.0, 5067634.851665033, 0.0, 0.0, 0.0, 0.0, 0.0, 0.0, 4.978258113137875e-07, -6.232884716630688e-30, -8.199416620257317e-31, 0.0, 0.0, 0.0, -6.232884716630688e-30, 3.32323516964702e-07, 6.40098150376715e-35, 0.0, 0.0, 0.0, -8.199416620257319e-31, -6.400982943392962e-35, 3.32323516964702e-07, 0.0, 0.0, 0.0, 0.0, 0.0, 0.0, 9.969790129491455e-10]
---
header: 
  seq: 11500
  stamp: 
    secs: 1518209048
    nsecs: 135003805
  frame_id: "swarmone/odom"
child_frame_id: "swarmone/base_link"
pose: 
  pose: 
    position: 
      x: -0.105668474163
      y: 16.6226596327
      z: 0.0
    orientation: 
      x: 0.0
      y: 0.0
      z: 0.659384907828
      w: 0.751805522279
  covariance: [992653568323.4089, -66947924238.25883, 0.0, 0.0, 0.0, -4.749592897226441e-17, -66947924238.25839, 4522394559.554135, 0.0, 0.0, 0.0, 6.247952274190936e-18, 0.0, 0.0, 5.609128818868793e-07, -2.0942638383159274e-22, -2.5498196457892827e-15, 0.0, 0.0, 0.0, -2.0942638383159284e-22, 4.46095534250192e-07, -4.116773838516376e-30, 0.0, 0.0, 0.0, -2.549819645789283e-15, -4.124337292838813e-30, 4.460955342501919e-07, 0.0, -4.7495928972264415e-17, 6.247952274190935e-18, 0.0, 0.0, 0.0, 9.451375730756523e-07]
twist: 
  twist: 
    linear: 
      x: 8.00256483042e-10
      y: 0.0
      z: 0.0
    angular: 
      x: 0.0
      y: 0.0
      z: 0.000126297437023
  covariance: [9.999995997205812e-10, 0.0, 0.0, 0.0, 0.0, 0.0, 0.0, 5068956.200228992, 0.0, 0.0, 0.0, 0.0, 0.0, 0.0, 4.905057235471678e-07, -2.3771391405558395e-26, -3.127061192664076e-27, 0.0, 0.0, 0.0, -2.37713914055584e-26, 3.2911951654138065e-07, -3.123573619793434e-37, 0.0, 0.0, 0.0, -3.1270611926640772e-27, 1.1915362948065062e-37, 3.2911951654138065e-07, 0.0, 0.0, 0.0, 0.0, 0.0, 0.0, 9.968425624991303e-10]
---
header: 
  seq: 11501
  stamp: 
    secs: 1518209048
    nsecs: 234971285
  frame_id: "swarmone/odom"
child_frame_id: "swarmone/base_link"
pose: 
  pose: 
    position: 
      x: -0.105642414505
      y: 16.6228577347
      z: 0.0
    orientation: 
      x: 0.0
      y: 0.0
      z: 0.659384900658
      w: 0.751805528567
  covariance: [993084134332.9224, -66990901422.45021, 0.0, 0.0, 0.0, -9.170513397796836e-17, -66990901422.44978, 4526250828.740933, 0.0, 0.0, 0.0, 1.2063546543085022e-17, 0.0, 0.0, 5.553267271941861e-07, -4.0212221232427753e-22, -5.048691443535633e-15, 0.0, 0.0, 0.0, -4.0212221232427767e-22, 4.416715257979889e-07, -4.7437741050007834e-30, 0.0, 0.0, 0.0, -5.048691443535633e-15, -4.387319776551992e-30, 4.4167152579798877e-07, 0.0, -9.170513397796837e-17, 1.206354654308502e-17, 0.0, 0.0, 0.0, 9.16527343583512e-07]
twist: 
  twist: 
    linear: 
      x: 1.59999722672e-09
      y: 0.0
      z: 0.0
    angular: 
      x: 0.0
      y: 0.0
      z: 0.000130218534664
  covariance: [9.999995998704502e-10, 0.0, 0.0, 0.0, 0.0, 0.0, 0.0, 5070278.27354013, 0.0, 0.0, 0.0, 0.0, 0.0, 0.0, 4.855059595861804e-07, -4.483768983501576e-26, -5.8982750205713544e-27, 0.0, 0.0, 0.0, -4.483768983501577e-26, 3.269664962188759e-07, -1.9259908921146856e-34, 0.0, 0.0, 0.0, -5.8982750205713544e-27, -1.928744268693742e-34, 3.269664962188759e-07, 0.0, 0.0, 0.0, 0.0, 0.0, 0.0, 9.96744535010022e-10]
---
header: 
  seq: 11502
  stamp: 
    secs: 1518209048
    nsecs: 334852219
  frame_id: "swarmone/odom"
child_frame_id: "swarmone/base_link"
pose: 
  pose: 
    position: 
      x: -0.105616398874
      y: 16.6230554996
      z: 0.0
    orientation: 
      x: 0.0
      y: 0.0
      z: 0.655617654215
      w: 0.755093034984
  covariance: [993514476815.1016, -67033859830.23451, 0.0, 0.0, 0.0, -9.248872453412812e-17, -67033859830.234085, 4530105981.723487, 0.0, 0.0, 0.0, 1.2800695196237174e-17, 0.0, 0.0, 5.609128801217492e-07, -4.50361550311431e-22, -5.096187492550694e-15, 0.0, 0.0, 0.0, -4.503615503114309e-22, 4.460955284438125e-07, -5.1973932202818184e-30, 0.0, 0.0, 0.0, -5.096187492550694e-15, -5.256762837822387e-30, 4.460955284438124e-07, 0.0, -9.248872453412812e-17, 1.2800695196237172e-17, 0.0, 0.0, 0.0, 9.451375730755682e-07]
twist: 
  twist: 
    linear: 
      x: 1.60012289356e-09
      y: 0.0
      z: 0.0
    angular: 
      x: 0.0
      y: 0.0
      z: 0.000126297437007
  covariance: [9.999995995237337e-10, 0.0, 0.0, 0.0, 0.0, 0.0, 0.0, 5071599.431840301, 0.0, 0.0, 0.0, 0.0, 0.0, 0.0, 4.905057199769632e-07, -4.744306020483162e-26, -6.724252945668177e-27, 0.0, 0.0, 0.0, -4.7443060204831644e-26, 3.291194916901286e-07, -9.5652072591604e-35, 0.0, 0.0, 0.0, -6.724252945668183e-27, -1.2933499802100456e-34, 3.291194916901286e-07, 0.0, 0.0, 0.0, 0.0, 0.0, 0.0, 9.96842562499128e-10]
---
header: 
  seq: 11503
  stamp: 
    secs: 1518209048
    nsecs: 434841871
  frame_id: "swarmone/odom"
child_frame_id: "swarmone/base_link"
pose: 
  pose: 
    position: 
      x: -0.105581337457
      y: 16.6233028752
      z: 0.0
    orientation: 
      x: 0.0
      y: 0.0
      z: 0.655617646384
      w: 0.755093041784
  covariance: [993944848834.6637, -67079016327.49866, 0.0, 0.0, 0.0, -1.1448971309770545e-16, -67079016327.49822, 4534260880.159742, 0.0, 0.0, 0.0, 1.622707451315827e-17, 0.0, 0.0, 5.553267280064565e-07, -5.408818705259518e-22, -6.311378153123978e-15, 0.0, 0.0, 0.0, -5.408818705259518e-22, 4.416715281868336e-07, -9.088565972933212e-30, 0.0, 0.0, 0.0, -6.3113781531239775e-15, -6.265379238783031e-30, 4.4167152818683355e-07, 0.0, -1.1448971309770545e-16, 1.6227074513158268e-17, 0.0, 0.0, 0.0, 9.16527343583549e-07]
twist: 
  twist: 
    linear: 
      x: 1.99962423269e-09
      y: 0.0
      z: 0.0
    angular: 
      x: 0.0
      y: 0.0
      z: 0.000130218534679
  covariance: [9.999995999591794e-10, 0.0, 0.0, 0.0, 0.0, 0.0, 0.0, 5072922.258058555, 0.0, 0.0, 0.0, 0.0, 0.0, 0.0, 4.855059612170568e-07, -5.597515415001062e-26, -7.933584586179613e-27, 0.0, 0.0, 0.0, -5.597515415001062e-26, 3.269665073720171e-07, -3.3115693268512237e-35, 0.0, 0.0, 0.0, -7.933584586179616e-27, -3.902550493833787e-34, 3.269665073720171e-07, 0.0, 0.0, 0.0, 0.0, 0.0, 0.0, 9.967445350100232e-10]
---
header: 
  seq: 11504
  stamp: 
    secs: 1518209048
    nsecs: 534826040
  frame_id: "swarmone/odom"
child_frame_id: "swarmone/base_link"
pose: 
  pose: 
    position: 
      x: -0.105567309497
      y: 16.6234018505
      z: 0.0
    orientation: 
      x: 0.0
      y: 0.0
      z: 0.659384932295
      w: 0.751805500819
  covariance: [994375346663.765, -67124189336.845116, 0.0, 0.0, 0.0, -4.96370375519503e-17, -67124189336.84467, 4538417987.510819, 0.0, 0.0, 0.0, 6.683604939222018e-18, 0.0, 0.0, 5.794057166580686e-07, -2.3896790264444404e-22, -2.630603652497818e-15, 0.0, 0.0, 0.0, -2.389679026444442e-22, 4.610423756749947e-07, -2.9674577828663827e-30, 0.0, 0.0, 0.0, -2.630603652497818e-15, -2.157741569186863e-32, 4.610423756749947e-07, 0.0, -4.9637037551950294e-17, 6.683604939222018e-18, 0.0, 0.0, 0.0, 1.0452733762984493e-06]
twist: 
  twist: 
    linear: 
      x: 8.00525125789e-10
      y: 0.0
      z: 0.0
    angular: 
      x: 0.0
      y: 0.0
      z: 0.000114255909972
  covariance: [9.999995999372318e-10, 0.0, 0.0, 0.0, 0.0, 0.0, 0.0, 5074245.241713965, 0.0, 0.0, 0.0, 0.0, 0.0, 0.0, 5.072648387026359e-07, -2.8687637512677027e-26, -3.773760531057493e-27, 0.0, 0.0, 0.0, -2.868763751267703e-26, 3.3654790089787524e-07, -1.5924389025979899e-34, 0.0, 0.0, 0.0, -3.7737605310574926e-27, 1.5924383936814158e-34, 3.3654790089787524e-07, 0.0, 0.0, 0.0, 0.0, 0.0, 0.0, 9.971436008266879e-10]
---
header: 
  seq: 11505
  stamp: 
    secs: 1518209048
    nsecs: 634831667
  frame_id: "swarmone/odom"
child_frame_id: "swarmone/base_link"
pose: 
  pose: 
    position: 
      x: -0.105528193996
      y: 16.6236992013
      z: 0.0
    orientation: 
      x: 0.0
      y: 0.0
      z: 0.659384907828
      w: 0.751805522279
  covariance: [994806675201.6143, -67167256396.9854, 0.0, 0.0, 0.0, -1.4539624126431437e-16, -67167256396.984955, 4542284709.079159, 0.0, 0.0, 0.0, 1.912645235981275e-17, 0.0, 0.0, 5.60912884593286e-07, -6.285099593811237e-22, -7.652411631346217e-15, 0.0, 0.0, 0.0, -6.285099593811238e-22, 4.460955428743149e-07, -1.0818917788502826e-29, 0.0, 0.0, 0.0, -7.65241163134622e-15, -1.1088482900089486e-29, 4.4609554287431464e-07, 0.0, -1.4539624126431437e-16, 1.9126452359812752e-17, 0.0, 0.0, 0.0, 9.451375730757799e-07]
twist: 
  twist: 
    linear: 
      x: 2.39959629857e-09
      y: 0.0
      z: 0.0
    angular: 
      x: 0.0
      y: 0.0
      z: 0.00012629743706
  covariance: [9.999996000231054e-10, 0.0, 0.0, 0.0, 0.0, 0.0, 0.0, 5075568.7393670725, 0.0, 0.0, 0.0, 0.0, 0.0, 0.0, 4.905057290169758e-07, -7.134508429950662e-26, -9.385249711306272e-27, 0.0, 0.0, 0.0, -7.134508429950666e-26, 3.291195545344093e-07, -2.590481241909351e-34, 0.0, 0.0, 0.0, -9.385249711306272e-27, -1.301065787465624e-34, 3.291195545344093e-07, 0.0, 0.0, 0.0, 0.0, 0.0, 0.0, 9.968425624991342e-10]
---
header: 
  seq: 11506
  stamp: 
    secs: 1518209048
    nsecs: 734707594
  frame_id: "swarmone/odom"
child_frame_id: "swarmone/base_link"
pose: 
  pose: 
    position: 
      x: -0.10550868363
      y: 16.6238475146
      z: 0.0
    orientation: 
      x: 0.0
      y: 0.0
      z: 0.655617586892
      w: 0.755093093438
  covariance: [995237593744.8367, -67210286050.83112, 0.0, 0.0, 0.0, -6.795047218121687e-17, -67210286050.83068, 4546148640.465265, 0.0, 0.0, 0.0, 9.392612624015371e-18, 0.0, 0.0, 5.524800033919887e-07, -2.3813059496156848e-22, -3.763113685134784e-15, 0.0, 0.0, 0.0, -2.3813059496156848e-22, 4.394328704009601e-07, -1.0061256890362848e-30, 0.0, 0.0, 0.0, -3.763113685134784e-15, -2.9988173756908182e-30, 4.394328704009601e-07, 0.0, -6.795047218121687e-17, 9.392612624015371e-18, 0.0, 0.0, 0.0, 9.022222288372586e-07]
twist: 
  twist: 
    linear: 
      x: 1.20012400755e-09
      y: 0.0
      z: 0.0
    angular: 
      x: 0.0
      y: 0.0
      z: 9.9203869128e-05
  covariance: [9.999995995036655e-10, 0.0, 0.0, 0.0, 0.0, 0.0, 0.0, 5076890.750212644, 0.0, 0.0, 0.0, 0.0, 0.0, 0.0, 4.82969090247514e-07, -3.255287231626156e-26, -4.6137841170852394e-27, 0.0, 0.0, 0.0, -3.2552872316261583e-26, 3.258847399288739e-07, -3.3784196885937566e-35, 0.0, 0.0, 0.0, -4.613784117085242e-27, -6.316924175553454e-35, 3.258847399288739e-07, 0.0, 0.0, 0.0, 0.0, 0.0, 0.0, 9.966932027136714e-10]
---
header: 
  seq: 11507
  stamp: 
    secs: 1518209048
    nsecs: 834509611
  frame_id: "swarmone/odom"
child_frame_id: "swarmone/base_link"
pose: 
  pose: 
    position: 
      x: -0.10548074209
      y: 16.6240446579
      z: 0.0
    orientation: 
      x: 0.0
      y: 0.0
      z: 0.65938491814
      w: 0.751805513234
  covariance: [995667754650.7273, -67255433683.38968, 0.0, 0.0, 0.0, -1.165076999797682e-16, -67255433683.38924, 4550305332.165488, 0.0, 0.0, 0.0, 1.5628878664760004e-17, 0.0, 0.0, 6.225539609729163e-07, -4.748286886459433e-22, -5.530967514928676e-15, 0.0, 0.0, 0.0, -4.748286886459434e-22, 4.9782355161156e-07, -6.658205165092757e-30, 0.0, 0.0, 0.0, -5.5309675149286764e-15, -7.25783394730448e-30, 4.9782355161156e-07, 0.0, -1.165076999797682e-16, 1.5628878664760007e-17, 0.0, 0.0, 0.0, 1.3170705564740962e-06]
twist: 
  twist: 
    linear: 
      x: 1.5998493294e-09
      y: 0.0
      z: 0.0
    angular: 
      x: 0.0
      y: 0.0
      z: 6.80750015196e-05
  covariance: [9.999995992070609e-10, 0.0, 0.0, 0.0, 0.0, 0.0, 0.0, 5078212.012034005, 0.0, 0.0, 0.0, 0.0, 0.0, 0.0, 5.476516980525897e-07, -8.53601175224474e-26, -1.1228640744494094e-26, 0.0, 0.0, 0.0, -8.53601175224474e-26, 3.559054729948463e-07, -5.56832262088943e-35, 0.0, 0.0, 0.0, -1.1228640744494097e-26, -5.3694088486800405e-34, 3.559054729948463e-07, 0.0, 0.0, 0.0, 0.0, 0.0, 0.0, 9.977308321493567e-10]
---
header: 
  seq: 11508
  stamp: 
    secs: 1518209048
    nsecs: 935105085
  frame_id: "swarmone/odom"
child_frame_id: "swarmone/base_link"
pose: 
  pose: 
    position: 
      x: -0.105460941757
      y: 16.6241951799
      z: 0.0
    orientation: 
      x: 0.0
      y: 0.0
      z: 0.663135891713
      w: 0.748499024129
  covariance: [996102079296.9808, -67298809519.89051, 0.0, 0.0, 0.0, -1.0503111277738429e-16, -67298809519.89006, 4554201510.458926, 0.0, 0.0, 0.0, 1.3082925721560887e-17, 0.0, 0.0, 6.400458381803418e-07, -6.159635959154217e-22, -4.244988089520632e-15, 0.0, 0.0, 0.0, -6.159635959154219e-22, 5.135490238112696e-07, -4.2388832940061104e-30, 0.0, 0.0, 0.0, -4.244988089520631e-15, -5.809465173211563e-30, 5.135490238112695e-07, 0.0, -1.0503111277738429e-16, 1.3082925721560887e-17, 0.0, 0.0, 0.0, 1.4458165891903636e-06]
twist: 
  twist: 
    linear: 
      x: 1.20164914694e-09
      y: 0.0
      z: 0.0
    angular: 
      x: 0.0
      y: 0.0
      z: 0.000103389998972
  covariance: [9.99999602368466e-10, 0.0, 0.0, 0.0, 0.0, 0.0, 0.0, 5079544.010257679, 0.0, 0.0, 0.0, 0.0, 0.0, 0.0, 5.645579387539267e-07, -7.506988354006691e-26, -9.112333793968246e-27, 0.0, 0.0, 0.0, -7.506988354006694e-26, 3.646863556303378e-07, 5.19059320236214e-35, 0.0, 0.0, 0.0, -9.112333793968246e-27, -2.4481930504742283e-34, 3.646863556303378e-07, 0.0, 0.0, 0.0, 0.0, 0.0, 0.0, 9.979321989939358e-10]
---
header: 
  seq: 11509
  stamp: 
    secs: 1518209049
    nsecs:  35047770
  frame_id: "swarmone/odom"
child_frame_id: "swarmone/base_link"
pose: 
  pose: 
    position: 
      x: -0.105388811237
      y: 16.6247893918
      z: 0.0
    orientation: 
      x: 0.0
      y: 0.0
      z: 0.659385460524
      w: 0.751805037526
  covariance: [996534281616.5874, -67339782318.00123, 0.0, 0.0, 0.0, -7.666268807460835e-16, -67339782318.00078, 4557780122.3960495, 0.0, 0.0, 0.0, 9.939125595927428e-17, 0.0, 0.0, 7.768076370796406e-07, -4.402537020456036e-21, -1.6088179573377522e-14, 0.0, 0.0, 0.0, -4.402537020456036e-21, 6.559862170166366e-07, -3.1687466251081113e-28, 0.0, 0.0, 0.0, -1.6088179573377522e-14, -3.1781407906161704e-28, 6.559862170166353e-07, 0.0, -7.666268807460834e-16, 9.939125595927428e-17, 0.0, 0.0, 0.0, 3.148125243976564e-06]
twist: 
  twist: 
    linear: 
      x: 4.79722829863e-09
      y: 0.0
      z: 0.0
    angular: 
      x: 0.0
      y: 0.0
      z: 3.80574607271e-05
  covariance: [9.99999599771312e-10, 0.0, 0.0, 0.0, 0.0, 0.0, 0.0, 5080867.595437146, 0.0, 0.0, 0.0, 0.0, 0.0, 0.0, 7.085728281435533e-07, -7.642857351546511e-25, -1.0054299005419172e-25, 0.0, 0.0, 0.0, -7.64285735154651e-25, 4.617124262280395e-07, -1.2946909866861234e-32, 0.0, 0.0, 0.0, -1.0054299005419176e-25, -1.3658216921120747e-32, 4.617124262280395e-07, 0.0, 0.0, 0.0, 0.0, 0.0, 0.0, 9.990485630068127e-10]
---
header: 
  seq: 11510
  stamp: 
    secs: 1518209049
    nsecs: 134942293
  frame_id: "swarmone/odom"
child_frame_id: "swarmone/base_link"
pose: 
  pose: 
    position: 
      x: -0.10536930226
      y: 16.624937698
      z: 0.0
    orientation: 
      x: 0.0
      y: 0.0
      z: 0.659384911412
      w: 0.751805519135
