header: 
  seq: 10096
  stamp: 
    secs: 1518208907
    nsecs: 734891176
  frame_id: "swarmone/odom"
child_frame_id: "swarmone/base_link"
pose: 
  pose: 
    position: 
      x: 0.0676858637552
      y: 14.8343734932
      z: 0.0
    orientation: 
      x: 0.0
      y: 0.0
      z: 0.69253808931
      w: 0.721381310303
  covariance: [519067168249.1187, -28463860686.2171, 0.0, 0.0, 0.0, 2.033922926011303e-15, -28463860686.216904, 1562240110.1143432, 0.0, 0.0, 0.0, -9.142073457820654e-17, 0.0, 0.0, 8.299996659071865e-07, 3.547764257637729e-21, 2.8682052420450765e-14, 0.0, 0.0, 0.0, 3.547764257637729e-21, 7.228236730373585e-07, -5.993068082230265e-28, 0.0, 0.0, 0.0, 2.868205242045078e-14, -5.978341979108456e-28, 7.228236730373536e-07, 0.0, 2.033922926011303e-15, -9.142073457820654e-17, 0.0, 0.0, 0.0, 4.550026489097569e-06]
twist: 
  twist: 
    linear: 
      x: -9.5899456154e-09
      y: 0.0
      z: 0.0
    angular: 
      x: 0.0
      y: 0.0
      z: 2.63445099007e-05
  covariance: [9.99999601861671e-10, 0.0, 0.0, 0.0, 0.0, 0.0, 0.0, 3429776.4656510735, 0.0, 0.0, 0.0, 0.0, 0.0, 0.0, 7.709568733361206e-07, 2.0029579183388565e-24, 8.172486589088842e-26, 0.0, 0.0, 0.0, 2.002957918338856e-24, 5.218499764033248e-07, -2.907934271688069e-32, 0.0, 0.0, 0.0, 8.172486589088841e-26, -2.9184052587474864e-32, 5.218499764033248e-07, 0.0, 0.0, 0.0, 0.0, 0.0, 0.0, 9.99341386925398e-10]
---
header: 
  seq: 10097
  stamp: 
    secs: 1518208907
    nsecs: 834393263
  frame_id: "swarmone/odom"
child_frame_id: "swarmone/base_link"
pose: 
  pose: 
    position: 
      x: 0.0676919009486
      y: 14.8345213502
      z: 0.0
    orientation: 
      x: 0.0
      y: 0.0
      z: 0.685289769985
      w: 0.728270506854
  covariance: [519324087986.8869, -28476130051.992428, 0.0, 0.0, 0.0, -3.373321209359859e-16, -28476130051.992233, 1562813722.630041, 0.0, 0.0, 0.0, 1.826928179085242e-17, 0.0, 0.0, 8.295852334552402e-07, -6.51459978318557e-22, -3.546646519759301e-15, 0.0, 0.0, 0.0, -6.514599783185568e-22, 7.22273045966098e-07, -1.2607222928506034e-29, 0.0, 0.0, 0.0, -3.5466465197593008e-15, -1.4508583767955681e-29, 7.222730459660978e-07, 0.0, -3.3733212093598594e-16, 1.8269281790852416e-17, 0.0, 0.0, 0.0, 4.535721374349927e-06]
twist: 
  twist: 
    linear: 
      x: 1.19511058471e-09
      y: 0.0
      z: 0.0
    angular: 
      x: 0.0
      y: 0.0
      z: 2.64275056398e-05
  covariance: [9.999995979999155e-10, 0.0, 0.0, 0.0, 0.0, 0.0, 0.0, 3430790.685193658, 0.0, 0.0, 0.0, 0.0, 0.0, 0.0, 7.70455459331509e-07, -2.466764343951804e-25, -1.5017893354945752e-26, 0.0, 0.0, 0.0, -2.466764343951803e-25, 5.213040228984347e-07, -4.6524624916770905e-34, 0.0, 0.0, 0.0, -1.5017893354945752e-26, -7.707110497970521e-34, 5.213040228984347e-07, 0.0, 0.0, 0.0, 0.0, 0.0, 0.0, 9.993393120269753e-10]
---
header: 
  seq: 10098
  stamp: 
    secs: 1518208907
    nsecs: 934813261
  frame_id: "swarmone/odom"
child_frame_id: "swarmone/base_link"
pose: 
  pose: 
    position: 
      x: 0.0676765978293
      y: 14.8342699054
      z: 0.0
    orientation: 
      x: 0.0
      y: 0.0
      z: 0.688921671904
      w: 0.724835795184
  covariance: [519583217395.2727, -28491100707.58562, 0.0, 0.0, 0.0, 2.6811984993802096e-16, -28491100707.585426, 1563676140.3700655, 0.0, 0.0, 0.0, -1.5529164707230162e-17, 0.0, 0.0, 5.609128994743303e-07, 2.0461587941441874e-22, 6.401143368415127e-15, 0.0, 0.0, 0.0, 2.046158794144187e-22, 4.460955916725891e-07, -2.7226836513568877e-30, 0.0, 0.0, 0.0, 6.401143368415125e-15, -3.2432107619722186e-30, 4.460955916725891e-07, 0.0, 2.68119849938021e-16, -1.552916470723016e-17, 0.0, 0.0, 0.0, 9.451375730765636e-07]
twist: 
  twist: 
    linear: 
      x: -1.9988969464e-09
      y: 0.0
      z: 0.0
    angular: 
      x: 0.0
      y: 0.0
      z: 0.000126297437181
  covariance: [9.999996016744933e-10, 0.0, 0.0, 0.0, 0.0, 0.0, 0.0, 3431814.463659418, 0.0, 0.0, 0.0, 0.0, 0.0, 0.0, 4.905057592405939e-07, 6.033565276550618e-26, 3.069640591409569e-27, 0.0, 0.0, 0.0, 6.033565276550617e-26, 3.291197698192551e-07, -8.279695694196131e-35, 0.0, 0.0, 0.0, 3.0696405914095683e-27, -4.2995484070799785e-35, 3.291197698192551e-07, 0.0, 0.0, 0.0, 0.0, 0.0, 0.0, 9.968425624991547e-10]
---
header: 
  seq: 10099
  stamp: 
    secs: 1518208908
    nsecs:  34746885
  frame_id: "swarmone/odom"
child_frame_id: "swarmone/base_link"
pose: 
  pose: 
    position: 
      x: 0.0676715262859
      y: 14.8341701555
      z: 0.0
    orientation: 
      x: 0.0
      y: 0.0
      z: 0.681639025678
      w: 0.731688621391
  covariance: [519841338344.97095, -28504719476.320126, 0.0, 0.0, 0.0, 5.186495537380223e-17, -28504719476.319927, 1564393733.1579556, 0.0, 0.0, 0.0, -3.3624842258187578e-18, 0.0, 0.0, 5.868628198182755e-07, 1.3635216756875244e-22, 2.65874908260777e-15, 0.0, 0.0, 0.0, 1.363521675687524e-22, 4.672040424019599e-07, -1.3559586720752487e-30, 0.0, 0.0, 0.0, 2.6587490826077697e-15, -3.989857916125325e-31, 4.672040424019599e-07, 0.0, 5.1864955373802234e-17, -3.362484225818758e-18, 0.0, 0.0, 0.0, 1.0881887205366711e-06]
twist: 
  twist: 
    linear: 
      x: -8.00816256624e-10
      y: 0.0
      z: 0.0
    angular: 
      x: 0.0
      y: 0.0
      z: 0.000109770562055
  covariance: [9.999995997348945e-10, 0.0, 0.0, 0.0, 0.0, 0.0, 0.0, 3432833.4857325596, 0.0, 0.0, 0.0, 0.0, 0.0, 0.0, 5.141144925658592e-07, 3.102986124555023e-26, 2.200540246578588e-27, 0.0, 0.0, 0.0, 3.102986124555023e-26, 3.39681338497796e-07, 1.7305608128204308e-35, 0.0, 0.0, 0.0, 2.200540246578588e-27, -1.7463011736142282e-35, 3.39681338497796e-07, 0.0, 0.0, 0.0, 0.0, 0.0, 0.0, 9.972557345796705e-10]
---
header: 
  seq: 10100
  stamp: 
    secs: 1518208908
    nsecs: 135171890
  frame_id: "swarmone/odom"
child_frame_id: "swarmone/base_link"
pose: 
  pose: 
    position: 
      x: 0.06764300275
      y: 14.8337679187
      z: 0.0
    orientation: 
      x: 0.0
      y: 0.0
      z: 0.685288906944
      w: 0.72827131896
  covariance: [520100516018.09045, -28520994975.838425, 0.0, 0.0, 0.0, 2.045449437017005e-16, -28520994975.83823, 1565398709.6641037, 0.0, 0.0, 0.0, -1.3180499474581647e-17, 0.0, 0.0, 5.69033842198673e-07, 4.1563430042567776e-22, 1.0390375873435643e-14, 0.0, 0.0, 0.0, 4.156343004256779e-22, 4.5260169895759175e-07, -1.0335515828158321e-29, 0.0, 0.0, 0.0, 1.0390375873435643e-14, -9.705803334112213e-30, 4.5260169895759143e-07, 0.0, 2.045449437017005e-16, -1.3180499474581647e-17, 0.0, 0.0, 0.0, 9.8805291731478e-07]
twist: 
  twist: 
    linear: 
      x: -3.19957878074e-09
      y: 0.0
      z: 0.0
    angular: 
      x: 0.0
      y: 0.0
      z: 0.000120839422025
  covariance: [9.99999601693434e-10, 0.0, 0.0, 0.0, 0.0, 0.0, 0.0, 3433857.7216013805, 0.0, 0.0, 0.0, 0.0, 0.0, 0.0, 4.978258250637662e-07, 1.0455329597591358e-25, 6.36442269145015e-27, 0.0, 0.0, 0.0, 1.045532959759136e-25, 3.323236143519372e-07, -2.5816728052179425e-34, 0.0, 0.0, 0.0, 6.3644226914501504e-27, -1.7770692668740238e-34, 3.323236143519372e-07, 0.0, 0.0, 0.0, 0.0, 0.0, 0.0, 9.969790129491544e-10]
---
header: 
  seq: 10101
  stamp: 
    secs: 1518208908
    nsecs: 235055208
  frame_id: "swarmone/odom"
child_frame_id: "swarmone/base_link"
pose: 
  pose: 
    position: 
      x: 0.0676278598015
      y: 14.8335191328
      z: 0.0
    orientation: 
      x: 0.0
      y: 0.0
      z: 0.692537227111
      w: 0.721382138027
  covariance: [520358568162.8367, -28535904106.921776, 0.0, 0.0, 0.0, 1.2069292533176708e-16, -28535904106.92158, 1566257627.6323957, 0.0, 0.0, 0.0, -5.749316439050249e-18, 0.0, 0.0, 5.636536552167878e-07, 1.6683838722919226e-22, 6.3973487680646125e-15, 0.0, 0.0, 0.0, 1.6683838722919226e-22, 4.482813492722108e-07, -3.0111738115487253e-30, 0.0, 0.0, 0.0, 6.397348768064614e-15, -1.8809336550109582e-30, 4.4828134927221067e-07, 0.0, 1.2069292533176708e-16, -5.749316439050249e-18, 0.0, 0.0, 0.0, 9.59442687821675e-07]
twist: 
  twist: 
    linear: 
      x: -1.99856690745e-09
      y: 0.0
      z: 0.0
    angular: 
      x: 0.0
      y: 0.0
      z: 0.000124424127824
  covariance: [9.99999599533312e-10, 0.0, 0.0, 0.0, 0.0, 0.0, 0.0, 3434876.634863049, 0.0, 0.0, 0.0, 0.0, 0.0, 0.0, 4.929693395890961e-07, 6.154010425071671e-26, 2.5121387579145e-27, 0.0, 0.0, 0.0, 6.154010425071672e-26, 3.301908552863472e-07, -1.6203706988307834e-35, 0.0, 0.0, 0.0, 2.5121387579145e-27, -8.048060808234209e-35, 3.301908552863472e-07, 0.0, 0.0, 0.0, 0.0, 0.0, 0.0, 9.968893952517495e-10]
---
header: 
  seq: 10102
  stamp: 
    secs: 1518208908
    nsecs: 334739923
  frame_id: "swarmone/odom"
child_frame_id: "swarmone/base_link"
pose: 
  pose: 
    position: 
      x: 0.0676400055937
      y: 14.83381669
      z: 0.0
    orientation: 
      x: 0.0
      y: 0.0
      z: 0.69253763765
      w: 0.721381743904
  covariance: [520616471320.5843, -28548219124.813347, 0.0, 0.0, 0.0, -3.1262328402498315e-16, -28548219124.81316, 1566833282.8511243, 0.0, 0.0, 0.0, 1.2760931525947284e-17, 0.0, 0.0, 7.496285798906422e-07, -6.008645149589918e-22, -8.304919402094857e-15, 0.0, 0.0, 0.0, -6.00864514958992e-22, 6.245785461136434e-07, -2.0046022461052497e-29, 0.0, 0.0, 0.0, -8.304919402094859e-15, -1.9815887100432091e-29, 6.24578546113643e-07, 0.0, -3.126232840249831e-16, 1.2760931525947286e-17, 0.0, 0.0, 0.0, 2.6617513426081607e-06]
twist: 
  twist: 
    linear: 
      x: 2.39877916749e-09
      y: 0.0
      z: 0.0
    angular: 
      x: 0.0
      y: 0.0
      z: 4.49985486512e-05
  covariance: [9.999995987354513e-10, 0.0, 0.0, 0.0, 0.0, 0.0, 0.0, 3435893.723110039, 0.0, 0.0, 0.0, 0.0, 0.0, 0.0, 6.781605914972256e-07, -3.2818409780116377e-25, -1.3396114521121803e-26, 0.0, 0.0, 0.0, -3.2818409780116387e-25, 4.371525849663662e-07, -8.431862201430344e-34, 0.0, 0.0, 0.0, -1.3396114521121797e-26, -8.193486355551006e-34, 4.371525849663662e-07, 0.0, 0.0, 0.0, 0.0, 0.0, 0.0, 9.988750357209633e-10]
---
header: 
  seq: 10103
  stamp: 
    secs: 1518208908
    nsecs: 435178041
  frame_id: "swarmone/odom"
child_frame_id: "swarmone/base_link"
pose: 
  pose: 
    position: 
      x: 0.0676420579396
      y: 14.8338669605
      z: 0.0
    orientation: 
      x: 0.0
      y: 0.0
      z: 0.685288894866
      w: 0.728271330325
  covariance: [520876426916.179, -28560631916.374157, 0.0, 0.0, 0.0, -3.7741816914234605e-17, -28560631916.37397, 1567413507.3748498, 0.0, 0.0, 0.0, 1.851252318069195e-18, 0.0, 0.0, 5.581374770196956e-07, -4.789467088485281e-23, -1.2714091246534012e-15, 0.0, 0.0, 0.0, -4.789467088485281e-23, 4.4389238581910533e-07, -2.3479718237337797e-31, 0.0, 0.0, 0.0, -1.2714091246534012e-15, -4.085746370209109e-32, 4.4389238581910533e-07, 0.0, -3.7741816914234605e-17, 1.851252318069195e-18, 0.0, 0.0, 0.0, 9.308324583304412e-07]
twist: 
  twist: 
    linear: 
      x: 3.98808692667e-10
      y: 0.0
      z: 0.0
    angular: 
      x: 0.0
      y: 0.0
      z: 0.000128228017122
  covariance: [9.999996017458556e-10, 0.0, 0.0, 0.0, 0.0, 0.0, 0.0, 3436918.7014032565, 0.0, 0.0, 0.0, 0.0, 0.0, 0.0, 4.880180834095968e-07, -1.1670246511508633e-26, -7.099675298187184e-28, 0.0, 0.0, 0.0, -1.1670246511508632e-26, 3.280449806061071e-07, 6.481442974218499e-35, 0.0, 0.0, 0.0, -7.099675298187185e-28, -6.481451232299e-35, 3.280449806061071e-07, 0.0, 0.0, 0.0, 0.0, 0.0, 0.0, 9.96794297977643e-10]
---
header: 
  seq: 10104
  stamp: 
    secs: 1518208908
    nsecs: 534642458
  frame_id: "swarmone/odom"
child_frame_id: "swarmone/base_link"
pose: 
  pose: 
    position: 
      x: 0.0676300418346
      y: 14.8336695517
      z: 0.0
    orientation: 
      x: 0.0
      y: 0.0
      z: 0.688921682267
      w: 0.724835785335
  covariance: [521133702830.2979, -28575495647.235058, 0.0, 0.0, 0.0, 9.614402510542991e-17, -28575495647.234882, 1568269771.8453345, 0.0, 0.0, 0.0, -5.1968583887482915e-18, 0.0, 0.0, 5.690338091045771e-07, 1.7200364242871587e-22, 5.145061320145408e-15, 0.0, 0.0, 0.0, 1.7200364242871584e-22, 4.526015922388438e-07, -2.0686764311985816e-30, 0.0, 0.0, 0.0, 5.145061320145409e-15, -2.0382103559831858e-30, 4.5260159223884367e-07, 0.0, 9.614402510542991e-17, -5.1968583887482915e-18, 0.0, 0.0, 0.0, 9.880529173131728e-07]
twist: 
  twist: 
    linear: 
      x: -1.59960895224e-09
      y: 0.0
      z: 0.0
    angular: 
      x: 0.0
      y: 0.0
      z: 0.000120839421475
  covariance: [9.99999597846703e-10, 0.0, 0.0, 0.0, 0.0, 0.0, 0.0, 3437933.9438720774, 0.0, 0.0, 0.0, 0.0, 0.0, 0.0, 4.978257576587229e-07, 5.179520949121742e-26, 2.63328239058377e-27, 0.0, 0.0, 0.0, 5.179520949121743e-26, 3.323231379136839e-07, -2.4532378895403004e-35, 0.0, 0.0, 0.0, 2.6332823905837706e-27, -1.3655902260906008e-34, 3.323231379136839e-07, 0.0, 0.0, 0.0, 0.0, 0.0, 0.0, 9.969790129491104e-10]
---
header: 
  seq: 10105
  stamp: 
    secs: 1518208908
    nsecs: 634305477
  frame_id: "swarmone/odom"
child_frame_id: "swarmone/base_link"
pose: 
  pose: 
    position: 
      x: 0.0676275196584
      y: 14.8336199427
      z: 0.0
    orientation: 
      x: 0.0
      y: 0.0
      z: 0.685288894267
      w: 0.728271330889
  covariance: [521391738361.83417, -28589109494.376637, 0.0, 0.0, 0.0, 2.361947627646472e-17, -28589109494.376465, 1568987082.8994355, 0.0, 0.0, 0.0, -1.355558788933587e-18, 0.0, 0.0, 5.58137448913889e-07, 4.769529798836136e-23, 1.2657902533899293e-15, 0.0, 0.0, 0.0, 4.769529798836135e-23, 4.438922964924983e-07, 4.070927394584752e-31, 0.0, 0.0, 0.0, 1.2657902533899291e-15, -6.80339978121585e-31, 4.438922964924983e-07, 0.0, 2.361947627646472e-17, -1.355558788933587e-18, 0.0, 0.0, 0.0, 9.308324583291046e-07]
twist: 
  twist: 
    linear: 
      x: -4.00387106499e-10
      y: 0.0
      z: 0.0
    angular: 
      x: 0.0
      y: 0.0
      z: 0.000128228016749
  covariance: [9.999995986481062e-10, 0.0, 0.0, 0.0, 0.0, 0.0, 0.0, 3438951.4140072353, 0.0, 0.0, 0.0, 0.0, 0.0, 0.0, 4.880180267069772e-07, 1.1598282261973772e-26, 7.0598293241781925e-28, 0.0, 0.0, 0.0, 1.1598282261973766e-26, 3.280445873202183e-07, 1.046575469195584e-37, 0.0, 0.0, 0.0, 7.0598293241781925e-28, -1.0466567517920029e-37, 3.280445873202183e-07, 0.0, 0.0, 0.0, 0.0, 0.0, 0.0, 9.967942979776031e-10]
---
header: 
  seq: 10106
  stamp: 
    secs: 1518208908
    nsecs: 734789610
  frame_id: "swarmone/odom"
child_frame_id: "swarmone/base_link"
pose: 
  pose: 
    position: 
      x: 0.0676152579387
      y: 14.8334184937
      z: 0.0
    orientation: 
      x: 0.0
      y: 0.0
      z: 0.692537227119
      w: 0.72138213802
  covariance: [521651857883.50397, -28604137378.86733, 0.0, 0.0, 0.0, 9.523119397562984e-17, -28604137378.867157, 1569852797.9003205, 0.0, 0.0, 0.0, -4.511061628592534e-18, 0.0, 0.0, 5.636536763174215e-07, 1.3429479288050205e-22, 5.149324004678719e-15, 0.0, 0.0, 0.0, 1.3429479288050205e-22, 4.482814167132027e-07, -1.399319834166877e-30, 0.0, 0.0, 0.0, 5.149324004678719e-15, -1.770268642902248e-30, 4.482814167132025e-07, 0.0, 9.523119397562983e-17, -4.511061628592534e-18, 0.0, 0.0, 0.0, 9.59442687822671e-07]
twist: 
  twist: 
    linear: 
      x: -1.59911701242e-09
      y: 0.0
      z: 0.0
    angular: 
      x: 0.0
      y: 0.0
      z: 0.000124424128205
  covariance: [9.99999601927767e-10, 0.0, 0.0, 0.0, 0.0, 0.0, 0.0, 3439977.4701942625, 0.0, 0.0, 0.0, 0.0, 0.0, 0.0, 4.929693823155818e-07, 4.9532405381364795e-26, 2.021932612289857e-27, 0.0, 0.0, 0.0, 4.9532405381364784e-26, 3.30191153181572e-07, 4.054335764769539e-35, 0.0, 0.0, 0.0, 2.0219326122898564e-27, -6.464953228184737e-35, 3.30191153181572e-07, 0.0, 0.0, 0.0, 0.0, 0.0, 0.0, 9.968893952517782e-10]
---
header: 
  seq: 10107
  stamp: 
    secs: 1518208908
    nsecs: 835274220
  frame_id: "swarmone/odom"
child_frame_id: "swarmone/base_link"
pose: 
  pose: 
    position: 
      x: 0.0676214327396
      y: 14.8335697688
      z: 0.0
    orientation: 
      x: 0.0
      y: 0.0
      z: 0.692537224875
      w: 0.721382140174
  covariance: [521912347073.1498, -28616575181.442772, 0.0, 0.0, 0.0, -7.146310866103938e-17, -28616575181.4426, 1570434168.169198, 0.0, 0.0, 0.0, 2.9170354519906587e-18, 0.0, 0.0, 5.609129016019043e-07, -9.874916018188528e-23, -3.844704691682036e-15, 0.0, 0.0, 0.0, -9.874916018188525e-23, 4.460955979700261e-07, -6.668242682876961e-31, 0.0, 0.0, 0.0, -3.844704691682036e-15, -1.0624821906954465e-30, 4.4609559797002607e-07, 0.0, -7.146310866103937e-17, 2.917035451990659e-18, 0.0, 0.0, 0.0, 9.45137573076572e-07]
twist: 
  twist: 
    linear: 
      x: 1.19986823298e-09
      y: 0.0
      z: 0.0
    angular: 
      x: 0.0
      y: 0.0
      z: 0.000126297437375
  covariance: [9.999996019296638e-10, 0.0, 0.0, 0.0, 0.0, 0.0, 0.0, 3441003.7353234743, 0.0, 0.0, 0.0, 0.0, 0.0, 0.0, 4.905057633570962e-07, -3.612121283265476e-26, -1.4744297672260253e-27, 0.0, 0.0, 0.0, -3.6121212832654743e-26, 3.291197923419785e-07, -3.24388039532413e-35, 0.0, 0.0, 0.0, -1.4744297672260242e-27, 8.100755753060751e-36, 3.291197923419785e-07, 0.0, 0.0, 0.0, 0.0, 0.0, 0.0, 9.96842562499158e-10]
---
header: 
  seq: 10108
  stamp: 
    secs: 1518208908
    nsecs: 934692144
  frame_id: "swarmone/odom"
child_frame_id: "swarmone/base_link"
pose: 
  pose: 
    position: 
      x: 0.0676254616191
      y: 14.8336684715
      z: 0.0
    orientation: 
      x: 0.0
      y: 0.0
      z: 0.692537221436
      w: 0.721382143476
  covariance: [522170173326.7699, -28628885355.258514, 0.0, 0.0, 0.0, -4.6417730881230206e-17, -28628885355.258343, 1571009556.0879695, 0.0, 0.0, 0.0, 1.8947143587626408e-18, 0.0, 0.0, 5.581374399651548e-07, -6.381133009596973e-23, -2.5226004719165588e-15, 0.0, 0.0, 0.0, -6.381133009596974e-23, 4.4389226827033354e-07, -3.666264333318827e-31, 0.0, 0.0, 0.0, -2.5226004719165588e-15, -3.619524866624804e-31, 4.4389226827033354e-07, 0.0, -4.6417730881230206e-17, 1.8947143587626408e-18, 0.0, 0.0, 0.0, 9.308324583286912e-07]
twist: 
  twist: 
    linear: 
      x: 7.99621569479e-10
      y: 0.0
      z: 0.0
    angular: 
      x: 0.0
      y: 0.0
      z: 0.000128228016601
  covariance: [9.999995976586447e-10, 0.0, 0.0, 0.0, 0.0, 0.0, 0.0, 3442019.307089321, 0.0, 0.0, 0.0, 0.0, 0.0, 0.0, 4.880180086841846e-07, -2.3136987219131536e-26, -9.444274751047467e-28, 0.0, 0.0, 0.0, -2.3136987219131533e-26, 3.280444631846906e-07, -4.794763490053836e-35, 0.0, 0.0, 0.0, -9.444274751047462e-28, 4.7947466469117877e-35, 3.280444631846906e-07, 0.0, 0.0, 0.0, 0.0, 0.0, 0.0, 9.967942979775905e-10]
---
header: 
  seq: 10109
  stamp: 
    secs: 1518208909
    nsecs:  35156488
  frame_id: "swarmone/odom"
child_frame_id: "swarmone/base_link"
pose: 
  pose: 
    position: 
      x: 0.0676234023121
      y: 14.8336180248
      z: 0.0
    orientation: 
      x: 0.0
      y: 0.0
      z: 0.685288894866
      w: 0.728271330325
  covariance: [522430816637.3448, -28641329951.239895, 0.0, 0.0, 0.0, 2.3341221388297713e-17, -28641329951.239723, 1571591235.3751645, 0.0, 0.0, 0.0, -1.2647185070675434e-18, 0.0, 0.0, 5.581374778439037e-07, 4.8095599037919064e-23, 1.276506382203576e-15, 0.0, 0.0, 0.0, 4.809559903791909e-23, 4.4389238810766574e-07, -3.1378313086606975e-31, 0.0, 0.0, 0.0, 1.2765063822035764e-15, 3.587049688868645e-32, 4.4389238810766574e-07, 0.0, 2.3341221388297716e-17, -1.2647185070675432e-18, 0.0, 0.0, 0.0, 9.308324583304368e-07]
twist: 
  twist: 
    linear: 
      x: -4.00616869973e-10
      y: 0.0
      z: 0.0
    angular: 
      x: 0.0
      y: 0.0
      z: 0.000128228017271
  covariance: [9.99999601849358e-10, 0.0, 0.0, 0.0, 0.0, 0.0, 0.0, 3443045.7711818838, 0.0, 0.0, 0.0, 0.0, 0.0, 0.0, 4.88018084956306e-07, 1.169589881857837e-26, 7.119152949963941e-28, 0.0, 0.0, 0.0, 1.169589881857837e-26, 3.280449882122919e-07, -3.311770268977443e-35, 0.0, 0.0, 0.0, 7.119152949963943e-28, 3.311770268976601e-35, 3.280449882122919e-07, 0.0, 0.0, 0.0, 0.0, 0.0, 0.0, 9.967942979776443e-10]
---
header: 
  seq: 10110
  stamp: 
    secs: 1518208909
    nsecs: 134686232
  frame_id: "swarmone/odom"
child_frame_id: "swarmone/base_link"
pose: 
  pose: 
    position: 
      x: 0.0676053536582
      y: 14.8333215092
      z: 0.0
    orientation: 
      x: 0.0
      y: 0.0
      z: 0.688921678811
      w: 0.724835788619
  covariance: [522688875213.33295, -28656237730.38104, 0.0, 0.0, 0.0, 1.4289538422128072e-16, -28656237730.380867, 1572449962.3648126, 0.0, 0.0, 0.0, -7.728451342808213e-18, 0.0, 0.0, 5.663604143255287e-07, 2.533132464094889e-22, 7.688533391691216e-15, 0.0, 0.0, 0.0, 2.533132464094889e-22, 4.504499451911005e-07, -4.6295809170398915e-30, 0.0, 0.0, 0.0, 7.688533391691217e-15, -4.3530888118379784e-30, 4.504499451911004e-07, 0.0, 1.4289538422128072e-16, -7.728451342808214e-18, 0.0, 0.0, 0.0, 9.737478025671818e-07]
twist: 
  twist: 
    linear: 
      x: -2.3996112623e-09
      y: 0.0
      z: 0.0
    angular: 
      x: 0.0
      y: 0.0
      z: 0.000122605578015
  covariance: [9.99999598110658e-10, 0.0, 0.0, 0.0, 0.0, 0.0, 0.0, 3444062.887486086, 0.0, 0.0, 0.0, 0.0, 0.0, 0.0, 4.954092232129529e-07, 7.56573105219058e-26, 3.846456020326586e-27, 0.0, 0.0, 0.0, 7.56573105219058e-26, 3.312586242886137e-07, -6.47826052462608e-35, 0.0, 0.0, 0.0, 3.8464560203265856e-27, -1.1308458298362698e-34, 3.312586242886137e-07, 0.0, 0.0, 0.0, 0.0, 0.0, 0.0, 9.969348590145091e-10]
---
header: 
  seq: 10111
  stamp: 
    secs: 1518208909
    nsecs: 235156059
  frame_id: "swarmone/odom"
child_frame_id: "swarmone/base_link"
pose: 
  pose: 
    position: 
      x: 0.0675976654718
      y: 14.8331702891
      z: 0.0
    orientation: 
      x: 0.0
      y: 0.0
      z: 0.685288894262
      w: 0.728271330893
  covariance: [522949620100.8478, -28669993337.145664, 0.0, 0.0, 0.0, 7.106145684190801e-17, -28669993337.145496, 1573174684.6546428, 0.0, 0.0, 0.0, -4.080637725478187e-18, 0.0, 0.0, 5.581374780452867e-07, 1.4420819648167383e-22, 3.8271389283136216e-15, 0.0, 0.0, 0.0, 1.4420819648167383e-22, 4.4389238875472046e-07, -3.041988258000897e-31, 0.0, 0.0, 0.0, 3.827138928313622e-15, 2.4570083242376134e-31, 4.4389238875472046e-07, 0.0, 7.106145684190801e-17, -4.080637725478187e-18, 0.0, 0.0, 0.0, 9.308324583304471e-07]
twist: 
  twist: 
    linear: 
      x: -1.20076021565e-09
      y: 0.0
      z: 0.0
    angular: 
      x: 0.0
      y: 0.0
      z: 0.000128228017266
  covariance: [9.999996018711003e-10, 0.0, 0.0, 0.0, 0.0, 0.0, 0.0, 3445089.8138594385, 0.0, 0.0, 0.0, 0.0, 0.0, 0.0, 4.880180853652463e-07, 3.5067181233236306e-26, 2.1345298000155136e-27, 0.0, 0.0, 0.0, 3.50671812332363e-26, 3.2804499109470735e-07, 6.459068272408698e-35, 0.0, 0.0, 0.0, 2.1345298000155132e-27, 3.1376694310815306e-35, 3.2804499109470735e-07, 0.0, 0.0, 0.0, 0.0, 0.0, 0.0, 9.967942979776445e-10]
---
header: 
  seq: 10112
  stamp: 
    secs: 1518208909
    nsecs: 335176468
  frame_id: "swarmone/odom"
child_frame_id: "swarmone/base_link"
pose: 
  pose: 
    position: 
      x: 0.0675703282208
      y: 14.8327211627
      z: 0.0
    orientation: 
      x: 0.0
      y: 0.0
      z: 0.692537164516
      w: 0.72138219812
  covariance: [523209156900.35297, -28684986386.791595, 0.0, 0.0, 0.0, 2.0901264627344934e-16, -28684986386.791428, 1574038317.8052473, 0.0, 0.0, 0.0, -9.928808685373032e-18, 0.0, 0.0, 5.58137461870212e-07, 2.1680183646635343e-22, 1.1421288661622158e-14, 0.0, 0.0, 0.0, 2.1680183646635343e-22, 4.438923057246996e-07, -5.5422022988546206e-30, 0.0, 0.0, 0.0, 1.1421288661622157e-14, -5.6656570259962946e-30, 4.438923057246994e-07, 0.0, 2.0901264627344934e-16, -9.928808685373032e-18, 0.0, 0.0, 0.0, 9.308324583297005e-07]
twist: 
  twist: 
    linear: 
      x: -3.59862520338e-09
      y: 0.0
      z: 0.0
    angular: 
      x: 0.0
      y: 0.0
      z: 9.61710127938e-05
  covariance: [9.999996000821874e-10, 0.0, 0.0, 0.0, 0.0, 0.0, 0.0, 3446112.3493594937, 0.0, 0.0, 0.0, 0.0, 0.0, 0.0, 4.880180527913975e-07, 1.0475341217451326e-25, 4.276192342144514e-27, 0.0, 0.0, 0.0, 1.0475341217451321e-25, 3.280447667914562e-07, -1.3013593169135244e-34, 0.0, 0.0, 0.0, 4.276192342144514e-27, -1.6273724353101487e-34, 3.280447667914562e-07, 0.0, 0.0, 0.0, 0.0, 0.0, 0.0, 9.967942979776215e-10]
---
header: 
  seq: 10113
  stamp: 
    secs: 1518208909
    nsecs: 434790134
  frame_id: "swarmone/odom"
child_frame_id: "swarmone/base_link"
pose: 
  pose: 
    position: 
      x: 0.0675743711492
      y: 14.8328202015
      z: 0.0
    orientation: 
      x: 0.0
      y: 0.0
      z: 0.685288936548
      w: 0.728271291103
  covariance: [523468003585.3932, -28697345089.094944, 0.0, 0.0, 0.0, -5.189819953913859e-17, -28697345089.09478, 1574615981.08714, 0.0, 0.0, 0.0, 2.849584239427297e-18, 0.0, 0.0, 5.892900948859188e-07, -1.1844598657612115e-22, -2.6542071547512224e-15, 0.0, 0.0, 0.0, -1.1844598657612115e-22, 4.6922670992734247e-07, -1.1785583701962706e-31, 0.0, 0.0, 0.0, -2.654207154751224e-15, -1.4131384927007853e-30, 4.692267099273425e-07, 0.0, -5.189819953913859e-17, 2.849584239427297e-18, 0.0, 0.0, 0.0, 1.102493835282237e-06]
twist: 
  twist: 
    linear: 
      x: 7.98765972636e-10
      y: 0.0
      z: 0.0
    angular: 
      x: 0.0
      y: 0.0
      z: 0.000108352693463
  covariance: [9.999995984492447e-10, 0.0, 0.0, 0.0, 0.0, 0.0, 0.0, 3447130.927706097, 0.0, 0.0, 0.0, 0.0, 0.0, 0.0, 5.163555663569572e-07, -3.162099840493402e-26, -1.924889934865784e-27, 0.0, 0.0, 0.0, -3.162099840493403e-26, 3.4071910367348434e-07, 2.01306330233281e-38, 0.0, 0.0, 0.0, -1.924889934865784e-27, 1.7625418858688095e-37, 3.4071910367348434e-07, 0.0, 0.0, 0.0, 0.0, 0.0, 0.0, 9.9729118130679e-10]
---
header: 
  seq: 10114
  stamp: 
    secs: 1518208909
    nsecs: 535253048
  frame_id: "swarmone/odom"
child_frame_id: "swarmone/base_link"
pose: 
  pose: 
    position: 
      x: 0.0675529241442
      y: 14.832467832
      z: 0.0
    orientation: 
      x: 0.0
      y: 0.0
      z: 0.696135410893
      w: 0.717910502571
  covariance: [523728895314.61725, -28712415891.627945, 0.0, 0.0, 0.0, 1.7836567269528616e-16, -28712415891.627785, 1575484062.6866388, 0.0, 0.0, 0.0, -7.432951006582916e-18, 0.0, 0.0, 5.663604468432129e-07, 1.3570952301488996e-22, 9.05104794940073e-15, 0.0, 0.0, 0.0, 1.3570952301488996e-22, 4.504500171375222e-07, -2.6298927882555978e-30, 0.0, 0.0, 0.0, 9.05104794940073e-15, -3.03520412436487e-30, 4.5045001713752207e-07, 0.0, 1.7836567269528613e-16, -7.432951006582916e-18, 0.0, 0.0, 0.0, 9.737478025687418e-07]
twist: 
  twist: 
    linear: 
      x: -2.79833540454e-09
      y: 0.0
      z: 0.0
    angular: 
      x: 0.0
      y: 0.0
      z: 9.19541839561e-05
  covariance: [9.999996018437342e-10, 0.0, 0.0, 0.0, 0.0, 0.0, 0.0, 3448158.3931111, 0.0, 0.0, 0.0, 0.0, 0.0, 0.0, 4.954092892624146e-07, 8.914921797502576e-26, 2.746760701226632e-27, 0.0, 0.0, 0.0, 8.914921797502578e-26, 3.3125908819061957e-07, -6.473831692203635e-35, 0.0, 0.0, 0.0, 2.7467607012266336e-27, -5.737875975262792e-35, 3.3125908819061957e-07, 0.0, 0.0, 0.0, 0.0, 0.0, 0.0, 9.969348590145532e-10]
---
header: 
  seq: 10115
  stamp: 
    secs: 1518208909
    nsecs: 634674788
  frame_id: "swarmone/odom"
child_frame_id: "swarmone/base_link"
pose: 
  pose: 
    position: 
      x: 0.0675605316001
      y: 14.8327147825
      z: 0.0
    orientation: 
      x: 0.0
      y: 0.0
      z: 0.696135470696
      w: 0.717910444581
  covariance: [523987540882.7487, -28723469171.010105, 0.0, 0.0, 0.0, -1.2087010603441894e-16, -28723469171.00995, 1575919617.6502142, 0.0, 0.0, 0.0, 3.723512822945178e-18, 0.0, 0.0, 5.663604105295563e-07, -1.278862828238141e-22, -6.402165760499733e-15, 0.0, 0.0, 0.0, -1.2788628282381404e-22, 4.504499331165027e-07, -2.017755719444131e-30, 0.0, 0.0, 0.0, -6.4021657604997336e-15, -1.758418439590827e-30, 4.5044993311650264e-07, 0.0, -1.2087010603441894e-16, 3.723512822945179e-18, 0.0, 0.0, 0.0, 9.73747802567001e-07]
twist: 
  twist: 
    linear: 
      x: 2.00051457257e-09
      y: 0.0
      z: 0.0
    angular: 
      x: 0.0
      y: 0.0
      z: 0.000122605577892
  covariance: [9.999995976740896e-10, 0.0, 0.0, 0.0, 0.0, 0.0, 0.0, 3449175.4110914436, 0.0, 0.0, 0.0, 0.0, 0.0, 0.0, 4.954092155075801e-07, -6.305249480419569e-26, -1.942397701163193e-27, 0.0, 0.0, 0.0, -6.305249480419572e-26, 3.312585702696318e-07, -8.835419373277011e-35, 0.0, 0.0, 0.0, -1.942397701163193e-27, 1.9345713055888483e-37, 3.312585702696318e-07, 0.0, 0.0, 0.0, 0.0, 0.0, 0.0, 9.969348590145042e-10]
---
header: 
  seq: 10116
  stamp: 
    secs: 1518208909
    nsecs: 735149145
  frame_id: "swarmone/odom"
child_frame_id: "swarmone/base_link"
pose: 
  pose: 
    position: 
      x: 0.0675745136788
      y: 14.8331686424
      z: 0.0
    orientation: 
      x: 0.0
      y: 0.0
      z: 0.692537163736
      w: 0.721382198868
  covariance: [524249028476.05774, -28734643249.2672, 0.0, 0.0, 0.0, -2.1114575036813058e-16, -28734643249.267044, 1576359926.5791051, 0.0, 0.0, 0.0, 7.884561492592507e-18, 0.0, 0.0, 5.553267456766064e-07, -2.1322968386104504e-22, -1.1414745784735778e-14, 0.0, 0.0, 0.0, -2.13229683861045e-22, 4.4167155336373086e-07, -5.4069655200104365e-30, 0.0, 0.0, 0.0, -1.1414745784735781e-14, -5.0484422074767456e-30, 4.4167155336373054e-07, 0.0, -2.1114575036813056e-16, 7.884561492592508e-18, 0.0, 0.0, 0.0, 9.165273435843539e-07]
twist: 
  twist: 
    linear: 
      x: 3.59898853948e-09
      y: 0.0
      z: 0.0
    angular: 
      x: 0.0
      y: 0.0
      z: 9.76639012884e-05
  covariance: [9.999996018890503e-10, 0.0, 0.0, 0.0, 0.0, 0.0, 0.0, 3450203.399795145, 0.0, 0.0, 0.0, 0.0, 0.0, 0.0, 4.855059966975e-07, -1.0216577722711454e-25, -4.170107390177743e-27, 0.0, 0.0, 0.0, -1.0216577722711452e-25, 3.2696675005919414e-07, -1.5328802334399514e-34, 0.0, 0.0, 0.0, -4.1701073901777425e-27, -1.6244962902572398e-34, 3.2696675005919414e-07, 0.0, 0.0, 0.0, 0.0, 0.0, 0.0, 9.967445350100488e-10]
---
header: 
  seq: 10117
  stamp: 
    secs: 1518208909
    nsecs: 834610224
  frame_id: "swarmone/odom"
child_frame_id: "swarmone/base_link"
pose: 
  pose: 
    position: 
      x: 0.0675765294499
      y: 14.8332180243
      z: 0.0
    orientation: 
      x: 0.0
      y: 0.0
      z: 0.688921697307
      w: 0.724835771041
  covariance: [524507888899.5828, -28747000435.352398, 0.0, 0.0, 0.0, -2.4862471517127957e-17, -28747000435.352245, 1576937436.2406466, 0.0, 0.0, 0.0, 1.1879669256529216e-18, 0.0, 0.0, 5.794056994255842e-07, -4.620720778889676e-23, -1.3068529025996688e-15, 0.0, 0.0, 0.0, -4.620720778889677e-23, 4.6104232007226165e-07, 7.610692318850044e-32, 0.0, 0.0, 0.0, -1.3068529025996688e-15, -3.632891005580935e-31, 4.6104232007226165e-07, 0.0, -2.4862471517127954e-17, 1.1879669256529214e-18, 0.0, 0.0, 0.0, 1.0452733762975726e-06]
twist: 
  twist: 
    linear: 
      x: 3.99608804163e-10
      y: 0.0
      z: 0.0
    angular: 
      x: 0.0
      y: 0.0
      z: 0.000114255909626
  covariance: [9.999995978332032e-10, 0.0, 0.0, 0.0, 0.0, 0.0, 0.0, 3451221.222438025, 0.0, 0.0, 0.0, 0.0, 0.0, 0.0, 5.072648032302628e-07, -1.435593235126892e-26, -7.298651827253495e-28, 0.0, 0.0, 0.0, -1.4355932351268913e-26, 3.365476438904525e-07, 2.996723170285697e-38, 0.0, 0.0, 0.0, -7.298651827253491e-28, -2.998282623411618e-38, 3.365476438904525e-07, 0.0, 0.0, 0.0, 0.0, 0.0, 0.0, 9.971436008266664e-10]
---
header: 
  seq: 10118
  stamp: 
    secs: 1518208909
    nsecs: 935048580
  frame_id: "swarmone/odom"
child_frame_id: "swarmone/base_link"
pose: 
  pose: 
    position: 
      x: 0.067571408509
      y: 14.8331172999
      z: 0.0
    orientation: 
      x: 0.0
      y: 0.0
      z: 0.68528890468
      w: 0.72827132109
  covariance: [524769276600.93, -28760787600.145256, 0.0, 0.0, 0.0, 4.997748403681858e-17, -28760787600.145103, 1577663705.8847628, 0.0, 0.0, 0.0, -2.866946574208557e-18, 0.0, 0.0, 5.663604459899659e-07, 1.0196781237524606e-22, 2.58688189700719e-15, 0.0, 0.0, 0.0, 1.0196781237524604e-22, 4.504500468287501e-07, 1.0056159281295525e-31, 0.0, 0.0, 0.0, 2.5868818970071903e-15, -1.3172073293428e-30, 4.5045004682875013e-07, 0.0, 4.9977484036818575e-17, -2.866946574208557e-18, 0.0, 0.0, 0.0, 9.737478025686997e-07]
twist: 
  twist: 
    linear: 
      x: -8.00131702214e-10
      y: 0.0
      z: 0.0
    angular: 
      x: 0.0
      y: 0.0
      z: 0.000122605578547
  covariance: [9.999996017463701e-10, 0.0, 0.0, 0.0, 0.0, 0.0, 0.0, 3452249.249046757, 0.0, 0.0, 0.0, 0.0, 0.0, 0.0, 4.954092875252904e-07, 2.544360701747e-26, 1.5487549182859056e-27, 0.0, 0.0, 0.0, 2.5443607017470004e-26, 3.312590759043575e-07, -4.86814222874019e-35, 0.0, 0.0, 0.0, 1.5487549182859063e-27, 4.210399168521877e-37, 3.312590759043575e-07, 0.0, 0.0, 0.0, 0.0, 0.0, 0.0, 9.969348590145522e-10]
---
header: 
  seq: 10119
  stamp: 
    secs: 1518208910
    nsecs:  34891129
  frame_id: "swarmone/odom"
child_frame_id: "swarmone/base_link"
pose: 
  pose: 
    position: 
      x: 0.0675623324064
      y: 14.8329681832
      z: 0.0
    orientation: 
      x: 0.0
      y: 0.0
      z: 0.6961355098
      w: 0.717910406663
  covariance: [525029071792.91394, -28775793037.705044, 0.0, 0.0, 0.0, 6.989177683557079e-17, -28775793037.704887, 1578527892.2258234, 0.0, 0.0, 0.0, -2.8822428811491585e-18, 0.0, 0.0, 5.553267226141446e-07, 8.884060364903313e-23, 3.778463202898522e-15, 0.0, 0.0, 0.0, 8.884060364903313e-23, 4.4167154408198813e-07, 6.009984299988076e-31, 0.0, 0.0, 0.0, 3.778463202898522e-15, -1.4348338827482326e-31, 4.416715440819882e-07, 0.0, 6.989177683557079e-17, -2.8822428811491592e-18, 0.0, 0.0, 0.0, 9.165273435833042e-07]
twist: 
  twist: 
    linear: 
      x: -1.19860697452e-09
      y: 0.0
      z: 0.0
    angular: 
      x: 0.0
      y: 0.0
      z: 0.000162773168172
  covariance: [9.999995993697822e-10, 0.0, 0.0, 0.0, 0.0, 0.0, 0.0, 3453271.379638014, 0.0, 0.0, 0.0, 0.0, 0.0, 0.0, 4.855059503927121e-07, 3.38306488968659e-26, 1.0423818352969762e-27, 0.0, 0.0, 0.0, 3.3830648896865904e-26, 3.269664333928809e-07, -2.4087513750446776e-35, 0.0, 0.0, 0.0, 1.0423818352969763e-27, -4.293948273724929e-37, 3.269664333928809e-07, 0.0, 0.0, 0.0, 0.0, 0.0, 0.0, 9.967445350100153e-10]
---
header: 
  seq: 10120
  stamp: 
    secs: 1518208910
    nsecs: 134308100
  frame_id: "swarmone/odom"
child_frame_id: "swarmone/base_link"
pose: 
  pose: 
    position: 
      x: 0.0675745006043
      y: 14.8333631273
      z: 0.0
    orientation: 
      x: 0.0
      y: 0.0
      z: 0.685288898962
      w: 0.728271326471
  covariance: [525288217735.9933, -28786866219.401733, 0.0, 0.0, 0.0, -1.8556369101326778e-16, -28786866219.401577, 1578964226.2076604, 0.0, 0.0, 0.0, 9.470570725778189e-18, 0.0, 0.0, 5.609128634394654e-07, -3.8795014205949467e-22, -1.0140859273474252e-14, 0.0, 0.0, 0.0, -3.879501420594947e-22, 4.460954763964632e-07, -9.462116497461468e-30, 0.0, 0.0, 0.0, -1.0140859273474252e-14, -8.45763804536968e-30, 4.46095476396463e-07, 0.0, -1.855636910132678e-16, 9.47057072577819e-18, 0.0, 0.0, 0.0, 9.451375730747895e-07]
twist: 
  twist: 
    linear: 
      x: 3.19848941603e-09
      y: 0.0
      z: 0.0
    angular: 
      x: 0.0
      y: 0.0
      z: 0.000126297436765
  covariance: [9.999995976547777e-10, 0.0, 0.0, 0.0, 0.0, 0.0, 0.0, 3454289.353860306, 0.0, 0.0, 0.0, 0.0, 0.0, 0.0, 4.905056862890052e-07, -9.517389679216925e-26, -5.793100317835556e-27, 0.0, 0.0, 0.0, -9.517389679216926e-26, 3.291192582639698e-07, -2.257502936376745e-34, 0.0, 0.0, 0.0, -5.793100317835556e-27, -1.6245803268181315e-34, 3.291192582639698e-07, 0.0, 0.0, 0.0, 0.0, 0.0, 0.0, 9.968425624991046e-10]
---
header: 
  seq: 10121
  stamp: 
    secs: 1518208910
    nsecs: 234786510
  frame_id: "swarmone/odom"
child_frame_id: "swarmone/base_link"
pose: 
  pose: 
    position: 
      x: 0.06756223658
      y: 14.8331616454
      z: 0.0
    orientation: 
      x: 0.0
      y: 0.0
      z: 0.688921668449
      w: 0.724835798469
  covariance: [525549874321.0237, -28801978950.667744, 0.0, 0.0, 0.0, 9.378682455809674e-17, -28801978950.667587, 1579834572.7836719, 0.0, 0.0, 0.0, -5.0849645084996595e-18, 0.0, 0.0, 5.581374783494164e-07, 1.6064974264241104e-22, 5.100814907528153e-15, 0.0, 0.0, 0.0, 1.6064974264241104e-22, 4.438923897830761e-07, -1.4099837919857957e-30, 0.0, 0.0, 0.0, 5.100814907528153e-15, -1.3232155838427594e-30, 4.4389238978307605e-07, 0.0, 9.378682455809674e-17, -5.08496450849966e-18, 0.0, 0.0, 0.0, 9.308324583304605e-07]
twist: 
  twist: 
    linear: 
      x: -1.59999160795e-09
      y: 0.0
      z: 0.0
    angular: 
      x: 0.0
      y: 0.0
      z: 0.000128228017277
  covariance: [9.999996019051017e-10, 0.0, 0.0, 0.0, 0.0, 0.0, 0.0, 3455318.399881931, 0.0, 0.0, 0.0, 0.0, 0.0, 0.0, 4.880180859753608e-07, 4.6762571290929007e-26, 2.3774745087421282e-27, 0.0, 0.0, 0.0, 4.6762571290929e-26, 3.2804499524970143e-07, -4.0634559702586994e-35, 0.0, 0.0, 0.0, 2.377474508742128e-27, 7.42339289877031e-36, 3.2804499524970143e-07, 0.0, 0.0, 0.0, 0.0, 0.0, 0.0, 9.967942979776449e-10]
---
header: 
  seq: 10122
  stamp: 
    secs: 1518208910
    nsecs: 335255384
  frame_id: "swarmone/odom"
child_frame_id: "swarmone/base_link"
pose: 
  pose: 
    position: 
      x: 0.0675519917752
      y: 14.8329601264
      z: 0.0
    orientation: 
      x: 0.0
      y: 0.0
      z: 0.692537272255
      w: 0.721382094688
  covariance: [525811756456.62994, -28815791242.948647, 0.0, 0.0, 0.0, 9.237149088601634e-17, -28815791242.948494, 1580562116.3725257, 0.0, 0.0, 0.0, -4.082381991109319e-18, 0.0, 0.0, 5.553267454726716e-07, 1.5792885695861885e-22, 5.072554034311812e-15, 0.0, 0.0, 0.0, 1.579288569586188e-22, 4.416716160735466e-07, -1.0368855361632238e-30, 0.0, 0.0, 0.0, 5.072554034311813e-15, -1.5825382451306374e-30, 4.416716160735466e-07, 0.0, 9.237149088601634e-17, -4.082381991109319e-18, 0.0, 0.0, 0.0, 9.165273435843437e-07]
twist: 
  twist: 
    linear: 
      x: -1.59938417024e-09
      y: 0.0
      z: 0.0
    angular: 
      x: 0.0
      y: 0.0
      z: 0.000162773168686
  covariance: [9.999996018673097e-10, 0.0, 0.0, 0.0, 0.0, 0.0, 0.0, 3456347.5525555755, 0.0, 0.0, 0.0, 0.0, 0.0, 0.0, 4.855059962845763e-07, 4.53993828812531e-26, 1.853226043338879e-27, 0.0, 0.0, 0.0, 4.5399382881253095e-26, 3.2696674716782425e-07, -2.410666078938562e-35, 0.0, 0.0, 0.0, 1.853226043338879e-27, -9.78910294667669e-38, 3.2696674716782425e-07, 0.0, 0.0, 0.0, 0.0, 0.0, 0.0, 9.967445350100486e-10]
---
header: 
  seq: 10123
  stamp: 
    secs: 1518208910
    nsecs: 434761763
  frame_id: "swarmone/odom"
child_frame_id: "swarmone/base_link"
pose: 
  pose: 
    position: 
      x: 0.0675540060706
      y: 14.8330094705
      z: 0.0
    orientation: 
      x: 0.0
      y: 0.0
      z: 0.685289898475
      w: 0.728270385947
  covariance: [526071351235.3842, -28828184259.83414, 0.0, 0.0, 0.0, -9.113585836229453e-17, -28828184259.83399, 1581141381.236993, 0.0, 0.0, 0.0, 5.395438351703472e-18, 0.0, 0.0, 8.43684673193559e-07, -2.3142954899379867e-22, -1.128237582800739e-15, 0.0, 0.0, 0.0, -2.3142954899379876e-22, 7.412881132240991e-07, -1.0449594305178243e-30, 0.0, 0.0, 0.0, -1.128237582800739e-15, -2.295876796064895e-30, 7.412881132240991e-07, 0.0, -9.113585836229453e-17, 5.395438351703472e-18, 0.0, 0.0, 0.0, 5.065010619956696e-06]
twist: 
  twist: 
    linear: 
      x: 3.97991778422e-10
      y: 0.0
      z: 0.0
    angular: 
      x: 0.0
      y: 0.0
      z: 2.36685776271e-05
  covariance: [9.999995980162862e-10, 0.0, 0.0, 0.0, 0.0, 0.0, 0.0, 3457367.047311595, 0.0, 0.0, 0.0, 0.0, 0.0, 0.0, 7.876547789402945e-07, -8.686221059726497e-26, -5.288114146285337e-27, 0.0, 0.0, 0.0, -8.686221059726497e-26, 5.406994106766462e-07, -6.270937986719247e-35, 0.0, 0.0, 0.0, -5.288114146285337e-27, 6.270937929399138e-35, 5.406994106766462e-07, 0.0, 0.0, 0.0, 0.0, 0.0, 0.0, 9.994082852629562e-10]
---
header: 
  seq: 10124
  stamp: 
    secs: 1518208910
    nsecs: 535238743
  frame_id: "swarmone/odom"
child_frame_id: "swarmone/base_link"
pose: 
  pose: 
    position: 
      x: 0.0675417516871
      y: 14.8328080874
      z: 0.0
    orientation: 
      x: 0.0
      y: 0.0
      z: 0.69253718774
      w: 0.721382175825
  covariance: [526333315804.08466, -28843313746.36316, 0.0, 0.0, 0.0, 2.3996375817494714e-16, -28843313746.363003, 1582012634.1905828, 0.0, 0.0, 0.0, -1.3186428654928985e-17, 0.0, 0.0, 5.819211665798577e-07, 1.1448627035712626e-22, 5.302096977916835e-15, 0.0, 0.0, 0.0, 1.1448627035712626e-22, 4.6311206106722846e-07, -1.944809043744122e-30, 0.0, 0.0, 0.0, 5.302096977916836e-15, -1.8684654275613615e-30, 4.6311206106722835e-07, 0.0, 2.3996375817494714e-16, -1.3186428654928986e-17, 0.0, 0.0, 0.0, 1.0595784910454825e-06]
twist: 
  twist: 
    linear: 
      x: -1.59917843464e-09
      y: 0.0
      z: 0.0
    angular: 
      x: 0.0
      y: 0.0
      z: 8.45404600134e-05
  covariance: [9.999996019005311e-10, 0.0, 0.0, 0.0, 0.0, 0.0, 0.0, 3458396.6897906885, 0.0, 0.0, 0.0, 0.0, 0.0, 0.0, 5.095694487723422e-07, 5.969556496811133e-26, 2.4402113344352452e-27, 0.0, 0.0, 0.0, 5.969556496811133e-26, 3.375959365685209e-07, -6.575045595284979e-35, 0.0, 0.0, 0.0, 2.4402113344352452e-27, -9.165867188418008e-35, 3.375959365685209e-07, 0.0, 0.0, 0.0, 0.0, 0.0, 0.0, 9.97181983264761e-10]
---
header: 
  seq: 10125
  stamp: 
    secs: 1518208910
    nsecs: 634664536
  frame_id: "swarmone/odom"
child_frame_id: "swarmone/base_link"
pose: 
  pose: 
    position: 
      x: 0.067537716411
      y: 14.8327092412
      z: 0.0
    orientation: 
      x: 0.0
      y: 0.0
      z: 0.681638998386
      w: 0.731688646816
  covariance: [526592906016.20905, -28855704734.728634, 0.0, 0.0, 0.0, 4.974330619591955e-17, -28855704734.72848, 1582591698.49723, 0.0, 0.0, 0.0, -2.9997165849025762e-18, 0.0, 0.0, 5.663604106815595e-07, 1.1766331590892808e-22, 2.5644755220803763e-15, 0.0, 0.0, 0.0, 1.1766331590892812e-22, 4.5044993335788935e-07, -6.5231904194201855e-31, 0.0, 0.0, 0.0, 2.5644755220803775e-15, -7.393229984470335e-31, 4.5044993335788935e-07, 0.0, 4.974330619591955e-17, -2.9997165849025766e-18, 0.0, 0.0, 0.0, 9.737478025670103e-07]
twist: 
  twist: 
    linear: 
      x: -8.01639347351e-10
      y: 0.0
      z: 0.0
    angular: 
      x: 0.0
      y: 0.0
      z: 0.000122605577883
  covariance: [9.999995976905135e-10, 0.0, 0.0, 0.0, 0.0, 0.0, 0.0, 3459415.7613869053, 0.0, 0.0, 0.0, 0.0, 0.0, 0.0, 4.954092158230202e-07, 2.5206849656715305e-26, 1.787440301538048e-27, 0.0, 0.0, 0.0, 2.5206849656715316e-26, 3.312585726232079e-07, -4.796454017846619e-35, 0.0, 0.0, 0.0, 1.787440301538048e-27, 4.7964652740341874e-35, 3.312585726232079e-07, 0.0, 0.0, 0.0, 0.0, 0.0, 0.0, 9.969348590145044e-10]
---
header: 
  seq: 10126
  stamp: 
    secs: 1518208910
    nsecs: 735134125
  frame_id: "swarmone/odom"
child_frame_id: "swarmone/base_link"
pose: 
  pose: 
    position: 
      x: 0.0674877580723
      y: 14.832004735
      z: 0.0
    orientation: 
      x: 0.0
      y: 0.0
      z: 0.6852888342
      w: 0.728271387411
  covariance: [526854886028.1072, -28872151232.21439, 0.0, 0.0, 0.0, 3.2798513765728606e-16, -28872151232.214233, 1583606834.1687925, 0.0, 0.0, 0.0, -2.1107929587255087e-17, 0.0, 0.0, 5.553267455036379e-07, 4.942592479615536e-22, 1.7755552282936696e-14, 0.0, 0.0, 0.0, 4.942592479615534e-22, 4.416715527218783e-07, -2.0329292040585118e-29, 0.0, 0.0, 0.0, 1.7755552282936693e-14, -1.914161909428604e-29, 4.4167155272187756e-07, 0.0, 3.2798513765728606e-16, -2.110792958725509e-17, 0.0, 0.0, 0.0, 9.16527343584346e-07]
twist: 
  twist: 
    linear: 
      x: -5.59847915596e-09
      y: 0.0
      z: 0.0
    angular: 
      x: 0.0
      y: 0.0
      z: 9.76639012861e-05
  covariance: [9.999996018701556e-10, 0.0, 0.0, 0.0, 0.0, 0.0, 0.0, 3460445.7347831223, 0.0, 0.0, 0.0, 0.0, 0.0, 0.0, 4.85505996350211e-07, 1.587565503793839e-25, 9.664020578875796e-27, 0.0, 0.0, 0.0, 1.5875655037938384e-25, 3.26966747684169e-07, -4.8960580176916465e-34, 0.0, 0.0, 0.0, 9.664020578875791e-27, -5.044623980274389e-34, 3.26966747684169e-07, 0.0, 0.0, 0.0, 0.0, 0.0, 0.0, 9.967445350100486e-10]
---
header: 
  seq: 10127
  stamp: 
    secs: 1518208910
    nsecs: 834742785
  frame_id: "swarmone/odom"
child_frame_id: "swarmone/base_link"
pose: 
  pose: 
    position: 
      x: 0.0674817376128
      y: 14.8319058296
      z: 0.0
    orientation: 
      x: 0.0
      y: 0.0
      z: 0.685289639591
      w: 0.728270629553
  covariance: [527114895219.9237, -28887168909.160957, 0.0, 0.0, 0.0, 1.9224999996852213e-16, -28887168909.160805, 1584471709.878942, 0.0, 0.0, 0.0, -1.1702508900154434e-17, 0.0, 0.0, 8.500552365990085e-07, 3.5919325266001946e-22, 2.215859900471262e-15, 0.0, 0.0, 0.0, 3.5919325266001946e-22, 7.500750902368739e-07, -4.910870224461371e-30, 0.0, 0.0, 0.0, 2.2158599004712613e-15, -5.705416357508727e-30, 7.500750902368738e-07, 0.0, 1.9224999996852213e-16, -1.1702508900154434e-17, 0.0, 0.0, 0.0, 5.336807800133428e-06]
twist: 
  twist: 
    linear: 
      x: -8.0251859368e-10
      y: 0.0
      z: 0.0
    angular: 
      x: 0.0
      y: 0.0
      z: 1.68482203629e-05
  covariance: [9.999995984290568e-10, 0.0, 0.0, 0.0, 0.0, 0.0, 0.0, 3461467.0840765475, 0.0, 0.0, 0.0, 0.0, 0.0, 0.0, 7.955223747108128e-07, 1.7866724163991068e-25, 1.0875685821584621e-26, 0.0, 0.0, 0.0, 1.7866724163991068e-25, 5.500609113776575e-07, -3.080217149856326e-34, 0.0, 0.0, 0.0, 1.0875685821584625e-26, -2.309572358644897e-34, 5.500609113776575e-07, 0.0, 0.0, 0.0, 0.0, 0.0, 0.0, 9.994383923733306e-10]
---
header: 
  seq: 10128
  stamp: 
    secs: 1518208910
    nsecs: 934887886
  frame_id: "swarmone/odom"
child_frame_id: "swarmone/base_link"
pose: 
  pose: 
    position: 
      x: 0.0674573857355
      y: 14.8315057572
      z: 0.0
    orientation: 
      x: 0.0
      y: 0.0
      z: 0.685288893657
      w: 0.728271331462
  covariance: [527376408095.793, -28902273353.70153, 0.0, 0.0, 0.0, 4.791180506050276e-16, -28902273353.70138, 1585341580.8953953, 0.0, 0.0, 0.0, -2.916360823612577e-17, 0.0, 0.0, 5.581374665484681e-07, 3.827797999471437e-22, 1.016186424229205e-14, 0.0, 0.0, 0.0, 3.827797999471437e-22, 4.4389235294483084e-07, -8.970805344021578e-30, 0.0, 0.0, 0.0, 1.0161864242292048e-14, -8.63536069690002e-30, 4.438923529448306e-07, 0.0, 4.791180506050277e-16, -2.9163608236125775e-17, 0.0, 0.0, 0.0, 9.308324583300299e-07]
twist: 
  twist: 
    linear: 
      x: -3.19789802972e-09
      y: 0.0
      z: 0.0
    angular: 
      x: 0.0
      y: 0.0
      z: 0.000128228016891
  covariance: [9.999996005813071e-10, 0.0, 0.0, 0.0, 0.0, 0.0, 0.0, 3462494.1364143575, 0.0, 0.0, 0.0, 0.0, 0.0, 0.0, 4.880180624175326e-07, 9.354925219939413e-26, 5.694463336677051e-27, 0.0, 0.0, 0.0, 9.354925219939412e-26, 3.2804484027490655e-07, -2.0226883193778e-34, 0.0, 0.0, 0.0, 5.694463336677051e-27, -1.3811028388377104e-34, 3.2804484027490655e-07, 0.0, 0.0, 0.0, 0.0, 0.0, 0.0, 9.967942979776281e-10]
---
header: 
  seq: 10129
  stamp: 
    secs: 1518208911
    nsecs:  35365820
  frame_id: "swarmone/odom"
child_frame_id: "swarmone/base_link"
pose: 
  pose: 
    position: 
      x: 0.0674481867983
      y: 14.8313546347
      z: 0.0
    orientation: 
      x: 0.0
      y: 0.0
      z: 0.685288914494
      w: 0.728271311856
  covariance: [527638894274.04205, -28917434493.30124, 0.0, 0.0, 0.0, 7.426702710241441e-17, -28917434493.301094, 1586214744.380802, 0.0, 0.0, 0.0, -4.520719187810522e-18, 0.0, 0.0, 5.742829524628965e-07, 1.6187136416471303e-22, 3.932808201801166e-15, 0.0, 0.0, 0.0, 1.6187136416471307e-22, 4.568548582768951e-07, -1.7417848123128426e-30, 0.0, 0.0, 0.0, 3.932808201801167e-15, -1.2489783155101667e-30, 4.5685485827689513e-07, 0.0, 7.426702710241441e-17, -4.520719187810522e-18, 0.0, 0.0, 0.0, 1.0166631468070658e-06]
twist: 
  twist: 
    linear: 
      x: -1.20026050253e-09
      y: 0.0
      z: 0.0
    angular: 
      x: 0.0
      y: 0.0
      z: 0.000117455485204
  covariance: [9.999996019032087e-10, 0.0, 0.0, 0.0, 0.0, 0.0, 0.0, 3463524.80631366, 0.0, 0.0, 0.0, 0.0, 0.0, 0.0, 5.025901259795901e-07, 4.136530852086756e-26, 2.5179600910578235e-27, 0.0, 0.0, 0.0, 4.136530852086756e-26, 3.344425939069559e-07, -3.205089135948958e-35, 0.0, 0.0, 0.0, 2.5179600910578242e-27, -4.814668973649358e-35, 3.344425939069559e-07, 0.0, 0.0, 0.0, 0.0, 0.0, 0.0, 9.970636114131417e-10]
---
header: 
  seq: 10130
  stamp: 
    secs: 1518208911
    nsecs: 134848118
  frame_id: "swarmone/odom"
child_frame_id: "swarmone/base_link"
pose: 
  pose: 
    position: 
      x: 0.0674331607076
      y: 14.831107775
      z: 0.0
    orientation: 
      x: 0.0
      y: 0.0
      z: 0.688921609866
      w: 0.724835854149
  covariance: [527898882353.5739, -28932451342.282707, 0.0, 0.0, 0.0, 1.1783416057451554e-16, -28932451342.282562, 1587079600.3679354, 0.0, 0.0, 0.0, -6.4124849525611746e-18, 0.0, 0.0, 5.553267093379846e-07, 1.4607208166533823e-22, 6.279301706662429e-15, 0.0, 0.0, 0.0, 1.4607208166533825e-22, 4.4167143877845746e-07, -2.509557864743441e-30, 0.0, 0.0, 0.0, 6.279301706662431e-15, -1.6158023845299827e-30, 4.416714387784574e-07, 0.0, 1.1783416057451554e-16, -6.4124849525611746e-18, 0.0, 0.0, 0.0, 9.16527343582701e-07]
twist: 
  twist: 
    linear: 
      x: -1.99960730526e-09
      y: 0.0
      z: 0.0
    angular: 
      x: 0.0
      y: 0.0
      z: 9.76639007988e-05
  covariance: [9.999995979190108e-10, 0.0, 0.0, 0.0, 0.0, 0.0, 0.0, 3464545.464784775, 0.0, 0.0, 0.0, 0.0, 0.0, 0.0, 4.855059237403807e-07, 5.617823136768807e-26, 2.856228899047889e-27, 0.0, 0.0, 0.0, 5.617823136768811e-26, 3.269662511952628e-07, -8.922230437326266e-35, 0.0, 0.0, 0.0, 2.85622889904789e-27, -3.187501207174988e-35, 3.269662511952628e-07, 0.0, 0.0, 0.0, 0.0, 0.0, 0.0, 9.967445350099963e-10]
---
header: 
  seq: 10131
  stamp: 
    secs: 1518208911
    nsecs: 235282421
  frame_id: "swarmone/odom"
child_frame_id: "swarmone/base_link"
pose: 
  pose: 
    position: 
      x: 0.067428041067
      y: 14.8310070732
      z: 0.0
    orientation: 
      x: 0.0
      y: 0.0
      z: 0.68892166905
      w: 0.724835797898
  covariance: [528161608956.9979, -28946308890.72603, 0.0, 0.0, 0.0, 4.6400356697615674e-17, -28946308890.725887, 1587809564.5806785, 0.0, 0.0, 0.0, -2.3589900671893635e-18, 0.0, 0.0, 5.581374767657375e-07, 8.026209891069283e-23, 2.549009939712569e-15, 0.0, 0.0, 0.0, 8.026209891069285e-23, 4.438923847610496e-07, -1.7306337798926272e-31, 0.0, 0.0, 0.0, 2.549009939712569e-15, -7.529441860059308e-31, 4.438923847610496e-07, 0.0, 4.6400356697615674e-17, -2.3589900671893635e-18, 0.0, 0.0, 0.0, 9.308324583303868e-07]
twist: 
  twist: 
    linear: 
      x: -7.99877990666e-10
      y: 0.0
      z: 0.0
    angular: 
      x: 0.0
      y: 0.0
      z: 0.000128228017204
  covariance: [9.99999601730264e-10, 0.0, 0.0, 0.0, 0.0, 0.0, 0.0, 3465576.09393013, 0.0, 0.0, 0.0, 0.0, 0.0, 0.0, 4.880180827841433e-07, 2.3367955063543743e-26, 1.1880274539365341e-27, 0.0, 0.0, 0.0, 2.3367955063543752e-26, 3.280449732370737e-07, 2.4052355724063172e-35, 0.0, 0.0, 0.0, 1.1880274539365346e-27, -2.435597265231452e-35, 3.280449732370737e-07, 0.0, 0.0, 0.0, 0.0, 0.0, 0.0, 9.967942979776428e-10]
---
header: 
  seq: 10132
  stamp: 
    secs: 1518208911
    nsecs: 334768295
  frame_id: "swarmone/odom"
child_frame_id: "swarmone/base_link"
pose: 
  pose: 
    position: 
      x: 0.0674255255288
      y: 14.8309575962
      z: 0.0
    orientation: 
      x: 0.0
      y: 0.0
      z: 0.681638997772
      w: 0.731688647388
  covariance: [528421957504.38776, -28960041274.436832, 0.0, 0.0, 0.0, 2.3826590561671156e-17, -28960041274.436687, 1588532951.7003708, 0.0, 0.0, 0.0, -1.534984514263403e-18, 0.0, 0.0, 5.663604127826931e-07, 5.891095211976999e-23, 1.2837599491972938e-15, 0.0, 0.0, 0.0, 5.891095211976999e-23, 4.5044994007783985e-07, -8.419296096922632e-31, 0.0, 0.0, 0.0, 1.2837599491972936e-15, 4.9313954248373205e-31, 4.5044994007783985e-07, 0.0, 2.3826590561671153e-17, -1.534984514263403e-18, 0.0, 0.0, 0.0, 9.73747802567108e-07]
twist: 
  twist: 
    linear: 
      x: -4.01151124688e-10
      y: 0.0
      z: 0.0
    angular: 
      x: 0.0
      y: 0.0
      z: 0.000122605577988
  covariance: [9.99999597933442e-10, 0.0, 0.0, 0.0, 0.0, 0.0, 0.0, 3466597.1920452504, 0.0, 0.0, 0.0, 0.0, 0.0, 0.0, 4.954092200797968e-07, 1.2617155925202653e-26, 8.947314910711889e-28, 0.0, 0.0, 0.0, 1.2617155925202653e-26, 3.312586022957471e-07, 1.6270228008440297e-35, 0.0, 0.0, 0.0, 8.947314910711885e-28, -1.6270228023668347e-35, 3.312586022957471e-07, 0.0, 0.0, 0.0, 0.0, 0.0, 0.0, 9.96934859014507e-10]
---
header: 
  seq: 10133
  stamp: 
    secs: 1518208911
    nsecs: 435229540
  frame_id: "swarmone/odom"
child_frame_id: "swarmone/base_link"
pose: 
  pose: 
    position: 
      x: 0.0673898407563
      y: 14.8304543626
      z: 0.0
    orientation: 
      x: 0.0
      y: 0.0
      z: 0.688921705866
      w: 0.724835762906
  covariance: [528684642651.9742, -28976532879.063774, 0.0, 0.0, 0.0, 2.631024915758394e-16, -28976532879.063637, 1589550947.816469, 0.0, 0.0, 0.0, -1.5007930193445993e-17, 0.0, 0.0, 5.868628364336077e-07, 4.917899641424553e-22, 1.3356282123151947e-14, 0.0, 0.0, 0.0, 4.917899641424551e-22, 4.672040978299376e-07, -1.6114669988413146e-29, 0.0, 0.0, 0.0, 1.3356282123151946e-14, -1.568336854052028e-29, 4.672040978299371e-07, 0.0, 2.631024915758394e-16, -1.5007930193445993e-17, 0.0, 0.0, 0.0, 1.0881887205375478e-06]
twist: 
  twist: 
    linear: 
      x: -4.00095033666e-09
      y: 0.0
      z: 0.0
    angular: 
      x: 0.0
      y: 0.0
      z: 0.000109770562337
  covariance: [9.999996018370856e-10, 0.0, 0.0, 0.0, 0.0, 0.0, 0.0, 3467628.5046290625, 0.0, 0.0, 0.0, 0.0, 0.0, 0.0, 5.141145270370407e-07, 1.560718069997521e-25, 7.934415850115783e-27, 0.0, 0.0, 0.0, 1.5607180699975215e-25, 3.3968159296615086e-07, -3.3455724338863666e-34, 0.0, 0.0, 0.0, 7.934415850115783e-27, -3.8292806172911568e-34, 3.3968159296615086e-07, 0.0, 0.0, 0.0, 0.0, 0.0, 0.0, 9.972557345796904e-10]
---
header: 
  seq: 10134
  stamp: 
    secs: 1518208911
    nsecs: 534643412
  frame_id: "swarmone/odom"
child_frame_id: "swarmone/base_link"
pose: 
  pose: 
    position: 
      x: 0.0673472112649
      y: 14.8296158185
      z: 0.0
    orientation: 
      x: 0.0
      y: 0.0
      z: 0.69253723115
      w: 0.72138213415
  covariance: [528945008682.7989, -28990265950.289764, 0.0, 0.0, 0.0, 4.2667525872975283e-16, -28990265950.289635, 1590274354.6874685, 0.0, 0.0, 0.0, -1.8949623060828755e-17, 0.0, 0.0, 5.663604102645043e-07, 5.757304231947073e-22, 2.175534542001167e-14, 0.0, 0.0, 0.0, 5.757304231947073e-22, 4.5044993224308827e-07, -2.881139371212066e-29, 0.0, 0.0, 0.0, 2.1755345420011668e-14, -2.895647965418102e-29, 4.504499322430872e-07, 0.0, 4.2667525872975283e-16, -1.894962306082876e-17, 0.0, 0.0, 0.0, 9.73747802566991e-07]
twist: 
  twist: 
    linear: 
      x: -6.79749493498e-09
      y: 0.0
      z: 0.0
    angular: 
      x: 0.0
      y: 0.0
      z: 0.000122605577915
  covariance: [9.999995976422794e-10, 0.0, 0.0, 0.0, 0.0, 0.0, 0.0, 3468649.266455096, 0.0, 0.0, 0.0, 0.0, 0.0, 0.0, 4.954092149783008e-07, 2.142023985754669e-25, 8.743838685212903e-27, 0.0, 0.0, 0.0, 2.14202398575467e-25, 3.312585667411792e-07, -6.228984239345381e-34, 0.0, 0.0, 0.0, 8.743838685212902e-27, -5.8273403873901595e-34, 3.312585667411792e-07, 0.0, 0.0, 0.0, 0.0, 0.0, 0.0, 9.969348590145038e-10]
---
header: 
  seq: 10135
  stamp: 
    secs: 1518208911
    nsecs: 635109901
  frame_id: "swarmone/odom"
child_frame_id: "swarmone/base_link"
pose: 
  pose: 
    position: 
      x: 0.0673492673137
      y: 14.8296661853
      z: 0.0
    orientation: 
      x: 0.0
      y: 0.0
      z: 0.685288905284
      w: 0.728271320522
  covariance: [529208356224.5516, -29002837104.00148, 0.0, 0.0, 0.0, -2.4379201503601208e-17, -29002837104.001354, 1590861860.6297147, 0.0, 0.0, 0.0, 1.3207092329336735e-18, 0.0, 0.0, 5.663604469532944e-07, -5.09254018200868e-23, -1.292035574255129e-15, 0.0, 0.0, 0.0, -5.092540182008679e-23, 4.5045004990734585e-07, -2.805596405613868e-31, 0.0, 0.0, 0.0, -1.2920355742551287e-15, -2.289184028836916e-32, 4.5045004990734585e-07, 0.0, -2.437920150360121e-17, 1.3207092329336735e-18, 0.0, 0.0, 0.0, 9.737478025687444e-07]
twist: 
  twist: 
    linear: 
      x: 3.99342049229e-10
      y: 0.0
      z: 0.0
    angular: 
      x: 0.0
      y: 0.0
      z: 0.000122605578577
  covariance: [9.99999601857873e-10, 0.0, 0.0, 0.0, 0.0, 0.0, 0.0, 3469681.039847037, 0.0, 0.0, 0.0, 0.0, 0.0, 0.0, 4.954092894760755e-07, -1.270728084179757e-26, -7.734902912547587e-28, 0.0, 0.0, 0.0, -1.270728084179757e-26, 3.312590894842231e-07, 7.982139667450426e-35, 0.0, 0.0, 0.0, -7.734902912547589e-28, -7.982145596857804e-35, 3.312590894842231e-07, 0.0, 0.0, 0.0, 0.0, 0.0, 0.0, 9.969348590145534e-10]
---
header: 
  seq: 10136
  stamp: 
    secs: 1518208911
    nsecs: 734537601
  frame_id: "swarmone/odom"
child_frame_id: "swarmone/base_link"
pose: 
  pose: 
    position: 
      x: 0.0673372538736
      y: 14.8294688306
      z: 0.0
    orientation: 
      x: 0.0
      y: 0.0
      z: 0.681638986693
      w: 0.731688657709
  covariance: [529468818964.5992, -29017881638.48927, 0.0, 0.0, 0.0, 9.370708686318467e-17, -29017881638.489143, 1591728323.2909987, 0.0, 0.0, 0.0, -6.3217760884089134e-18, 0.0, 0.0, 5.581374403260559e-07, 2.21535882130874e-22, 5.049924794774572e-15, 0.0, 0.0, 0.0, 2.2153588213087395e-22, 4.4389226920588265e-07, -2.9152151752808804e-30, 0.0, 0.0, 0.0, 5.049924794774574e-15, -2.1485042495911755e-30, 4.438922692058826e-07, 0.0, 9.370708686318467e-17, -6.321776088408914e-18, 0.0, 0.0, 0.0, 9.308324583287084e-07]
twist: 
  twist: 
    linear: 
      x: -1.60101920436e-09
      y: 0.0
      z: 0.0
    angular: 
      x: 0.0
      y: 0.0
      z: 0.000128228016601
  covariance: [9.999995976982084e-10, 0.0, 0.0, 0.0, 0.0, 0.0, 0.0, 3470702.3464721544, 0.0, 0.0, 0.0, 0.0, 0.0, 0.0, 4.88018009413235e-07, 4.624078838605498e-26, 3.279083000209754e-27, 0.0, 0.0, 0.0, 4.6240788386054976e-26, 3.2804446824932703e-07, 5.903718146728848e-38, 0.0, 0.0, 0.0, 3.279083000209755e-27, -6.476528748938435e-35, 3.2804446824932703e-07, 0.0, 0.0, 0.0, 0.0, 0.0, 0.0, 9.96794297977591e-10]
---
header: 
  seq: 10137
  stamp: 
    secs: 1518208911
    nsecs: 835024357
  frame_id: "swarmone/odom"
child_frame_id: "swarmone/base_link"
pose: 
  pose: 
    position: 
      x: 0.0672944158741
      y: 14.8288647222
      z: 0.0
    orientation: 
      x: 0.0
      y: 0.0
      z: 0.688921671304
      w: 0.724835795755
  covariance: [529731986702.8646, -29034403746.44525, 0.0, 0.0, 0.0, 2.827414670620732e-16, -29034403746.445126, 1592748216.634369, 0.0, 0.0, 0.0, -1.6246970785904297e-17, 0.0, 0.0, 5.609129016744992e-07, 4.918539975250468e-22, 1.5378903962230843e-14, 0.0, 0.0, 0.0, 4.918539975250469e-22, 4.4609559813598264e-07, -1.7419837838980345e-29, 0.0, 0.0, 0.0, 1.537890396223085e-14, -1.7034149787845664e-29, 4.4609559813598206e-07, 0.0, 2.827414670620732e-16, -1.6246970785904297e-17, 0.0, 0.0, 0.0, 9.451375730765747e-07]
twist: 
  twist: 
    linear: 
      x: -4.79936701839e-09
      y: 0.0
      z: 0.0
    angular: 
      x: 0.0
      y: 0.0
      z: 0.000126297437383
  covariance: [9.999996019381565e-10, 0.0, 0.0, 0.0, 0.0, 0.0, 0.0, 3471734.7351665976, 0.0, 0.0, 0.0, 0.0, 0.0, 0.0, 4.905057635014226e-07, 1.444162321060709e-25, 7.342410875898109e-27, 0.0, 0.0, 0.0, 1.4441623210607099e-25, 3.2911979329742685e-07, -3.971807771373311e-34, 0.0, 0.0, 0.0, 7.34241087589811e-27, -3.3378355455045287e-34, 3.2911979329742685e-07, 0.0, 0.0, 0.0, 0.0, 0.0, 0.0, 9.96842562499158e-10]
---
header: 
  seq: 10138
  stamp: 
    secs: 1518208911
    nsecs: 934500456
  frame_id: "swarmone/odom"
child_frame_id: "swarmone/base_link"
pose: 
  pose: 
    position: 
      x: 0.0672768390865
      y: 14.8285189909
      z: 0.0
    orientation: 
      x: 0.0
      y: 0.0
      z: 0.688921672506
      w: 0.724835794613
  covariance: [529992928066.20447, -29048167527.30225, 0.0, 0.0, 0.0, 1.6415264362247477e-16, -29048167527.30213, 1593473260.712169, 0.0, 0.0, 0.0, -8.3454965137158e-18, 0.0, 0.0, 5.609128655775118e-07, 2.83928441385808e-22, 8.879554384974052e-15, 0.0, 0.0, 0.0, 2.8392844138580793e-22, 4.460954832777715e-07, -5.115910873005426e-30, 0.0, 0.0, 0.0, 8.87955438497405e-15, -5.399588610548305e-30, 4.460954832777714e-07, 0.0, 1.641526436224748e-16, -8.345496513715801e-18, 0.0, 0.0, 0.0, 9.4513757307489e-07]
twist: 
  twist: 
    linear: 
      x: -2.7991113264e-09
      y: 0.0
      z: 0.0
