header: 
  seq: 8926
  stamp: 
    secs: 1518208790
    nsecs: 734601974
  frame_id: "swarmone/odom"
child_frame_id: "swarmone/base_link"
pose: 
  pose: 
    position: 
      x: 0.242057611455
      y: 12.9693045125
      z: 0.0
    orientation: 
      x: 0.0
      y: 0.0
      z: 0.710353500528
      w: 0.703845085433
  covariance: [280626757945.156, -14572924945.811144, 0.0, 0.0, 0.0, -1.7070898949464804e-16, -14572924945.811237, 758733853.5200189, 0.0, 0.0, 0.0, -2.1462017313936287e-18, 0.0, 0.0, 5.663604233603592e-07, 5.373233300387384e-23, -8.993648421107349e-15, 0.0, 0.0, 0.0, 5.373233300387384e-23, 4.504499743803684e-07, 1.1492990690467874e-30, 0.0, 0.0, 0.0, -8.993648421107352e-15, 1.0795153674904713e-30, 4.5044997438036816e-07, 0.0, -1.7070898949464801e-16, -2.1462017313936287e-18, 0.0, 0.0, 0.0, 9.737478025676155e-07]
twist: 
  twist: 
    linear: 
      x: 2.79974450741e-09
      y: 0.0
      z: 0.0
    angular: 
      x: 0.0
      y: 0.0
      z: 0.000122605578161
  covariance: [9.999995991477127e-10, 0.0, 0.0, 0.0, 0.0, 0.0, 0.0, 2370175.4702205374, 0.0, 0.0, 0.0, 0.0, 0.0, 0.0, 4.954092415651944e-07, -8.86143727801737e-26, 8.156743345065876e-28, 0.0, 0.0, 0.0, -8.86143727801737e-26, 3.312587532007645e-07, 1.8367250270197103e-35, 0.0, 0.0, 0.0, 8.156743345065876e-28, 3.4238711666158517e-35, 3.312587532007645e-07, 0.0, 0.0, 0.0, 0.0, 0.0, 0.0, 9.969348590145216e-10]
---
header: 
  seq: 8927
  stamp: 
    secs: 1518208790
    nsecs: 835060120
  frame_id: "swarmone/odom"
child_frame_id: "swarmone/base_link"
pose: 
  pose: 
    position: 
      x: 0.242055289779
      y: 12.9695566988
      z: 0.0
    orientation: 
      x: 0.0
      y: 0.0
      z: 0.713863834065
      w: 0.700284532468
  covariance: [280785435721.68774, -14576282450.26465, 0.0, 0.0, 0.0, -1.233450549909574e-16, -14576282450.264744, 758658585.0315288, 0.0, 0.0, 0.0, -1.9614720407573916e-18, 0.0, 0.0, 5.690338433167929e-07, 8.210316541598054e-23, -6.496139381086497e-15, 0.0, 0.0, 0.0, 8.210316541598054e-23, 4.5260170275935746e-07, 1.0516446201408032e-30, 0.0, 0.0, 0.0, -6.496139381086496e-15, 1.4235138034409155e-30, 4.5260170275935725e-07, 0.0, -1.233450549909574e-16, -1.9614720407573916e-18, 0.0, 0.0, 0.0, 9.880529173148315e-07]
twist: 
  twist: 
    linear: 
      x: 1.99973812249e-09
      y: 0.0
      z: 0.0
    angular: 
      x: 0.0
      y: 0.0
      z: 0.000120839422064
  covariance: [9.99999601824801e-10, 0.0, 0.0, 0.0, 0.0, 0.0, 0.0, 2370975.8581091883, 0.0, 0.0, 0.0, 0.0, 0.0, 0.0, 4.978258273319877e-07, -6.547095169512293e-26, 1.2574039632647933e-27, 0.0, 0.0, 0.0, -6.547095169512292e-26, 3.3232363019361367e-07, 2.410497146765896e-35, 0.0, 0.0, 0.0, 1.2574039632647937e-27, 2.422546915989989e-35, 3.3232363019361367e-07, 0.0, 0.0, 0.0, 0.0, 0.0, 0.0, 9.969790129491557e-10]
---
header: 
  seq: 8928
  stamp: 
    secs: 1518208790
    nsecs: 934597254
  frame_id: "swarmone/odom"
child_frame_id: "swarmone/base_link"
pose: 
  pose: 
    position: 
      x: 0.24205243596
      y: 12.9697052706
      z: 0.0
    orientation: 
      x: 0.0
      y: 0.0
      z: 0.717356315531
      w: 0.696706478058
  covariance: [280942707057.88025, -14578822109.175913, 0.0, 0.0, 0.0, -7.29781690116804e-17, -14578822109.176004, 758502993.1317705, 0.0, 0.0, 0.0, -1.885962043117483e-18, 0.0, 0.0, 5.663604145917687e-07, 7.285572928797325e-23, -3.84628992496178e-15, 0.0, 0.0, 0.0, 7.285572928797323e-23, 4.5044994617106924e-07, 5.853440290568852e-31, 0.0, 0.0, 0.0, -3.846289924961779e-15, 7.070473994577552e-31, 4.504499461710692e-07, 0.0, -7.29781690116804e-17, -1.885962043117483e-18, 0.0, 0.0, 0.0, 9.737478025671958e-07]
twist: 
  twist: 
    linear: 
      x: 1.20052645039e-09
      y: 0.0
      z: 0.0
    angular: 
      x: 0.0
      y: 0.0
      z: 0.000122605578008
  covariance: [9.999995981405149e-10, 0.0, 0.0, 0.0, 0.0, 0.0, 0.0, 2371769.085655905, 0.0, 0.0, 0.0, 0.0, 0.0, 0.0, 4.954092237581534e-07, -3.7882882486323497e-26, 1.1066016156038165e-27, 0.0, 0.0, 0.0, -3.788288248632349e-26, 3.312586282063997e-07, -2.4012369578353454e-35, 0.0, 0.0, 0.0, 1.1066016156038165e-27, 1.5409417256081455e-39, 3.312586282063997e-07, 0.0, 0.0, 0.0, 0.0, 0.0, 0.0, 9.969348590145098e-10]
---
header: 
  seq: 8929
  stamp: 
    secs: 1518208791
    nsecs:  35080910
  frame_id: "swarmone/odom"
child_frame_id: "swarmone/base_link"
pose: 
  pose: 
    position: 
      x: 0.242042119341
      y: 12.9700584269
      z: 0.0
    orientation: 
      x: 0.0
      y: 0.0
      z: 0.717356267286
      w: 0.696706527733
  covariance: [281101506846.6987, -14580590290.753857, 0.0, 0.0, 0.0, -1.7605654988514705e-16, -14580590290.753944, 758264170.5452104, 0.0, 0.0, 0.0, -5.142996865436527e-18, 0.0, 0.0, 5.742829526577121e-07, 1.3615953046619278e-22, -9.17687669401248e-15, 0.0, 0.0, 0.0, 1.361595304661928e-22, 4.5685482583494917e-07, 3.0770309526277406e-30, 0.0, 0.0, 0.0, -9.176876694012479e-15, 2.793199114655493e-30, 4.568548258349489e-07, 0.0, -1.7605654988514708e-16, -5.142996865436527e-18, 0.0, 0.0, 0.0, 1.0166631468070764e-06]
twist: 
  twist: 
    linear: 
      x: 2.80052404617e-09
      y: 0.0
      z: 0.0
    angular: 
      x: 0.0
      y: 0.0
      z: 8.80916139438e-05
  covariance: [9.999996019258898e-10, 0.0, 0.0, 0.0, 0.0, 0.0, 0.0, 2372570.035620162, 0.0, 0.0, 0.0, 0.0, 0.0, 0.0, 5.025901263817168e-07, -9.666256765581362e-26, 2.8237035081126084e-27, 0.0, 0.0, 0.0, -9.666256765581368e-26, 3.3444259685014925e-07, 8.00969113934232e-35, 0.0, 0.0, 0.0, 2.8237035081126077e-27, 1.2063473200674637e-34, 3.3444259685014925e-07, 0.0, 0.0, 0.0, 0.0, 0.0, 0.0, 9.97063611413142e-10]
---
header: 
  seq: 8930
  stamp: 
    secs: 1518208791
    nsecs: 134580135
  frame_id: "swarmone/odom"
child_frame_id: "swarmone/base_link"
pose: 
  pose: 
    position: 
      x: 0.242026228715
      y: 12.9706024256
      z: 0.0
    orientation: 
      x: 0.0
      y: 0.0
      z: 0.713863825214
      w: 0.70028454149
  covariance: [281258821547.29816, -14582340154.254356, 0.0, 0.0, 0.0, -2.6479015135586314e-16, -14582340154.254444, 758027707.38444, 0.0, 0.0, 0.0, -6.01274147428577e-18, 0.0, 0.0, 5.609128664198559e-07, 1.6877996337772286e-22, -1.3956333775048439e-14, 0.0, 0.0, 0.0, 1.6877996337772284e-22, 4.4609548611597e-07, 5.62039250390113e-30, 0.0, 0.0, 0.0, -1.3956333775048443e-14, 5.108915064356145e-30, 4.460954861159696e-07, 0.0, -2.647901513558632e-16, -6.01274147428577e-18, 0.0, 0.0, 0.0, 9.45137573074931e-07]
twist: 
  twist: 
    linear: 
      x: 4.39841260635e-09
      y: 0.0
      z: 0.0
    angular: 
      x: 0.0
      y: 0.0
      z: 0.000126297436699
  covariance: [9.999995979874166e-10, 0.0, 0.0, 0.0, 0.0, 0.0, 0.0, 2373363.3164024544, 0.0, 0.0, 0.0, 0.0, 0.0, 0.0, 4.905056923156316e-07, -1.3121164980458048e-25, 2.5202629173133866e-27, 0.0, 0.0, 0.0, -1.3121164980458045e-25, 3.291193001832858e-07, 1.1373163263466763e-34, 0.0, 0.0, 0.0, 2.5202629173133856e-27, 1.1370481554600548e-34, 3.291193001832858e-07, 0.0, 0.0, 0.0, 0.0, 0.0, 0.0, 9.968425624991087e-10]
---
header: 
  seq: 8931
  stamp: 
    secs: 1518208791
    nsecs: 235051155
  frame_id: "swarmone/odom"
child_frame_id: "swarmone/base_link"
pose: 
  pose: 
    position: 
      x: 0.242027196771
      y: 12.9705520276
      z: 0.0
    orientation: 
      x: 0.0
      y: 0.0
      z: 0.717356312214
      w: 0.696706481473
  covariance: [281417782552.2818, -14584901528.500433, 0.0, 0.0, 0.0, 2.392715764959367e-17, -14584901528.500523, 757870658.5558044, 0.0, 0.0, 0.0, 6.198266192078028e-19, 0.0, 0.0, 5.636536758610754e-07, -2.3998439779535713e-23, 1.2858398266403142e-15, 0.0, 0.0, 0.0, -2.399843977953571e-23, 4.4828141531000414e-07, 1.6956996844415025e-31, 0.0, 0.0, 0.0, 1.2858398266403144e-15, -2.815344763168966e-32, 4.4828141531000414e-07, 0.0, 2.3927157649593667e-17, 6.198266192078028e-19, 0.0, 0.0, 0.0, 9.594426878226499e-07]
twist: 
  twist: 
    linear: 
      x: -3.99233061757e-10
      y: 0.0
      z: 0.0
    angular: 
      x: 0.0
      y: 0.0
      z: 0.000124424128194
  covariance: [9.999996018758166e-10, 0.0, 0.0, 0.0, 0.0, 0.0, 0.0, 2374164.52444468, 0.0, 0.0, 0.0, 0.0, 0.0, 0.0, 4.92969381392556e-07, 1.2373903470196834e-26, -3.614559335487291e-28, 0.0, 0.0, 0.0, 1.2373903470196837e-26, 3.3019114676629074e-07, -4.531004455514653e-40, 0.0, 0.0, 0.0, -3.61455933548729e-28, 4.643207089098281e-40, 3.3019114676629074e-07, 0.0, 0.0, 0.0, 0.0, 0.0, 0.0, 9.968893952517778e-10]
---
header: 
  seq: 8932
  stamp: 
    secs: 1518208791
    nsecs: 334563971
  frame_id: "swarmone/odom"
child_frame_id: "swarmone/base_link"
pose: 
  pose: 
    position: 
      x: 0.242019973124
      y: 12.9707993468
      z: 0.0
    orientation: 
      x: 0.0
      y: 0.0
      z: 0.70682541155
      w: 0.707388038906
  covariance: [281575260149.4897, -14586649854.560312, 0.0, 0.0, 0.0, -1.2038144497198327e-16, -14586649854.560404, 757634186.5852479, 0.0, 0.0, 0.0, -1.0970565260344103e-18, 0.0, 0.0, 5.663604137336183e-07, -3.2476964890812848e-24, -6.404291812813716e-15, 0.0, 0.0, 0.0, -3.2476964890812848e-24, 4.50449943464734e-07, -5.400727143860664e-32, 0.0, 0.0, 0.0, -6.4042918128137164e-15, -4.192296024349326e-32, 4.5044994346473396e-07, 0.0, -1.203814449719833e-16, -1.0970565260344105e-18, 0.0, 0.0, 0.0, 9.73747802567154e-07]
twist: 
  twist: 
    linear: 
      x: 1.998956424e-09
      y: 0.0
      z: 0.0
    angular: 
      x: 0.0
      y: 0.0
      z: 0.000122605577998
  covariance: [9.999995980423017e-10, 0.0, 0.0, 0.0, 0.0, 0.0, 0.0, 2374958.268994352, 0.0, 0.0, 0.0, 0.0, 0.0, 0.0, 4.954092220131817e-07, -6.310272820918934e-26, -5.0125828419560716e-29, 0.0, 0.0, 0.0, -6.310272820918936e-26, 3.3125861591211485e-07, -3.018579630977166e-37, 0.0, 0.0, 0.0, -5.0125828419560716e-29, -2.6475061458924272e-36, 3.3125861591211485e-07, 0.0, 0.0, 0.0, 0.0, 0.0, 0.0, 9.969348590145085e-10]
---
header: 
  seq: 8933
  stamp: 
    secs: 1518208791
    nsecs: 435021877
  frame_id: "swarmone/odom"
child_frame_id: "swarmone/base_link"
pose: 
  pose: 
    position: 
      x: 0.242019853049
      y: 12.9706481301
      z: 0.0
    orientation: 
      x: 0.0
      y: 0.0
      z: 0.710353939014
      w: 0.703844642891
  covariance: [281734372536.02405, -14590801332.711542, 0.0, 0.0, 0.0, 1.6734888671763127e-16, -14590801332.711634, 757640654.2931672, 0.0, 0.0, 0.0, 1.2958817218255838e-18, 0.0, 0.0, 7.607674233748005e-07, -7.220330554874287e-23, 4.133824886670947e-15, 0.0, 0.0, 0.0, -7.220330554874287e-23, 6.372417277442848e-07, 1.1869114375941199e-30, 0.0, 0.0, 0.0, 4.133824886670947e-15, 1.3083707586927965e-30, 6.372417277442846e-07, 0.0, 1.6734888671763127e-16, 1.2958817218255838e-18, 0.0, 0.0, 0.0, 2.8477178343089463e-06]
twist: 
  twist: 
    linear: 
      x: -1.19948653397e-09
      y: 0.0
      z: 0.0
    angular: 
      x: 0.0
      y: 0.0
      z: 4.20651278725e-05
  covariance: [9.999996018238558e-10, 0.0, 0.0, 0.0, 0.0, 0.0, 0.0, 2375759.731301675, 0.0, 0.0, 0.0, 0.0, 0.0, 0.0, 6.905095590408159e-07, 1.7687052497686383e-25, -1.6286643672212766e-27, 0.0, 0.0, 0.0, 1.7687052497686383e-25, 4.4680343500618606e-07, -1.3832305983049351e-35, 0.0, 0.0, 0.0, -1.6286643672212773e-27, 9.450588693187776e-35, 4.4680343500618606e-07, 0.0, 0.0, 0.0, 0.0, 0.0, 0.0, 9.989483712811275e-10]
---
header: 
  seq: 8934
  stamp: 
    secs: 1518208791
    nsecs: 534446239
  frame_id: "swarmone/odom"
child_frame_id: "swarmone/base_link"
pose: 
  pose: 
    position: 
      x: 0.242020307043
      y: 12.9705988399
      z: 0.0
    orientation: 
      x: 0.0
      y: 0.0
      z: 0.713863824041
      w: 0.700284542686
  covariance: [281891912004.67377, -14594122876.419485, 0.0, 0.0, 0.0, 3.917591306794824e-17, -14594122876.419579, 757566133.0397813, 0.0, 0.0, 0.0, 5.166238408012393e-19, 0.0, 0.0, 5.609128638313232e-07, -1.528686019632594e-23, 1.2646340481023393e-15, 0.0, 0.0, 0.0, -1.5286860196325937e-23, 4.4609547821374343e-07, 1.526233261916054e-31, 0.0, 0.0, 0.0, 1.264634048102339e-15, -6.456819237045524e-32, 4.4609547821374343e-07, 0.0, 3.9175913067948235e-17, 5.166238408012394e-19, 0.0, 0.0, 0.0, 9.451375730748562e-07]
twist: 
  twist: 
    linear: 
      x: -3.98727716859e-10
      y: 0.0
      z: 0.0
    angular: 
      x: 0.0
      y: 0.0
      z: 0.000126297436578
  covariance: [9.999995976852016e-10, 0.0, 0.0, 0.0, 0.0, 0.0, 0.0, 2376553.125413806, 0.0, 0.0, 0.0, 0.0, 0.0, 0.0, 4.90505687204635e-07, 1.191204422096023e-26, -2.2855748103203063e-28, 0.0, 0.0, 0.0, 1.191204422096022e-26, 3.2911926805519184e-07, -1.6200092160068572e-35, 0.0, 0.0, 0.0, -2.2855748103203054e-28, 1.62001683313097e-35, 3.2911926805519184e-07, 0.0, 0.0, 0.0, 0.0, 0.0, 0.0, 9.96842562499105e-10]
---
header: 
  seq: 8935
  stamp: 
    secs: 1518208791
    nsecs: 634940863
  frame_id: "swarmone/odom"
child_frame_id: "swarmone/base_link"
pose: 
  pose: 
    position: 
      x: 0.242016428973
      y: 12.9708007362
      z: 0.0
    orientation: 
      x: 0.0
      y: 0.0
      z: 0.717356315537
      w: 0.696706478052
  covariance: [282051196189.86426, -14596683135.264244, 0.0, 0.0, 0.0, -9.678968372346589e-17, -14596683135.26434, 757409007.5964864, 0.0, 0.0, 0.0, -2.510805265803143e-18, 0.0, 0.0, 5.663604479204948e-07, 9.805547766117969e-23, -5.176616684108869e-15, 0.0, 0.0, 0.0, 9.805547766117971e-23, 4.5045005319291265e-07, 8.632278305907884e-31, 0.0, 0.0, 0.0, -5.1766166841088695e-15, 1.4778793225876683e-30, 4.5045005319291254e-07, 0.0, -9.678968372346589e-17, -2.5108052658031426e-18, 0.0, 0.0, 0.0, 9.737478025687899e-07]
twist: 
  twist: 
    linear: 
      x: 1.60025064207e-09
      y: 0.0
      z: 0.0
    angular: 
      x: 0.0
      y: 0.0
      z: 0.0001226055786
  covariance: [9.99999601969325e-10, 0.0, 0.0, 0.0, 0.0, 0.0, 0.0, 2377355.239557437, 0.0, 0.0, 0.0, 0.0, 0.0, 0.0, 4.954092914380248e-07, -5.098395686831596e-26, 1.4893129806114767e-27, 0.0, 0.0, 0.0, -5.098395686831595e-26, 3.312591032114545e-07, 4.817612534159654e-35, 0.0, 0.0, 0.0, 1.4893129806114765e-27, 4.0081012879994547e-35, 3.312591032114545e-07, 0.0, 0.0, 0.0, 0.0, 0.0, 0.0, 9.969348590145546e-10]
---
header: 
  seq: 8936
  stamp: 
    secs: 1518208791
    nsecs: 734309435
  frame_id: "swarmone/odom"
child_frame_id: "swarmone/base_link"
pose: 
  pose: 
    position: 
      x: 0.242007783227
      y: 12.971096712
      z: 0.0
    orientation: 
      x: 0.0
      y: 0.0
      z: 0.713863775301
      w: 0.700284592371
  covariance: [282208728136.56055, -14598425559.32133, 0.0, 0.0, 0.0, -1.4496652374020647e-16, -14598425559.321423, 757172792.5675403, 0.0, 0.0, 0.0, -3.267986332436387e-18, 0.0, 0.0, 5.663604086554715e-07, 7.176187531105889e-23, -7.676059804529084e-15, 0.0, 0.0, 0.0, 7.176187531105889e-23, 4.5044989450396957e-07, 1.271515875753348e-30, 0.0, 0.0, 0.0, -7.676059804529084e-15, 1.2690802331071338e-30, 4.504498945039694e-07, 0.0, -1.4496652374020647e-16, -3.267986332436387e-18, 0.0, 0.0, 0.0, 9.737478025669114e-07]
twist: 
  twist: 
    linear: 
      x: 2.3996036139e-09
      y: 0.0
      z: 0.0
    angular: 
      x: 0.0
      y: 0.0
      z: 9.19541834773e-05
  covariance: [9.999995974588246e-10, 0.0, 0.0, 0.0, 0.0, 0.0, 0.0, 2378148.543382885, 0.0, 0.0, 0.0, 0.0, 0.0, 0.0, 4.954092117017331e-07, -7.562056574804531e-26, 1.4524271568979877e-27, 0.0, 0.0, 0.0, -7.562056574804531e-26, 3.3125854355497966e-07, 1.617968589933063e-35, 0.0, 0.0, 0.0, 1.4524271568979876e-27, 4.440213273775527e-35, 3.3125854355497966e-07, 0.0, 0.0, 0.0, 0.0, 0.0, 0.0, 9.969348590145017e-10]
---
header: 
  seq: 8937
  stamp: 
    secs: 1518208791
    nsecs: 834742069
  frame_id: "swarmone/odom"
child_frame_id: "swarmone/base_link"
pose: 
  pose: 
    position: 
      x: 0.242004878338
      y: 12.9712479442
      z: 0.0
    orientation: 
      x: 0.0
      y: 0.0
      z: 0.717356391944
      w: 0.69670639938
  covariance: [282368056951.6909, -14600982870.430159, 0.0, 0.0, 0.0, -8.978807038754211e-17, -14600982870.430254, 757015759.3157139, 0.0, 0.0, 0.0, -2.3784001824397183e-18, 0.0, 0.0, 6.205049286103509e-07, 1.0563021600017317e-22, -4.167862769393908e-15, 0.0, 0.0, 0.0, 1.0563021600017317e-22, 4.960134047545716e-07, 1.186667212193233e-30, 0.0, 0.0, 0.0, -4.167862769393908e-15, 1.1335154609964723e-30, 4.960134047545716e-07, 0.0, -8.978807038754211e-17, -2.3784001824397183e-18, 0.0, 0.0, 0.0, 1.302765441729043e-06]
twist: 
  twist: 
    linear: 
      x: 1.20045452615e-09
      y: 0.0
      z: 0.0
    angular: 
      x: 0.0
      y: 0.0
      z: 9.17595286401e-05
  covariance: [9.99999601723661e-10, 0.0, 0.0, 0.0, 0.0, 0.0, 0.0, 2378950.5213977024, 0.0, 0.0, 0.0, 0.0, 0.0, 0.0, 5.456918807667478e-07, -6.382264465690716e-26, 1.864549309721468e-27, 0.0, 0.0, 0.0, -6.382264465690714e-26, 3.549151447828988e-07, -1.383335113203948e-35, 0.0, 0.0, 0.0, 1.8645493097214684e-27, 8.630081103101664e-35, 3.549151447828988e-07, 0.0, 0.0, 0.0, 0.0, 0.0, 0.0, 9.977060106443241e-10]
---
header: 
  seq: 8938
  stamp: 
    secs: 1518208791
    nsecs: 935201406
  frame_id: "swarmone/odom"
child_frame_id: "swarmone/base_link"
pose: 
  pose: 
    position: 
      x: 0.241996048186
      y: 12.971550281
      z: 0.0
    orientation: 
      x: 0.0
      y: 0.0
      z: 0.706825414906
      w: 0.707388035552
  covariance: [282527461427.8369, -14602742607.423794, 0.0, 0.0, 0.0, -1.644463254731693e-16, -14602742607.423887, 756776974.351423, 0.0, 0.0, 0.0, -1.831188725385154e-18, 0.0, 0.0, 5.690338433884666e-07, -4.023334119253359e-24, -7.789242739479099e-15, 0.0, 0.0, 0.0, -4.0233341192533596e-24, 4.526017030824669e-07, -7.360787572167411e-32, 0.0, 0.0, 0.0, -7.789242739479098e-15, -6.444045765922606e-32, 4.526017030824667e-07, 0.0, -1.644463254731693e-16, -1.831188725385154e-18, 0.0, 0.0, 0.0, 9.880529173148425e-07]
twist: 
  twist: 
    linear: 
      x: 2.39725442708e-09
      y: 0.0
      z: 0.0
    angular: 
      x: 0.0
      y: 0.0
      z: 0.000120839422018
  covariance: [9.999996018296134e-10, 0.0, 0.0, 0.0, 0.0, 0.0, 0.0, 2379752.892992985, 0.0, 0.0, 0.0, 0.0, 0.0, 0.0, 4.978258275025209e-07, -7.853769637274378e-26, -6.190653771941907e-29, 0.0, 0.0, 0.0, -7.853769637274375e-26, 3.3232363193800555e-07, -1.974665754597118e-37, 0.0, 0.0, 0.0, -6.190653771941906e-29, -1.868405789524886e-36, 3.3232363193800555e-07, 0.0, 0.0, 0.0, 0.0, 0.0, 0.0, 9.96979012949156e-10]
---
header: 
  seq: 8939
  stamp: 
    secs: 1518208792
    nsecs:  34702301
  frame_id: "swarmone/odom"
child_frame_id: "swarmone/base_link"
pose: 
  pose: 
    position: 
      x: 0.241995578782
      y: 12.9709566238
      z: 0.0
    orientation: 
      x: 0.0
      y: 0.0
      z: 0.717356314364
      w: 0.69670647926
  covariance: [282685483272.46344, -14606855739.82293, 0.0, 0.0, 0.0, 2.9167558580980067e-16, -14606855739.823025, 756783380.6921259, 0.0, 0.0, 0.0, 5.571280267787423e-18, 0.0, 0.0, 5.663604133175464e-07, -2.9099748935869135e-22, 1.5367766176310198e-14, 0.0, 0.0, 0.0, -2.909974893586913e-22, 4.5044994207906816e-07, 1.0372814203085656e-29, 0.0, 0.0, 0.0, 1.5367766176310195e-14, 1.0252499804228581e-29, 4.504499420790676e-07, 0.0, 2.916755858098006e-16, 5.571280267787423e-18, 0.0, 0.0, 0.0, 9.737478025671348e-07]
twist: 
  twist: 
    linear: 
      x: -4.79721916531e-09
      y: 0.0
      z: 0.0
    angular: 
      x: 0.0
      y: 0.0
      z: 0.000122605577986
  covariance: [9.99999597994152e-10, 0.0, 0.0, 0.0, 0.0, 0.0, 0.0, 2380547.7873016577, 0.0, 0.0, 0.0, 0.0, 0.0, 0.0, 4.954092211704898e-07, 1.5136029471265262e-25, -4.4211483888465774e-27, 0.0, 0.0, 0.0, 1.5136029471265265e-25, 3.3125861004262593e-07, 1.7722009831885283e-34, 0.0, 0.0, 0.0, -4.42114838884658e-27, 2.8947119471170956e-34, 3.3125861004262593e-07, 0.0, 0.0, 0.0, 0.0, 0.0, 0.0, 9.969348590145077e-10]
---
header: 
  seq: 8940
  stamp: 
    secs: 1518208792
    nsecs: 135217428
  frame_id: "swarmone/odom"
child_frame_id: "swarmone/base_link"
pose: 
  pose: 
    position: 
      x: 0.241982310649
      y: 12.971410866
      z: 0.0
    orientation: 
      x: 0.0
      y: 0.0
      z: 0.710353497751
      w: 0.703845088235
  covariance: [282845119504.8514, -14608614749.678057, 0.0, 0.0, 0.0, -2.1781006227085853e-16, -14608614749.678154, 756544421.0666096, 0.0, 0.0, 0.0, -3.4723908142334664e-18, 0.0, 0.0, 5.636536774042632e-07, 6.827632356456512e-23, -1.1591802416165287e-14, 0.0, 0.0, 0.0, 6.827632356456512e-23, 4.4828142029901433e-07, 1.7260888665560242e-30, 0.0, 0.0, 0.0, -1.1591802416165287e-14, 1.6613834286744546e-30, 4.482814202990139e-07, 0.0, -2.1781006227085853e-16, -3.4723908142334664e-18, 0.0, 0.0, 0.0, 9.594426878227233e-07]
twist: 
  twist: 
    linear: 
      x: 3.59895663965e-09
      y: 0.0
      z: 0.0
    angular: 
      x: 0.0
      y: 0.0
      z: 0.000124424128216
  covariance: [9.999996020505265e-10, 0.0, 0.0, 0.0, 0.0, 0.0, 0.0, 2381350.963833343, 0.0, 0.0, 0.0, 0.0, 0.0, 0.0, 4.929693845199135e-07, -1.1159563861086519e-25, 1.0273414883167054e-27, 0.0, 0.0, 0.0, -1.1159563861086523e-25, 3.301911686219966e-07, 4.686559918664931e-35, 0.0, 0.0, 0.0, 1.0273414883167054e-27, 2.8720122735088187e-35, 3.301911686219966e-07, 0.0, 0.0, 0.0, 0.0, 0.0, 0.0, 9.968893952517797e-10]
---
header: 
  seq: 8941
  stamp: 
    secs: 1518208792
    nsecs: 234665394
  frame_id: "swarmone/odom"
child_frame_id: "swarmone/base_link"
pose: 
  pose: 
    position: 
      x: 0.241981855347
      y: 12.9714603221
      z: 0.0
    orientation: 
      x: 0.0
      y: 0.0
      z: 0.713863827381
      w: 0.700284539282
  covariance: [283003192470.8562, -14611935837.72878, 0.0, 0.0, 0.0, -2.3841848619126635e-17, -14611935837.728876, 756469874.7277646, 0.0, 0.0, 0.0, -3.7841114464479623e-19, 0.0, 0.0, 5.636536397599826e-07, 1.5653959070996356e-23, -1.2755190680783163e-15, 0.0, 0.0, 0.0, 1.5653959070996356e-23, 4.4828129993876507e-07, 2.1068058819930926e-31, 0.0, 0.0, 0.0, -1.2755190680783157e-15, -1.191649387689309e-31, 4.4828129993876507e-07, 0.0, -2.3841848619126635e-17, -3.7841114464479623e-19, 0.0, 0.0, 0.0, 9.594426878209437e-07]
twist: 
  twist: 
    linear: 
      x: 4.00390732288e-10
      y: 0.0
      z: 0.0
    angular: 
      x: 0.0
      y: 0.0
      z: 0.000124424127558
  covariance: [9.99999597780186e-10, 0.0, 0.0, 0.0, 0.0, 0.0, 0.0, 2382145.7908703065, 0.0, 0.0, 0.0, 0.0, 0.0, 0.0, 4.929693082851963e-07, -1.2277695075806463e-26, 2.357943217561086e-28, 0.0, 0.0, 0.0, -1.2277695075806457e-26, 3.301906369205634e-07, 4.0937463304677613e-36, 0.0, 0.0, 0.0, 2.3579432175610852e-28, -4.093742524476189e-36, 3.301906369205634e-07, 0.0, 0.0, 0.0, 0.0, 0.0, 0.0, 9.968893952517282e-10]
---
header: 
  seq: 8942
  stamp: 
    secs: 1518208792
    nsecs: 334894180
  frame_id: "swarmone/odom"
child_frame_id: "swarmone/base_link"
pose: 
  pose: 
    position: 
      x: 0.241978000286
      y: 12.9716610201
      z: 0.0
    orientation: 
      x: 0.0
      y: 0.0
      z: 0.717356773989
      w: 0.696706006011
  covariance: [283162555292.6763, -14614485207.103714, 0.0, 0.0, 0.0, -2.2884176783071003e-16, -14614485207.10381, 756313101.6020683, 0.0, 0.0, 0.0, -6.364471920822179e-18, 0.0, 0.0, 7.663643376379298e-07, 3.1338110437545297e-22, -5.4628032616383155e-15, 0.0, 0.0, 0.0, 3.1338110437545297e-22, 6.437128048431958e-07, 7.391586724799157e-30, 0.0, 0.0, 0.0, -5.462803261638315e-15, 7.2632434362409e-30, 6.437128048431958e-07, 0.0, -2.2884176783071003e-16, -6.36447192082218e-18, 0.0, 0.0, 0.0, 2.9478536375313806e-06]
twist: 
  twist: 
    linear: 
      x: 1.60051694034e-09
      y: 0.0
      z: 0.0
    angular: 
      x: 0.0
      y: 0.0
      z: 4.06386347169e-05
  covariance: [9.999996009136325e-10, 0.0, 0.0, 0.0, 0.0, 0.0, 0.0, 2382947.037462407, 0.0, 0.0, 0.0, 0.0, 0.0, 0.0, 6.967744108255633e-07, -2.4305605639528107e-25, 7.101184241218873e-27, 0.0, 0.0, 0.0, -2.4305605639528107e-25, 4.5186400347741015e-07, 3.7416013744629033e-34, 0.0, 0.0, 0.0, 7.101184241218871e-27, 4.130777689826328e-34, 4.5186400347741015e-07, 0.0, 0.0, 0.0, 0.0, 0.0, 0.0, 9.989840336265829e-10]
---
header: 
  seq: 8943
  stamp: 
    secs: 1518208792
    nsecs: 435396194
  frame_id: "swarmone/odom"
child_frame_id: "swarmone/base_link"
pose: 
  pose: 
    position: 
      x: 0.241969160989
      y: 12.9719636421
      z: 0.0
    orientation: 
      x: 0.0
      y: 0.0
      z: 0.713863825208
      w: 0.700284541497
  covariance: [283322385834.30396, -14616241015.353048, 0.0, 0.0, 0.0, -2.427738979263904e-16, -14616241015.353144, 756074125.5232738, 0.0, 0.0, 0.0, -6.1436333831252865e-18, 0.0, 0.0, 5.609129023378616e-07, 9.293596283176602e-23, -7.68636703462862e-15, 0.0, 0.0, 0.0, 9.293596283176606e-23, 4.4609560074862834e-07, 1.3521088289386632e-30, 0.0, 0.0, 0.0, -7.686367034628622e-15, 1.9016542416451372e-30, 4.4609560074862813e-07, 0.0, -2.427738979263904e-16, -6.1436333831252865e-18, 0.0, 0.0, 0.0, 9.451375730766553e-07]
twist: 
  twist: 
    linear: 
      x: 2.39818434989e-09
      y: 0.0
      z: 0.0
    angular: 
      x: 0.0
      y: 0.0
      z: 0.000126297437254
  covariance: [9.9999960199913e-10, 0.0, 0.0, 0.0, 0.0, 0.0, 0.0, 2383750.648669386, 0.0, 0.0, 0.0, 0.0, 0.0, 0.0, 4.905057649660978e-07, -7.240651075969384e-26, 1.392068049351678e-27, 0.0, 0.0, 0.0, -7.240651075969389e-26, 3.291198069691739e-07, 3.743125491906734e-35, 0.0, 0.0, 0.0, 1.392068049351679e-27, 3.703062877746994e-35, 3.291198069691739e-07, 0.0, 0.0, 0.0, 0.0, 0.0, 0.0, 9.968425624991588e-10]
---
header: 
  seq: 8944
  stamp: 
    secs: 1518208792
    nsecs: 534940004
  frame_id: "swarmone/odom"
child_frame_id: "swarmone/base_link"
pose: 
  pose: 
    position: 
      x: 0.241970111468
      y: 12.9719141551
      z: 0.0
    orientation: 
      x: 0.0
      y: 0.0
      z: 0.713863837985
      w: 0.700284528472
  covariance: [283480801916.87854, -14618772013.977879, 0.0, 0.0, 0.0, 2.442849591670762e-17, -14618772013.97797, 755918462.4042927, 0.0, 0.0, 0.0, 4.691792116999659e-19, 0.0, 0.0, 5.716744477834907e-07, -1.6568001082207376e-23, 1.2918483428661537e-15, 0.0, 0.0, 0.0, -1.6568001082207376e-23, 4.5473647260605797e-07, 1.5085666396432275e-31, 0.0, 0.0, 0.0, 1.2918483428661537e-15, -5.092634426238602e-32, 4.5473647260605797e-07, 0.0, 2.442849591670762e-17, 4.691792116999659e-19, 0.0, 0.0, 0.0, 1.0023580320594083e-06]
twist: 
  twist: 
    linear: 
      x: -3.99472936501e-10
      y: 0.0
      z: 0.0
    angular: 
      x: 0.0
      y: 0.0
      z: 0.000119123426077
  covariance: [9.999995981674533e-10, 0.0, 0.0, 0.0, 0.0, 0.0, 0.0, 2384546.776177614, 0.0, 0.0, 0.0, 0.0, 0.0, 0.0, 5.002192665322065e-07, 1.3314234271856372e-26, -2.5571343990621723e-28, 0.0, 0.0, 0.0, 1.3314234271856372e-26, 3.33384340059841e-07, 2.0028298825239802e-35, 0.0, 0.0, 0.0, -2.5571343990621714e-28, -2.0028295118589987e-35, 3.33384340059841e-07, 0.0, 0.0, 0.0, 0.0, 0.0, 0.0, 9.97021912856686e-10]
---
header: 
  seq: 8945
  stamp: 
    secs: 1518208792
    nsecs: 634310961
  frame_id: "swarmone/odom"
child_frame_id: "swarmone/base_link"
pose: 
  pose: 
    position: 
      x: 0.241967267562
      y: 12.9720622236
      z: 0.0
    orientation: 
      x: 0.0
      y: 0.0
      z: 0.713863827967
      w: 0.700284538684
  covariance: [283639013486.0643, -14621298069.782513, 0.0, 0.0, 0.0, -7.250835953439033e-17, -14621298069.782606, 755763064.1933793, 0.0, 0.0, 0.0, -1.3926146049135753e-18, 0.0, 0.0, 5.63653637017125e-07, 4.6914233477470513e-23, -3.8217246301170276e-15, 0.0, 0.0, 0.0, 4.691423347747052e-23, 4.482812911798682e-07, 4.206366214605113e-31, 0.0, 0.0, 0.0, -3.8217246301170276e-15, 4.011493587070708e-31, 4.4828129117986825e-07, 0.0, -7.250835953439031e-17, -1.3926146049135755e-18, 0.0, 0.0, 0.0, 9.59442687820815e-07]
twist: 
  twist: 
    linear: 
      x: 1.20039207957e-09
      y: 0.0
      z: 0.0
    angular: 
      x: 0.0
      y: 0.0
      z: 0.000124424127502
  covariance: [9.999995974684902e-10, 0.0, 0.0, 0.0, 0.0, 0.0, 0.0, 2385341.6980257235, 0.0, 0.0, 0.0, 0.0, 0.0, 0.0, 4.929693027340565e-07, -3.678775043387575e-26, 7.065463459768628e-28, 0.0, 0.0, 0.0, -3.678775043387576e-26, 3.301905982748622e-07, 2.6742836347064686e-37, 0.0, 0.0, 0.0, 7.065463459768628e-28, 3.616804841312244e-35, 3.301905982748622e-07, 0.0, 0.0, 0.0, 0.0, 0.0, 0.0, 9.968893952517245e-10]
---
header: 
  seq: 8946
  stamp: 
    secs: 1518208792
    nsecs: 734808207
  frame_id: "swarmone/odom"
child_frame_id: "swarmone/base_link"
pose: 
  pose: 
    position: 
      x: 0.241961451258
      y: 12.9723650509
      z: 0.0
    orientation: 
      x: 0.0
      y: 0.0
      z: 0.713863777218
      w: 0.700284590417
  covariance: [283799089990.72534, -14623852204.43295, 0.0, 0.0, 0.0, -1.4735187300467855e-16, -14623852204.433044, 755605899.7310464, 0.0, 0.0, 0.0, -2.8300758179139875e-18, 0.0, 0.0, 5.690338446473825e-07, 7.395603265875135e-23, -7.798837890271111e-15, 0.0, 0.0, 0.0, 7.395603265875135e-23, 4.526016741956346e-07, 1.2732632179130812e-30, 0.0, 0.0, 0.0, -7.798837890271112e-15, 1.4033645360889058e-30, 4.526016741956343e-07, 0.0, -1.4735187300467855e-16, -2.830075817913988e-18, 0.0, 0.0, 0.0, 9.880529173148956e-07]
twist: 
  twist: 
    linear: 
      x: 2.39986636379e-09
      y: 0.0
      z: 0.0
    angular: 
      x: 0.0
      y: 0.0
      z: 9.06295666144e-05
  covariance: [9.99999601979716e-10, 0.0, 0.0, 0.0, 0.0, 0.0, 0.0, 2386145.8093307423, 0.0, 0.0, 0.0, 0.0, 0.0, 0.0, 4.978258300405084e-07, -7.85993097427098e-26, 1.5095802873095587e-27, 0.0, 0.0, 0.0, -7.859930974270981e-26, 3.3232364930597546e-07, 4.429789319757219e-35, 0.0, 0.0, 0.0, 1.5095802873095587e-27, 4.834420111366297e-35, 3.3232364930597546e-07, 0.0, 0.0, 0.0, 0.0, 0.0, 0.0, 9.969790129491577e-10]
---
header: 
  seq: 8947
  stamp: 
    secs: 1518208792
    nsecs: 835290432
  frame_id: "swarmone/odom"
child_frame_id: "swarmone/base_link"
pose: 
  pose: 
    position: 
      x: 0.241956611248
      y: 12.9726170491
      z: 0.0
    orientation: 
      x: 0.0
      y: 0.0
      z: 0.713864619357
      w: 0.700283731947
  covariance: [283959214718.33563, -14626405411.271364, 0.0, 0.0, 0.0, -4.0523051553877843e-16, -14626405411.271461, 755448754.7548542, 0.0, 0.0, 0.0, -7.782891482480546e-18, 0.0, 0.0, 8.24007793085453e-07, 3.3885742836260837e-22, -6.086664382373479e-15, 0.0, 0.0, 0.0, 3.3885742836260846e-22, 7.149109416482714e-07, 1.1833561188171585e-29, 0.0, 0.0, 0.0, -6.086664382373482e-15, 1.1605140793350884e-29, 7.149109416482712e-07, 0.0, -4.052305155387784e-16, -7.782891482480548e-18, 0.0, 0.0, 0.0, 4.34975488265179e-06]
twist: 
  twist: 
    linear: 
      x: 1.99964403282e-09
      y: 0.0
      z: 0.0
    angular: 
      x: 0.0
      y: 0.0
      z: 2.7556072305e-05
  covariance: [9.999996019202261e-10, 0.0, 0.0, 0.0, 0.0, 0.0, 0.0, 2386949.9811060186, 0.0, 0.0, 0.0, 0.0, 0.0, 0.0, 7.637316561289699e-07, -4.074657701402555e-25, 7.825778732527367e-27, 0.0, 0.0, 0.0, -4.074657701402555e-25, 5.140949465355215e-07, 5.374865061124115e-34, 0.0, 0.0, 0.0, 7.825778732527368e-27, 7.245993354376879e-34, 5.140949465355215e-07, 0.0, 0.0, 0.0, 0.0, 0.0, 0.0, 9.993110978501064e-10]
---
header: 
  seq: 8948
  stamp: 
    secs: 1518208792
    nsecs: 934707642
  frame_id: "swarmone/odom"
child_frame_id: "swarmone/base_link"
pose: 
  pose: 
    position: 
      x: 0.241952816058
      y: 12.9728146234
      z: 0.0
    orientation: 
      x: 0.0
      y: 0.0
      z: 0.713863831306
      w: 0.700284535281
  covariance: [284117713292.37067, -14628930816.459444, 0.0, 0.0, 0.0, -2.0844675800798755e-16, -14628930816.459543, 755293250.7968569, 0.0, 0.0, 0.0, -4.003852887293761e-18, 0.0, 0.0, 5.663604105228076e-07, 6.377660986246854e-23, -5.12058992913384e-15, 0.0, 0.0, 0.0, 6.377660986246856e-23, 4.5044993364594334e-07, 3.2531079075554463e-31, 0.0, 0.0, 0.0, -5.1205899291338385e-15, 4.661625533787253e-31, 4.5044993364594334e-07, 0.0, -2.0844675800798758e-16, -4.003852887293761e-18, 0.0, 0.0, 0.0, 9.737478025670882e-07]
twist: 
  twist: 
    linear: 
      x: 1.59999530205e-09
      y: 0.0
      z: 0.0
    angular: 
      x: 0.0
      y: 0.0
      z: 0.00012260557779
  covariance: [9.99999597656657e-10, 0.0, 0.0, 0.0, 0.0, 0.0, 0.0, 2387745.8072249633, 0.0, 0.0, 0.0, 0.0, 0.0, 0.0, 4.954092156673146e-07, -5.061214898220242e-26, 9.720587396791053e-28, 0.0, 0.0, 0.0, -5.061214898220243e-26, 3.3125857717565456e-07, -3.472374955271386e-36, 0.0, 0.0, 0.0, 9.720587396791051e-28, 4.537662886729421e-36, 3.3125857717565456e-07, 0.0, 0.0, 0.0, 0.0, 0.0, 0.0, 9.96934859014504e-10]
---
header: 
  seq: 8949
  stamp: 
    secs: 1518208793
    nsecs:  35168886
  frame_id: "swarmone/odom"
child_frame_id: "swarmone/base_link"
pose: 
  pose: 
    position: 
      x: 0.24194894133
      y: 12.9730163619
      z: 0.0
    orientation: 
      x: 0.0
      y: 0.0
      z: 0.713863831306
      w: 0.70028453528
  covariance: [284277948139.9372, -14631482367.213871, 0.0, 0.0, 0.0, -9.771924610352061e-17, -14631482367.21397, 755136127.0711145, 0.0, 0.0, 0.0, -1.8768202617550906e-18, 0.0, 0.0, 5.663604467723201e-07, 6.446169362384113e-23, -5.173976698743387e-15, 0.0, 0.0, 0.0, 6.446169362384115e-23, 4.5045004954329565e-07, 1.0139963493743052e-30, 0.0, 0.0, 0.0, -5.173976698743386e-15, 5.242548311576117e-31, 4.5045004954329565e-07, 0.0, -9.77192461035206e-17, -1.876820261755091e-18, 0.0, 0.0, 0.0, 9.737478025687357e-07]
twist: 
  twist: 
    linear: 
      x: 1.59986882336e-09
      y: 0.0
      z: 0.0
    angular: 
      x: 0.0
      y: 0.0
      z: 0.000122605578574
  covariance: [9.999996018370856e-10, 0.0, 0.0, 0.0, 0.0, 0.0, 0.0, 2388550.170419244, 0.0, 0.0, 0.0, 0.0, 0.0, 0.0, 4.954092891085562e-07, -5.0971380702350297e-26, 9.789574488051243e-28, 0.0, 0.0, 0.0, -5.0971380702350297e-26, 3.312590869044479e-07, 4.0034439545008734e-36, 0.0, 0.0, 0.0, 9.78957448805124e-28, 5.628232575583461e-35, 3.312590869044479e-07, 0.0, 0.0, 0.0, 0.0, 0.0, 0.0, 9.96934859014553e-10]
---
header: 
  seq: 8950
  stamp: 
    secs: 1518208793
    nsecs: 135027170
  frame_id: "swarmone/odom"
child_frame_id: "swarmone/base_link"
pose: 
  pose: 
    position: 
      x: 0.241946069661
      y: 12.9731658634
      z: 0.0
    orientation: 
      x: 0.0
      y: 0.0
      z: 0.71735634211
      w: 0.696706450691
  covariance: [284437292799.6508, -14634017905.18664, 0.0, 0.0, 0.0, -7.855536446588084e-17, -14634017905.186739, 754979926.5198036, 0.0, 0.0, 0.0, -2.0516647975844633e-18, 0.0, 0.0, 5.868628174347193e-07, 8.430489250293376e-23, -3.982472175936706e-15, 0.0, 0.0, 0.0, 8.430489250293375e-23, 4.672040347660496e-07, 1.8918170694297289e-31, 0.0, 0.0, 0.0, -3.982472175936707e-15, 7.643276806318842e-31, 4.672040347660496e-07, 0.0, -7.855536446588084e-17, -2.0516647975844633e-18, 0.0, 0.0, 0.0, 1.088188720536546e-06]
twist: 
  twist: 
    linear: 
      x: 1.20013720923e-09
      y: 0.0
      z: 0.0
    angular: 
      x: 0.0
      y: 0.0
      z: 0.000109770562009
  covariance: [9.999995994329134e-10, 0.0, 0.0, 0.0, 0.0, 0.0, 0.0, 2389349.884890046, 0.0, 0.0, 0.0, 0.0, 0.0, 0.0, 5.14114487623169e-07, -4.657643984721533e-26, 1.3606306324148014e-27, 0.0, 0.0, 0.0, -4.6576439847215286e-26, 3.39681302060858e-07, 1.1308631566354626e-37, 0.0, 0.0, 0.0, 1.3606306324148007e-27, 3.717574242302181e-38, 3.39681302060858e-07, 0.0, 0.0, 0.0, 0.0, 0.0, 0.0, 9.972557345796676e-10]
---
header: 
  seq: 8951
  stamp: 
    secs: 1518208793
    nsecs: 234435558
  frame_id: "swarmone/odom"
child_frame_id: "swarmone/base_link"
pose: 
  pose: 
    position: 
      x: 0.241940301383
      y: 12.9733633459
      z: 0.0
    orientation: 
      x: 0.0
      y: 0.0
      z: 0.71035350112
      w: 0.703845084835
  covariance: [284595952016.38824, -14635747371.65302, 0.0, 0.0, 0.0, -1.00484485440491e-16, -14635747371.653122, 754743526.4144965, 0.0, 0.0, 0.0, -1.6457795955038015e-18, 0.0, 0.0, 5.663604100712727e-07, 3.0600715426303995e-23, -5.119720111139878e-15, 0.0, 0.0, 0.0, 3.0600715426304e-23, 4.5044993172566237e-07, 3.8743958461445344e-31, 0.0, 0.0, 0.0, -5.119720111139878e-15, 3.3513741036212773e-31, 4.5044993172566237e-07, 0.0, -1.00484485440491e-16, -1.6457795955038015e-18, 0.0, 0.0, 0.0, 9.737478025669817e-07]
twist: 
  twist: 
    linear: 
      x: 1.5998591011e-09
      y: 0.0
      z: 0.0
    angular: 
      x: 0.0
      y: 0.0
      z: 0.000122605577911
  covariance: [9.99999597620084e-10, 0.0, 0.0, 0.0, 0.0, 0.0, 0.0, 2390146.173651292, 0.0, 0.0, 0.0, 0.0, 0.0, 0.0, 4.954092145858993e-07, -5.044842037863957e-26, 4.644754085383393e-28, 0.0, 0.0, 0.0, -5.0448420378639584e-26, 3.3125856398677347e-07, 8.065981490916695e-36, 0.0, 0.0, 0.0, 4.644754085383394e-28, -1.8991041196865687e-36, 3.3125856398677347e-07, 0.0, 0.0, 0.0, 0.0, 0.0, 0.0, 9.969348590145036e-10]
---
header: 
  seq: 8952
  stamp: 
    secs: 1518208793
    nsecs: 334906816
  frame_id: "swarmone/odom"
child_frame_id: "swarmone/base_link"
pose: 
  pose: 
    position: 
      x: 0.241938907799
      y: 12.9735147206
      z: 0.0
    orientation: 
      x: 0.0
      y: 0.0
      z: 0.713863847421
      w: 0.700284518853
  covariance: [284756441081.93555, -14639100226.835041, 0.0, 0.0, 0.0, -7.690349657442864e-17, -14639100226.835142, 754668189.0843394, 0.0, 0.0, 0.0, -1.2324833306022918e-18, 0.0, 0.0, 5.794057325492225e-07, 5.300148134938155e-23, -3.9638771787784084e-15, 0.0, 0.0, 0.0, 5.300148134938155e-23, 4.610424289893861e-07, 4.355919719478649e-31, 0.0, 0.0, 0.0, -3.963877178778407e-15, 5.63418832032e-31, 4.610424289893861e-07, 0.0, -7.690349657442864e-17, -1.2324833306022918e-18, 0.0, 0.0, 0.0, 1.045273376299259e-06]
twist: 
  twist: 
    linear: 
      x: 1.20026774674e-09
      y: 0.0
      z: 0.0
    angular: 
      x: 0.0
      y: 0.0
      z: 0.000114255910236
  covariance: [9.99999601876769e-10, 0.0, 0.0, 0.0, 0.0, 0.0, 0.0, 2390951.1560416925, 0.0, 0.0, 0.0, 0.0, 0.0, 0.0, 5.07264871418192e-07, -4.359337631783082e-26, 8.372709470146848e-28, 0.0, 0.0, 0.0, -4.3593376317830797e-26, 3.365481380195346e-07, 3.195317768101851e-35, 0.0, 0.0, 0.0, 8.372709470146848e-28, -4.813353854087198e-35, 3.365481380195346e-07, 0.0, 0.0, 0.0, 0.0, 0.0, 0.0, 9.971436008267075e-10]
---
header: 
  seq: 8953
  stamp: 
    secs: 1518208793
    nsecs: 435422897
  frame_id: "swarmone/odom"
child_frame_id: "swarmone/base_link"
pose: 
  pose: 
    position: 
      x: 0.241934058165
      y: 12.9737671944
      z: 0.0
    orientation: 
      x: 0.0
      y: 0.0
      z: 0.717356322181
      w: 0.696706471211
  covariance: [284917051260.0467, -14641650805.484009, 0.0, 0.0, 0.0, -1.2759793552457867e-16, -14641650805.48411, 754510945.0015482, 0.0, 0.0, 0.0, -3.2896090597043957e-18, 0.0, 0.0, 5.716744808086378e-07, 1.2731305430015612e-22, -6.529420282847619e-15, 0.0, 0.0, 0.0, 1.273130543001561e-22, 4.547365796095517e-07, 2.259284994210794e-30, 0.0, 0.0, 0.0, -6.529420282847619e-15, 1.622297950722616e-30, 4.547365796095515e-07, 0.0, -1.2759793552457867e-16, -3.2896090597043953e-18, 0.0, 0.0, 0.0, 1.0023580320610306e-06]
twist: 
  twist: 
    linear: 
      x: 2.00026880476e-09
      y: 0.0
      z: 0.0
    angular: 
      x: 0.0
      y: 0.0
      z: 0.000119123426634
  covariance: [9.999996020543212e-10, 0.0, 0.0, 0.0, 0.0, 0.0, 0.0, 2391756.6783968178, 0.0, 0.0, 0.0, 0.0, 0.0, 0.0, 5.00219333976695e-07, -6.728292494706888e-26, 1.965419960636006e-27, 0.0, 0.0, 0.0, -6.72829249470689e-26, 3.333848197314055e-07, 1.6134321510965508e-35, 0.0, 0.0, 0.0, 1.965419960636006e-27, 8.111417784460889e-36, 3.333848197314055e-07, 0.0, 0.0, 0.0, 0.0, 0.0, 0.0, 9.97021912856729e-10]
---
header: 
  seq: 8954
  stamp: 
    secs: 1518208793
    nsecs: 534912109
  frame_id: "swarmone/odom"
child_frame_id: "swarmone/base_link"
pose: 
  pose: 
    position: 
      x: 0.241923946033
      y: 12.9741133704
      z: 0.0
    orientation: 
      x: 0.0
      y: 0.0
      z: 0.713863825215
      w: 0.70028454149
  covariance: [285076053414.72766, -14643378822.539354, 0.0, 0.0, 0.0, -1.6768635147191684e-16, -14643378822.539454, 754274316.2762703, 0.0, 0.0, 0.0, -3.802258920184526e-18, 0.0, 0.0, 5.609128660571068e-07, 1.0744516788566118e-22, -8.88283368504741e-15, 0.0, 0.0, 0.0, 1.074451678856612e-22, 4.460954849586043e-07, 2.2937280537596532e-30, 0.0, 0.0, 0.0, -8.882833685047413e-15, 2.0535668374396013e-30, 4.460954849586042e-07, 0.0, -1.6768635147191686e-16, -3.802258920184527e-18, 0.0, 0.0, 0.0, 9.451375730749137e-07]
twist: 
  twist: 
    linear: 
      x: 2.79999588706e-09
      y: 0.0
      z: 0.0
    angular: 
      x: 0.0
      y: 0.0
      z: 0.000126297436742
  covariance: [9.999995979469503e-10, 0.0, 0.0, 0.0, 0.0, 0.0, 0.0, 2392554.149703515, 0.0, 0.0, 0.0, 0.0, 0.0, 0.0, 4.905056915819575e-07, -8.351170180849405e-26, 1.6040520827122841e-27, 0.0, 0.0, 0.0, -8.351170180849406e-26, 3.291192950763508e-07, 2.0547622251811375e-35, 0.0, 0.0, 0.0, 1.6040520827122843e-27, 6.896893074871787e-35, 3.291192950763508e-07, 0.0, 0.0, 0.0, 0.0, 0.0, 0.0, 9.968425624991081e-10]
---
header: 
  seq: 8955
  stamp: 
    secs: 1518208793
    nsecs: 634338379
  frame_id: "swarmone/odom"
child_frame_id: "swarmone/base_link"
pose: 
  pose: 
    position: 
      x: 0.241917304585
      y: 12.9744591592
      z: 0.0
    orientation: 
      x: 0.0
      y: 0.0
      z: 0.713863827967
      w: 0.700284538684
  covariance: [285235064283.8213, -14645900545.860521, 0.0, 0.0, 0.0, -1.6592133593838264e-16, -14645900545.86062, 754118790.0379791, 0.0, 0.0, 0.0, -3.186725432284158e-18, 0.0, 0.0, 5.636536389846575e-07, 1.0948752443382458e-22, -8.918888935200502e-15, 0.0, 0.0, 0.0, 1.094875244338246e-22, 4.4828129745716383e-07, 2.3651210831408753e-30, 0.0, 0.0, 0.0, -8.918888935200503e-15, 2.1107192235512656e-30, 4.482812974571637e-07, 0.0, -1.6592133593838264e-16, -3.186725432284158e-18, 0.0, 0.0, 0.0, 9.594426878209067e-07]
twist: 
  twist: 
    linear: 
      x: 2.79948526079e-09
      y: 0.0
      z: 0.0
    angular: 
      x: 0.0
      y: 0.0
      z: 0.000124424127547
  covariance: [9.999995976924125e-10, 0.0, 0.0, 0.0, 0.0, 0.0, 0.0, 2393351.293562019, 0.0, 0.0, 0.0, 0.0, 0.0, 0.0, 4.929693067139362e-07, -8.584908307698152e-26, 1.6488192265860365e-27, 0.0, 0.0, 0.0, -8.58490830769815e-26, 3.3019062593948004e-07, 4.436260065181466e-35, 0.0, 0.0, 0.0, 1.648819226586037e-27, 5.244316355309521e-35, 3.3019062593948004e-07, 0.0, 0.0, 0.0, 0.0, 0.0, 0.0, 9.96889395251727e-10]
---
header: 
  seq: 8956
  stamp: 
    secs: 1518208793
    nsecs: 734304190
  frame_id: "swarmone/odom"
child_frame_id: "swarmone/base_link"
pose: 
  pose: 
    position: 
      x: 0.241914426507
      y: 12.9746089946
      z: 0.0
    orientation: 
      x: 0.0
      y: 0.0
      z: 0.7173563255
      w: 0.696706467794
  covariance: [285395009451.47, -14648435262.562943, 0.0, 0.0, 0.0, -7.471391399017225e-17, -14648435262.563042, 753962400.9368188, 0.0, 0.0, 0.0, -1.9427574431113876e-18, 0.0, 0.0, 5.742829353533149e-07, 7.738328554513369e-23, -3.912775140810388e-15, 0.0, 0.0, 0.0, 7.738328554513368e-23, 4.5685480278375336e-07, 7.65748067063234e-31, 0.0, 0.0, 0.0, -3.912775140810386e-15, 6.566829166067069e-31, 4.568548027837533e-07, 0.0, -7.471391399017224e-17, -1.942757443111388e-18, 0.0, 0.0, 0.0, 1.0166631468062166e-06]
twist: 
  twist: 
    linear: 
      x: 1.20026508047e-09
      y: 0.0
      z: 0.0
    angular: 
      x: 0.0
      y: 0.0
      z: 0.0001174554849
  covariance: [9.999995998637736e-10, 0.0, 0.0, 0.0, 0.0, 0.0, 0.0, 2394152.94164312, 0.0, 0.0, 0.0, 0.0, 0.0, 0.0, 5.025900909495103e-07, -4.121392554016199e-26, 1.2039410051775446e-27, 0.0, 0.0, 0.0, -4.1213925540161977e-26, 3.344423433124441e-07, 1.836533142922265e-37, 0.0, 0.0, 0.0, 1.2039410051775448e-27, -7.895644887020994e-36, 3.344423433124441e-07, 0.0, 0.0, 0.0, 0.0, 0.0, 0.0, 9.970636114131196e-10]
---
header: 
  seq: 8957
  stamp: 
    secs: 1518208793
    nsecs: 835407972
  frame_id: "swarmone/odom"
child_frame_id: "swarmone/base_link"
pose: 
  pose: 
    position: 
      x: 0.241906967
      y: 12.9748643465
      z: 0.0
    orientation: 
      x: 0.0
      y: 0.0
      z: 0.717356364113
      w: 0.696706428036
  covariance: [285556809068.6079, -14650188179.843576, 0.0, 0.0, 0.0, -1.222989658246096e-16, -14650188179.843676, 753721909.8138132, 0.0, 0.0, 0.0, -3.5726235302537986e-18, 0.0, 0.0, 5.609129233681768e-07, 1.481828397088363e-22, -6.447546495782705e-15, 0.0, 0.0, 0.0, 1.4818283970883634e-22, 4.460956994634381e-07, 1.7125706078666855e-30, 0.0, 0.0, 0.0, -6.447546495782706e-15, 2.639281419220398e-30, 4.460956994634381e-07, 0.0, -1.222989658246096e-16, -3.572623530253799e-18, 0.0, 0.0, 0.0, 9.451375730775893e-07]
twist: 
  twist: 
    linear: 
      x: 1.99986710438e-09
      y: 0.0
      z: 0.0
    angular: 
      x: 0.0
      y: 0.0
      z: 0.000157871797138
  covariance: [9.999996043675148e-10, 0.0, 0.0, 0.0, 0.0, 0.0, 0.0, 2394963.897429366, 0.0, 0.0, 0.0, 0.0, 0.0, 0.0, 4.905058073160501e-07, -6.060245143317758e-26, 1.770316194872779e-27, 0.0, 0.0, 0.0, -6.060245143317758e-26, 3.2912009702799e-07, 8.34471115385174e-36, 0.0, 0.0, 0.0, 1.7703161948727797e-27, 4.0694576360668403e-35, 3.2912009702799e-07, 0.0, 0.0, 0.0, 0.0, 0.0, 0.0, 9.968425624991884e-10]
---
header: 
  seq: 8958
  stamp: 
    secs: 1518208793
    nsecs: 935072184
  frame_id: "swarmone/odom"
child_frame_id: "swarmone/base_link"
pose: 
  pose: 
    position: 
      x: 0.24190117094
      y: 12.9750627765
      z: 0.0
    orientation: 
      x: 0.0
      y: 0.0
      z: 0.710353504473
      w: 0.703845081451
  covariance: [285716376623.6922, -14651915237.27817, 0.0, 0.0, 0.0, -9.691016025631044e-17, -14651915237.278265, 753484875.1524664, 0.0, 0.0, 0.0, -1.5197383340995782e-18, 0.0, 0.0, 5.690338160385941e-07, 3.126887471808083e-23, -5.1532233683125365e-15, 0.0, 0.0, 0.0, 3.126887471808084e-23, 4.5260161477449955e-07, 3.7060052383505292e-31, 0.0, 0.0, 0.0, -5.1532233683125365e-15, 3.771925736810078e-31, 4.5260161477449955e-07, 0.0, -9.691016025631045e-17, -1.519738334099578e-18, 0.0, 0.0, 0.0, 9.88052917313509e-07]
twist: 
  twist: 
    linear: 
      x: 1.59870319674e-09
      y: 0.0
      z: 0.0
    angular: 
      x: 0.0
      y: 0.0
      z: 0.000120839421641
  covariance: [9.999995986528954e-10, 0.0, 0.0, 0.0, 0.0, 0.0, 0.0, 2395763.485594195, 0.0, 0.0, 0.0, 0.0, 0.0, 0.0, 4.978257717803115e-07, -5.194275698885741e-26, 4.781117013552829e-28, 0.0, 0.0, 0.0, -5.194275698885743e-26, 3.3232323769909006e-07, 2.4113416638399096e-35, 0.0, 0.0, 0.0, 4.781117013552828e-28, -1.1839526226368835e-35, 3.3232323769909006e-07, 0.0, 0.0, 0.0, 0.0, 0.0, 0.0, 9.969790129491195e-10]
---
header: 
  seq: 8959
  stamp: 
    secs: 1518208794
    nsecs:  34562111
  frame_id: "swarmone/odom"
child_frame_id: "swarmone/base_link"
pose: 
  pose: 
    position: 
      x: 0.241903903101
      y: 12.974766004
      z: 0.0
    orientation: 
      x: 0.0
      y: 0.0
      z: 0.713863827381
      w: 0.700284539282
  covariance: [285875797409.6478, -14655233496.15303, 0.0, 0.0, 0.0, 1.4443102488821846e-16, -14655233496.153128, 753410266.4962955, 0.0, 0.0, 0.0, 2.2825519424975124e-18, 0.0, 0.0, 5.636536412585999e-07, -9.386268814823807e-23, 7.648173804934407e-15, 0.0, 0.0, 0.0, -9.386268814823809e-23, 4.4828130473561747e-07, 1.5533965699491226e-30, 0.0, 0.0, 0.0, 7.648173804934407e-15, 1.7370191758091767e-30, 4.4828130473561736e-07, 0.0, 1.4443102488821846e-16, 2.2825519424975124e-18, 0.0, 0.0, 0.0, 9.59442687821015e-07]
twist: 
  twist: 
    linear: 
      x: -2.39894579288e-09
      y: 0.0
      z: 0.0
    angular: 
      x: 0.0
      y: 0.0
      z: 0.000124424127579
  covariance: [9.99999597949837e-10, 0.0, 0.0, 0.0, 0.0, 0.0, 0.0, 2396561.85299228, 0.0, 0.0, 0.0, 0.0, 0.0, 0.0, 4.929693113223335e-07, 7.362020853305346e-26, -1.4138696777776611e-27, 0.0, 0.0, 0.0, 7.362020853305348e-26, 3.301906581480204e-07, 1.619031650193073e-35, 0.0, 0.0, 0.0, -1.4138696777776606e-27, 2.436982510277835e-35, 3.301906581480204e-07, 0.0, 0.0, 0.0, 0.0, 0.0, 0.0, 9.9688939525173e-10]
---
header: 
  seq: 8960
  stamp: 
    secs: 1518208794
    nsecs: 135074139
  frame_id: "swarmone/odom"
child_frame_id: "swarmone/base_link"
pose: 
  pose: 
    position: 
      x: 0.24190196276
      y: 12.9748670199
      z: 0.0
    orientation: 
      x: 0.0
      y: 0.0
      z: 0.717356308893
      w: 0.696706484893
  covariance: [286036905245.8089, -14657779584.42671, 0.0, 0.0, 0.0, -4.76995109632123e-17, -14657779584.426807, 753253013.0181135, 0.0, 0.0, 0.0, -1.2326675950576598e-18, 0.0, 0.0, 5.609129025711518e-07, 4.7168299701246054e-23, -2.565560296097967e-15, 0.0, 0.0, 0.0, 4.7168299701246054e-23, 4.4609560110641024e-07, 1.3481603999000356e-31, 0.0, 0.0, 0.0, -2.565560296097967e-15, 4.163664374984214e-31, 4.460956011064102e-07, 0.0, -4.76995109632123e-17, -1.2326675950576598e-18, 0.0, 0.0, 0.0, 9.451375730766172e-07]
twist: 
  twist: 
    linear: 
      x: 8.00627576389e-10
      y: 0.0
      z: 0.0
    angular: 
      x: 0.0
      y: 0.0
      z: 0.000126297437392
  covariance: [9.999996020382513e-10, 0.0, 0.0, 0.0, 0.0, 0.0, 0.0, 2397368.6024322994, 0.0, 0.0, 0.0, 0.0, 0.0, 0.0, 4.905057653143803e-07, -2.411333886341026e-26, 7.043698218066225e-28, 0.0, 0.0, 0.0, -2.4113338863410255e-26, 3.29119805904163e-07, 2.4047077088625483e-35, 0.0, 0.0, 0.0, 7.043698218066224e-28, -2.404702509814819e-35, 3.29119805904163e-07, 0.0, 0.0, 0.0, 0.0, 0.0, 0.0, 9.968425624991594e-10]
---
header: 
  seq: 8961
  stamp: 
    secs: 1518208794
    nsecs: 234628916
  frame_id: "swarmone/odom"
child_frame_id: "swarmone/base_link"
pose: 
  pose: 
    position: 
      x: 0.241891837253
      y: 12.9752136343
      z: 0.0
    orientation: 
      x: 0.0
      y: 0.0
      z: 0.717356329403
      w: 0.696706463775
  covariance: [286196511580.91626, -14659501758.577375, 0.0, 0.0, 0.0, -1.744083597674565e-16, -14659501758.57747, 753016190.3819988, 0.0, 0.0, 0.0, -5.09484752765242e-18, 0.0, 0.0, 5.768598162824066e-07, 1.830784134737867e-22, -9.127192740264862e-15, 0.0, 0.0, 0.0, 1.8307841347378667e-22, 4.5895664665327865e-07, 4.072681980430672e-30, 0.0, 0.0, 0.0, -9.127192740264862e-15, 3.825344363614988e-30, 4.589566466532785e-07, 0.0, -1.744083597674565e-16, -5.094847527652419e-18, 0.0, 0.0, 0.0, 1.0309682615516295e-06]
twist: 
  twist: 
    linear: 
      x: 2.79986173135e-09
      y: 0.0
      z: 0.0
    angular: 
      x: 0.0
      y: 0.0
      z: 0.000115833606608
  covariance: [9.999995982117202e-10, 0.0, 0.0, 0.0, 0.0, 0.0, 0.0, 2398167.8470507814, 0.0, 0.0, 0.0, 0.0, 0.0, 0.0, 5.049384714735375e-07, -9.823947925514912e-26, 2.8697676716878233e-27, 0.0, 0.0, 0.0, -9.823947925514916e-26, 3.354965831173614e-07, 1.0425778373547473e-34, 0.0, 0.0, 0.0, 2.8697676716878233e-27, 4.797571301373616e-35, 3.354965831173614e-07, 0.0, 0.0, 0.0, 0.0, 0.0, 0.0, 9.971041583847494e-10]
---
header: 
  seq: 8962
  stamp: 
    secs: 1518208794
    nsecs: 335036755
  frame_id: "swarmone/odom"
child_frame_id: "swarmone/base_link"
pose: 
  pose: 
    position: 
      x: 0.241883010946
      y: 12.9755157918
      z: 0.0
    orientation: 
      x: 0.0
      y: 0.0
      z: 0.713863828548
      w: 0.700284538092
  covariance: [286357557613.7704, -14661237650.795132, 0.0, 0.0, 0.0, -1.478971147009559e-16, -14661237650.795225, 752777357.41284, 0.0, 0.0, 0.0, -3.3580557723321445e-18, 0.0, 0.0, 5.636536736621683e-07, 9.47754094142337e-23, -7.71871946767666e-15, 0.0, 0.0, 0.0, 9.477540941423366e-23, 4.482814083302253e-07, 1.7866151991402942e-30, 0.0, 0.0, 0.0, -7.718719467676659e-15, 1.5664245448791683e-30, 4.482814083302251e-07, 0.0, -1.478971147009559e-16, -3.358055772332145e-18, 0.0, 0.0, 0.0, 9.594426878225478e-07]
twist: 
  twist: 
    linear: 
      x: 2.39893867358e-09
      y: 0.0
      z: 0.0
    angular: 
      x: 0.0
      y: 0.0
      z: 0.000124424128139
  covariance: [9.999996016253226e-10, 0.0, 0.0, 0.0, 0.0, 0.0, 0.0, 2398974.120117416, 0.0, 0.0, 0.0, 0.0, 0.0, 0.0, 4.929693769462476e-07, -7.430181641122879e-26, 1.4271455570421002e-27, 0.0, 0.0, 0.0, -7.430181641122874e-26, 3.301911158922456e-07, 5.649949712725606e-35, 0.0, 0.0, 0.0, 1.4271455570420993e-27, 1.2296077933608467e-35, 3.301911158922456e-07, 0.0, 0.0, 0.0, 0.0, 0.0, 0.0, 9.968893952517745e-10]
---
header: 
  seq: 8963
  stamp: 
    secs: 1518208794
    nsecs: 434762478
  frame_id: "swarmone/odom"
child_frame_id: "swarmone/base_link"
pose: 
  pose: 
    position: 
      x: 0.241884911587
      y: 12.9754168443
      z: 0.0
    orientation: 
      x: 0.0
      y: 0.0
      z: 0.717358611132
      w: 0.69670411441
  covariance: [286517619921.2577, -14663760340.247095, 0.0, 0.0, 0.0, 3.7327216696411333e-16, -14663760340.247189, 752621202.835311, 0.0, 0.0, 0.0, 1.0744810349026192e-17, 0.0, 0.0, 9.179715804771035e-07, -3.055090966158803e-22, 1.4454689766268688e-15, 0.0, 0.0, 0.0, -3.055090966158804e-22, 8.521167713050418e-07, 5.609022240800113e-30, 0.0, 0.0, 0.0, 1.4454689766268688e-15, 5.158257347650151e-30, 8.521167713050417e-07, 0.0, 3.7327216696411333e-16, 1.0744810349026192e-17, 0.0, 0.0, 0.0, 1.0858582092150492e-05]
twist: 
  twist: 
    linear: 
      x: -7.8735006015e-10
      y: 0.0
      z: 0.0
    angular: 
      x: 0.0
      y: 0.0
      z: 1.10460747579e-05
  covariance: [9.999995989004536e-10, 0.0, 0.0, 0.0, 0.0, 0.0, 0.0, 2399775.094666701, 0.0, 0.0, 0.0, 0.0, 0.0, 0.0, 8.833369392700137e-07, 1.9499278788774458e-25, -5.696814687437562e-27, 0.0, 0.0, 0.0, 1.9499278788774458e-25, 6.818143002852301e-07, 1.8822462482124724e-34, 0.0, 0.0, 0.0, -5.696814687437559e-27, 3.5008329573428074e-35, 6.818143002852301e-07, 0.0, 0.0, 0.0, 0.0, 0.0, 0.0, 9.99723847992777e-10]
---
header: 
  seq: 8964
  stamp: 
    secs: 1518208794
    nsecs: 535182238
  frame_id: "swarmone/odom"
child_frame_id: "swarmone/base_link"
pose: 
  pose: 
    position: 
      x: 0.241864101785
      y: 12.9761259974
      z: 0.0
    orientation: 
      x: 0.0
      y: 0.0
      z: 0.741296731198
      w: 0.671177440261
  covariance: [286678829270.36786, -14665492752.550583, 0.0, 0.0, 0.0, -1.503885236626899e-15, -14665492752.550676, 752382178.901142, 0.0, 0.0, 0.0, -6.044975982210199e-17, 0.0, 0.0, 5.716744777587262e-07, 1.2143659476380438e-21, -1.8366518763323973e-14, 0.0, 0.0, 0.0, 1.2143659476380438e-21, 4.547365699452509e-07, 5.196368343020103e-29, 0.0, 0.0, 0.0, -1.8366518763323983e-14, 5.217995597726311e-29, 4.547365699452502e-07, 0.0, -1.5038852366268995e-15, -6.0449759822102e-17, 0.0, 0.0, 0.0, 1.0023580320611413e-06]
twist: 
  twist: 
    linear: 
      x: 5.63297630589e-09
      y: 0.0
      z: 0.0
    angular: 
      x: 0.0
      y: 0.0
      z: 0.000119123426425
  covariance: [9.999996016752289e-10, 0.0, 0.0, 0.0, 0.0, 0.0, 0.0, 2400581.823694197, 0.0, 0.0, 0.0, 0.0, 0.0, 0.0, 5.002193280096308e-07, -1.8982288349938828e-25, 1.8797198639466854e-26, 0.0, 0.0, 0.0, -1.8982288349938837e-25, 3.333847895444132e-07, 1.1873532220079134e-33, 0.0, 0.0, 0.0, 1.8797198639466865e-26, 1.0436514568103663e-33, 3.333847895444132e-07, 0.0, 0.0, 0.0, 0.0, 0.0, 0.0, 9.970219128567245e-10]
---
header: 
  seq: 8965
  stamp: 
    secs: 1518208794
    nsecs: 634826660
  frame_id: "swarmone/odom"
child_frame_id: "swarmone/base_link"
pose: 
  pose: 
    position: 
      x: 0.241588920553
      y: 12.9788911516
      z: 0.0
    orientation: 
      x: 0.0
      y: 0.0
      z: 0.713863829313
      w: 0.700284537312
  covariance: [286838146796.2182, -14661603079.337156, 0.0, 0.0, 0.0, -1.341293023927505e-15, -14661603079.33725, 751578502.4903535, 0.0, 0.0, 0.0, -6.300449811001555e-17, 0.0, 0.0, 5.609128716470668e-07, 8.622922666233804e-22, -7.115746286124628e-14, 0.0, 0.0, 0.0, 8.622922666233806e-22, 4.460955027457715e-07, 1.4088631528727798e-28, 0.0, 0.0, 0.0, -7.11574628612463e-14, 1.4101628833282702e-28, 4.4609550274575993e-07, 0.0, -1.341293023927505e-15, -6.300449811001555e-17, 0.0, 0.0, 0.0, 9.451375730751746e-07]
twist: 
  twist: 
    linear: 
      x: 2.23932944271e-08
      y: 0.0
      z: 0.0
    angular: 
      x: 0.0
      y: 0.0
      z: 0.00012629743684
  covariance: [9.999995985732054e-10, 0.0, 0.0, 0.0, 0.0, 0.0, 0.0, 2401382.5026868805, 0.0, 0.0, 0.0, 0.0, 0.0, 0.0, 4.905057028701326e-07, -6.689843789614086e-25, 1.2856493122768517e-26, 0.0, 0.0, 0.0, -6.689843789614088e-25, 3.291193732924036e-07, 2.788870262412026e-33, 0.0, 0.0, 0.0, 1.2856493122768526e-26, 2.8083410325147352e-33, 3.291193732924036e-07, 0.0, 0.0, 0.0, 0.0, 0.0, 0.0, 9.96842562499116e-10]
---
header: 
  seq: 8966
  stamp: 
    secs: 1518208794
    nsecs: 734994888
  frame_id: "swarmone/odom"
child_frame_id: "swarmone/base_link"
pose: 
  pose: 
    position: 
      x: 0.241584168133
      y: 12.9791386204
      z: 0.0
    orientation: 
      x: 0.0
      y: 0.0
      z: 0.71036027011
      w: 0.703838253187
  covariance: [286999135342.425, -14664139916.636822, 0.0, 0.0, 0.0, -3.333883744640804e-15, -14664139916.636917, 751422410.5586655, 0.0, 0.0, 0.0, -3.107669718375885e-17, 0.0, 0.0, 9.756700077593358e-07, 2.304501591638687e-22, -1.2592857162347426e-15, 0.0, 0.0, 0.0, 2.3045015916386866e-22, 9.528689140104252e-07, 1.1932596939530926e-29, 0.0, 0.0, 0.0, -1.2592857162347426e-15, 1.1922932136272366e-29, 9.528689140104251e-07, 0.0, -3.333883744640804e-15, -3.1076697183758847e-17, 0.0, 0.0, 0.0, 3.9769218994412426e-05]
twist: 
  twist: 
    linear: 
      x: 1.98376653732e-09
      y: 0.0
      z: 0.0
    angular: 
      x: 0.0
      y: 0.0
      z: 2.26277114287e-06
  covariance: [9.999996006723514e-10, 0.0, 0.0, 0.0, 0.0, 0.0, 0.0, 2402187.5700707445, 0.0, 0.0, 0.0, 0.0, 0.0, 0.0, 9.640874920690249e-07, -2.770559413432595e-25, 2.5490024621759544e-27, 0.0, 0.0, 0.0, -2.7705594134325945e-25, 8.743917142578075e-07, 4.653034474861866e-34, 0.0, 0.0, 0.0, 2.5490024621759544e-27, 5.287344815112658e-34, 8.743917142578075e-07, 0.0, 0.0, 0.0, 0.0, 0.0, 0.0, 9.999245742574968e-10]
---
header: 
  seq: 8967
  stamp: 
    secs: 1518208794
    nsecs: 834359884
  frame_id: "swarmone/odom"
child_frame_id: "swarmone/base_link"
pose: 
  pose: 
    position: 
      x: 0.241584593544
      y: 12.979093208
      z: 0.0
    orientation: 
      x: 0.0
      y: 0.0
      z: 0.717356454482
      w: 0.696706334988
  covariance: [287158926763.4605, -14667448206.84201, 0.0, 0.0, 0.0, 3.509508508277656e-16, -14667448206.842108, 751347735.1083124, 0.0, 0.0, 0.0, 3.7154630321954076e-18, 0.0, 0.0, 6.559882338933451e-07, -3.966438596772878e-23, 1.294886847933867e-15, 0.0, 0.0, 0.0, -3.966438596772878e-23, 5.283192580287062e-07, -1.8009397887128082e-31, 0.0, 0.0, 0.0, 1.2948868479338676e-15, -2.233335261624319e-31, 5.283192580287062e-07, 0.0, 3.509508508277655e-16, 3.7154630321954076e-18, 0.0, 0.0, 0.0, 1.574562621904335e-06]
twist: 
  twist: 
    linear: 
      x: -3.66909606647e-10
      y: 0.0
      z: 0.0
    angular: 
      x: 0.0
      y: 0.0
      z: 7.59703591628e-05
  covariance: [9.99999597454606e-10, 0.0, 0.0, 0.0, 0.0, 0.0, 0.0, 2402986.3595102034, 0.0, 0.0, 0.0, 0.0, 0.0, 0.0, 5.80245889348273e-07, 2.614520927938671e-26, -7.612912231663626e-28, 0.0, 0.0, 0.0, 2.614520927938671e-26, 3.732301804341115e-07, -2.439790322870387e-35, 0.0, 0.0, 0.0, -7.612912231663625e-28, 2.4649531302396895e-35, 3.732301804341115e-07, 0.0, 0.0, 0.0, 0.0, 0.0, 0.0, 9.981007400650343e-10]
---
header: 
  seq: 8968
  stamp: 
    secs: 1518208794
    nsecs: 935395479
  frame_id: "swarmone/odom"
child_frame_id: "swarmone/base_link"
pose: 
  pose: 
    position: 
      x: 0.241568267021
      y: 12.9796521375
      z: 0.0
    orientation: 
      x: 0.0
      y: 0.0
      z: 0.713866319592
      w: 0.700281998735
  covariance: [287321415260.6865, -14669188601.756132, 0.0, 0.0, 0.0, -2.2948534188372095e-15, -14669188601.756227, 751107632.0254532, 0.0, 0.0, 0.0, -4.553055131168752e-17, 0.0, 0.0, 9.228595845435869e-07, 1.1512168778748341e-21, -7.732338081683384e-15, 0.0, 0.0, 0.0, 1.1512168778748343e-21, 8.60107204248516e-07, 1.149450686144238e-28, 0.0, 0.0, 0.0, -7.732338081683381e-15, 1.1522686995395184e-28, 8.601072042485153e-07, 0.0, -2.2948534188372095e-15, -4.5530551311687527e-17, 0.0, 0.0, 0.0, 1.1631058288446548e-05]
twist: 
  twist: 
    linear: 
      x: 4.39127106552e-09
      y: 0.0
      z: 0.0
    angular: 
      x: 0.0
      y: 0.0
      z: 1.03127655133e-05
