header: 
  seq: 10869
  stamp: 
    secs: 1518208985
    nsecs:  34880638
  frame_id: "swarmone/odom"
child_frame_id: "swarmone/base_link"
pose: 
  pose: 
    position: 
      x: -0.143117397848
      y: 15.5064354899
      z: 0.0
    orientation: 
      x: 0.0
      y: 0.0
      z: 0.674288160906
      w: 0.738468331116
  covariance: [749612723605.4865, -43761511980.04625, 0.0, 0.0, 0.0, 3.9985425719739636e-16, -43761511980.045845, 2556011864.626422, 0.0, 0.0, 0.0, -3.6405307343753116e-17, 0.0, 0.0, 5.74282928109896e-07, 1.278760595484464e-21, 2.081939761154123e-14, 0.0, 0.0, 0.0, 1.278760595484464e-21, 4.5685477872214343e-07, -6.132100295908124e-29, 0.0, 0.0, 0.0, 2.0819397611541232e-14, -6.375278574186517e-29, 4.568547787221425e-07, 0.0, 3.9985425719739636e-16, -3.6405307343753116e-17, 0.0, 0.0, 0.0, 1.0166631468058577e-06]
twist: 
  twist: 
    linear: 
      x: -6.39985283171e-09
      y: 0.0
      z: 0.0
    angular: 
      x: 0.0
      y: 0.0
      z: 0.000117455484769
  covariance: [9.999995990001656e-10, 0.0, 0.0, 0.0, 0.0, 0.0, 0.0, 4279476.719326594, 0.0, 0.0, 0.0, 0.0, 0.0, 0.0, 5.025900761206368e-07, 2.1848814111052047e-25, 1.9892602116998528e-26, 0.0, 0.0, 0.0, 2.1848814111052047e-25, 3.3444223725799584e-07, -1.3663987444295915e-33, 0.0, 0.0, 0.0, 1.989260211699854e-26, -1.2860219463435323e-33, 3.3444223725799584e-07, 0.0, 0.0, 0.0, 0.0, 0.0, 0.0, 9.970636114131103e-10]
---
header: 
  seq: 10870
  stamp: 
    secs: 1518208985
    nsecs: 134515524
  frame_id: "swarmone/odom"
child_frame_id: "swarmone/base_link"
pose: 
  pose: 
    position: 
      x: -0.143184879175
      y: 15.5056942974
      z: 0.0
    orientation: 
      x: 0.0
      y: 0.0
      z: 0.677972054473
      w: 0.735087677324
  covariance: [749956913075.9095, -43787241958.87167, 0.0, 0.0, 0.0, 3.746333338235881e-16, -43787241958.87128, 2557843991.821611, 0.0, 0.0, 0.0, -3.160483498432023e-17, 0.0, 0.0, 5.716744509111383e-07, 1.046498726268145e-21, 1.9413534688345657e-14, 0.0, 0.0, 0.0, 1.0464987262681454e-21, 4.5473648234870383e-07, -4.6368150417366783e-29, 0.0, 0.0, 0.0, 1.9413534688345653e-14, -4.6619188039713485e-29, 4.547364823487029e-07, 0.0, 3.7463333382358803e-16, -3.160483498432023e-17, 0.0, 0.0, 0.0, 1.0023580320595633e-06]
twist: 
  twist: 
    linear: 
      x: -5.99958803124e-09
      y: 0.0
      z: 0.0
    angular: 
      x: 0.0
      y: 0.0
      z: 0.000119123426118
  covariance: [9.999995985347862e-10, 0.0, 0.0, 0.0, 0.0, 0.0, 0.0, 4280653.76035946, 0.0, 0.0, 0.0, 0.0, 0.0, 0.0, 5.002192729243361e-07, 1.9947658337954519e-25, 1.6152230800429996e-26, 0.0, 0.0, 0.0, 1.9947658337954523e-25, 3.333843856197067e-07, -9.506842833091928e-34, 0.0, 0.0, 0.0, 1.6152230800429993e-26, -8.707592382236302e-34, 3.333843856197067e-07, 0.0, 0.0, 0.0, 0.0, 0.0, 0.0, 9.9702191285669e-10]
---
header: 
  seq: 10871
  stamp: 
    secs: 1518208985
    nsecs: 235256910
  frame_id: "swarmone/odom"
child_frame_id: "swarmone/base_link"
pose: 
  pose: 
    position: 
      x: -0.143234011889
      y: 15.5050875105
      z: 0.0
    orientation: 
      x: 0.0
      y: 0.0
      z: 0.677972051583
      w: 0.73508767999
  covariance: [750305352976.8077, -43811536057.14668, 0.0, 0.0, 0.0, 2.988463899561454e-16, -43811536057.14631, 2559493741.8633947, 0.0, 0.0, 0.0, -2.4198302512353757e-17, 0.0, 0.0, 5.690338529463278e-07, 8.30894050686252e-22, 1.563784434340589e-14, 0.0, 0.0, 0.0, 8.3089405068625215e-22, 4.5260173342494484e-07, -2.998045770884907e-29, 0.0, 0.0, 0.0, 1.5637844343405898e-14, -2.842738873875621e-29, 4.526017334249442e-07, 0.0, 2.988463899561454e-16, -2.419830251235376e-17, 0.0, 0.0, 0.0, 9.880529173152988e-07]
twist: 
  twist: 
    linear: 
      x: -4.80065638284e-09
      y: 0.0
      z: 0.0
    angular: 
      x: 0.0
      y: 0.0
      z: 0.000120839422227
  covariance: [9.999996029443053e-10, 0.0, 0.0, 0.0, 0.0, 0.0, 0.0, 4281844.092499123, 0.0, 0.0, 0.0, 0.0, 0.0, 0.0, 4.97825846943802e-07, 1.571231164750473e-25, 1.2722658413329708e-26, 0.0, 0.0, 0.0, 1.5712311647504735e-25, 3.3232376878814193e-07, -5.805988227403935e-34, 0.0, 0.0, 0.0, 1.2722658413329712e-26, -6.768819344432023e-34, 3.3232376878814193e-07, 0.0, 0.0, 0.0, 0.0, 0.0, 0.0, 9.969790129491685e-10]
---
header: 
  seq: 10872
  stamp: 
    secs: 1518208985
    nsecs: 334948778
  frame_id: "swarmone/odom"
child_frame_id: "swarmone/base_link"
pose: 
  pose: 
    position: 
      x: -0.143302157359
      y: 15.5042459169
      z: 0.0
    orientation: 
      x: 0.0
      y: 0.0
      z: 0.677972146221
      w: 0.735087592705
  covariance: [750650290237.3173, -43835586902.69155, 0.0, 0.0, 0.0, 5.255975615590679e-16, -43835586902.69117, 2561127063.456202, 0.0, 0.0, 0.0, -4.2558909910282184e-17, 0.0, 0.0, 6.30533559641117e-07, 1.7474742349635626e-21, 2.3643739694805142e-14, 0.0, 0.0, 0.0, 1.7474742349635626e-21, 5.049363537126877e-07, -1.1126330860959984e-28, 0.0, 0.0, 0.0, 2.3643739694805145e-14, -1.1239323949232932e-28, 5.049363537126862e-07, 0.0, 5.255975615590679e-16, -4.2558909910282184e-17, 0.0, 0.0, 0.0, 1.3742910154583302e-06]
twist: 
  twist: 
    linear: 
      x: -6.79935706696e-09
      y: 0.0
      z: 0.0
    angular: 
      x: 0.0
      y: 0.0
      z: 8.70011757883e-05
  covariance: [9.999995987642483e-10, 0.0, 0.0, 0.0, 0.0, 0.0, 0.0, 4283022.241029354, 0.0, 0.0, 0.0, 0.0, 0.0, 0.0, 5.553248804367079e-07, 3.902567381394164e-25, 3.16000737834271e-26, 0.0, 0.0, 0.0, 3.902567381394164e-25, 3.598376603671004e-07, -2.7436079823132132e-33, 0.0, 0.0, 0.0, 3.160007378342713e-26, -3.0592083396168252e-33, 3.598376603671004e-07, 0.0, 0.0, 0.0, 0.0, 0.0, 0.0, 9.978249695174633e-10]
---
header: 
  seq: 10873
  stamp: 
    secs: 1518208985
    nsecs: 434511185
  frame_id: "swarmone/odom"
child_frame_id: "swarmone/base_link"
pose: 
  pose: 
    position: 
      x: -0.143354140272
      y: 15.5036039281
      z: 0.0
    orientation: 
      x: 0.0
      y: 0.0
      z: 0.677972062098
      w: 0.735087670292
  covariance: [750994906074.5111, -43859616244.12386, 0.0, 0.0, 0.0, 3.6912138226467073e-16, -43859616244.12348, 2562759011.9955926, 0.0, 0.0, 0.0, -2.9888582662032763e-17, 0.0, 0.0, 5.768598165768081e-07, 9.397737479728195e-22, 1.695205879767521e-14, 0.0, 0.0, 0.0, 9.397737479728191e-22, 4.5895664732326064e-07, -3.815491022867312e-29, 0.0, 0.0, 0.0, 1.695205879767521e-14, -3.714458006446133e-29, 4.5895664732326e-07, 0.0, 3.6912138226467073e-16, -2.988858266203276e-17, 0.0, 0.0, 0.0, 1.0309682615516545e-06]
twist: 
  twist: 
    linear: 
      x: -5.19983409802e-09
      y: 0.0
      z: 0.0
    angular: 
      x: 0.0
      y: 0.0
      z: 0.000115833606555
  covariance: [9.999995982426233e-10, 0.0, 0.0, 0.0, 0.0, 0.0, 0.0, 4284199.075270483, 0.0, 0.0, 0.0, 0.0, 0.0, 0.0, 5.049384721094993e-07, 1.8199824873939809e-25, 1.4736860976813446e-26, 0.0, 0.0, 0.0, 1.81998248739398e-25, 3.354965884089287e-07, -7.068789306395029e-34, 0.0, 0.0, 0.0, 1.4736860976813443e-26, -9.644673395879095e-34, 3.354965884089287e-07, 0.0, 0.0, 0.0, 0.0, 0.0, 0.0, 9.971041583847497e-10]
---
header: 
  seq: 10874
  stamp: 
    secs: 1518208985
    nsecs: 534863472
  frame_id: "swarmone/odom"
child_frame_id: "swarmone/base_link"
pose: 
  pose: 
    position: 
      x: -0.143402887118
      y: 15.5030018936
      z: 0.0
    orientation: 
      x: 0.0
      y: 0.0
      z: 0.681639006405
      w: 0.731688639345
  covariance: [751342383939.4288, -43883845856.39046, 0.0, 0.0, 0.0, 3.0639509543755664e-16, -43883845856.39008, 2564404639.896153, 0.0, 0.0, 0.0, -2.2764719892518595e-17, 0.0, 0.0, 5.742829482910564e-07, 7.527313319221419e-22, 1.5708021807774817e-14, 0.0, 0.0, 0.0, 7.527313319221419e-22, 4.568548446314059e-07, -2.672132008209957e-29, 0.0, 0.0, 0.0, 1.5708021807774817e-14, -2.882666187317871e-29, 4.5685484463140537e-07, 0.0, 3.0639509543755664e-16, -2.2764719892518595e-17, 0.0, 0.0, 0.0, 1.0166631468068608e-06]
twist: 
  twist: 
    linear: 
      x: -4.79958647305e-09
      y: 0.0
      z: 0.0
    angular: 
      x: 0.0
      y: 0.0
      z: 0.000117455485113
  covariance: [9.999996014047964e-10, 0.0, 0.0, 0.0, 0.0, 0.0, 0.0, 4285385.464077474, 0.0, 0.0, 0.0, 0.0, 0.0, 0.0, 5.025901174451968e-07, 1.6511918639159834e-25, 1.1709454392346909e-26, 0.0, 0.0, 0.0, 1.6511918639159832e-25, 3.344425329996789e-07, -5.791283877638383e-34, 0.0, 0.0, 0.0, 1.1709454392346906e-26, -4.50881648590631e-34, 3.344425329996789e-07, 0.0, 0.0, 0.0, 0.0, 0.0, 0.0, 9.970636114131361e-10]
---
header: 
  seq: 10875
  stamp: 
    secs: 1518208985
    nsecs: 635097980
  frame_id: "swarmone/odom"
child_frame_id: "swarmone/base_link"
pose: 
  pose: 
    position: 
      x: -0.143434857229
      y: 15.5025510653
      z: 0.0
    orientation: 
      x: 0.0
      y: 0.0
      z: 0.681638993057
      w: 0.73168865178
  covariance: [751689846028.8121, -43906328071.54508, 0.0, 0.0, 0.0, 2.1993943400899507e-16, -43906328071.54471, 2565845931.0336523, 0.0, 0.0, 0.0, -1.559691930679263e-17, 0.0, 0.0, 5.636536675881765e-07, 5.228213094339373e-22, 1.1561647323973398e-14, 0.0, 0.0, 0.0, 5.2282130943393735e-22, 4.4828138860941177e-07, -1.4036104150398686e-29, 0.0, 0.0, 0.0, 1.1561647323973398e-14, -1.3669777971616636e-29, 4.4828138860941135e-07, 0.0, 2.199394340089951e-16, -1.559691930679263e-17, 0.0, 0.0, 0.0, 9.594426878222604e-07]
twist: 
  twist: 
    linear: 
      x: -3.59986609445e-09
      y: 0.0
      z: 0.0
    angular: 
      x: 0.0
      y: 0.0
      z: 0.000124424128035
  covariance: [9.999996009364302e-10, 0.0, 0.0, 0.0, 0.0, 0.0, 0.0, 4286570.679095052, 0.0, 0.0, 0.0, 0.0, 0.0, 0.0, 4.929693646446761e-07, 1.1103493658801672e-25, 7.874019744285822e-27, 0.0, 0.0, 0.0, 1.1103493658801677e-25, 3.3019103007535194e-07, -3.715976519573718e-34, 0.0, 0.0, 0.0, 7.874019744285824e-27, -2.9150304291510146e-34, 3.3019103007535194e-07, 0.0, 0.0, 0.0, 0.0, 0.0, 0.0, 9.968893952517662e-10]
---
header: 
  seq: 10876
  stamp: 
    secs: 1518208985
    nsecs: 735222816
  frame_id: "swarmone/odom"
child_frame_id: "swarmone/base_link"
pose: 
  pose: 
    position: 
      x: -0.14346319728
      y: 15.5021514358
      z: 0.0
    orientation: 
      x: 0.0
      y: 0.0
      z: 0.677972570957
      w: 0.73508720097
  covariance: [752037056000.6328, -43928795415.68173, 0.0, 0.0, 0.0, 4.769217956955223e-16, -43928795415.68135, 2567286358.3432817, 0.0, 0.0, 0.0, -3.797547813073133e-17, 0.0, 0.0, 7.746491432875908e-07, 1.8019380538036796e-21, 1.0788071347058747e-14, 0.0, 0.0, 0.0, 1.80193805380368e-21, 6.534279203688206e-07, -8.437958807240221e-29, 0.0, 0.0, 0.0, 1.0788071347058745e-14, -8.663026354315911e-29, 6.534279203688202e-07, 0.0, 4.769217956955223e-16, -3.7975478130731324e-17, 0.0, 0.0, 0.0, 3.1052098997384996e-06]
twist: 
  twist: 
    linear: 
      x: -3.20162258857e-09
      y: 0.0
      z: 0.0
    angular: 
      x: 0.0
      y: 0.0
      z: 3.85825857901e-05
  covariance: [9.999996004992975e-10, 0.0, 0.0, 0.0, 0.0, 0.0, 0.0, 4287754.815451113, 0.0, 0.0, 0.0, 0.0, 0.0, 0.0, 7.06122541484741e-07, 5.074420891801562e-25, 4.1091022205984833e-26, 0.0, 0.0, 0.0, 5.074420891801563e-25, 4.596319956042099e-07, -3.7781982743235676e-33, 0.0, 0.0, 0.0, 4.1091022205984845e-26, -3.8431795621918956e-33, 4.596319956042099e-07, 0.0, 0.0, 0.0, 0.0, 0.0, 0.0, 9.990354348748169e-10]
---
header: 
  seq: 10877
  stamp: 
    secs: 1518208985
    nsecs: 834836483
  frame_id: "swarmone/odom"
child_frame_id: "swarmone/base_link"
pose: 
  pose: 
    position: 
      x: -0.143519226023
      y: 15.5014594265
      z: 0.0
    orientation: 
      x: 0.0
      y: 0.0
      z: 0.681638992445
      w: 0.73168865235
  covariance: [752382358395.0698, -43952875124.80413, 0.0, 0.0, 0.0, 5.816118506216254e-16, -43952875124.80376, 2568921983.791188, 0.0, 0.0, 0.0, -4.48594590068047e-17, 0.0, 0.0, 5.636536457839642e-07, 8.079493518908813e-22, 1.7870989043164322e-14, 0.0, 0.0, 0.0, 8.079493518908813e-22, 4.482813192730452e-07, -3.293139517140516e-29, 0.0, 0.0, 0.0, 1.787098904316432e-14, -3.324934372231456e-29, 4.4828131927304457e-07, 0.0, 5.816118506216255e-16, -4.48594590068047e-17, 0.0, 0.0, 0.0, 9.594426878212825e-07]
twist: 
  twist: 
    linear: 
      x: -5.59889409141e-09
      y: 0.0
      z: 0.0
    angular: 
      x: 0.0
      y: 0.0
      z: 0.000124424127527
  covariance: [9.99999598449824e-10, 0.0, 0.0, 0.0, 0.0, 0.0, 0.0, 4288933.122797383, 0.0, 0.0, 0.0, 0.0, 0.0, 0.0, 4.929693206151172e-07, 1.7198543508875595e-25, 1.2199846864959029e-26, 0.0, 0.0, 0.0, 1.719854350887559e-25, 3.301907267130218e-07, -6.276338147118121e-34, 0.0, 0.0, 0.0, 1.2199846864959029e-26, -7.559859183207933e-34, 3.301907267130218e-07, 0.0, 0.0, 0.0, 0.0, 0.0, 0.0, 9.968893952517362e-10]
---
header: 
  seq: 10878
  stamp: 
    secs: 1518208985
    nsecs: 935100555
  frame_id: "swarmone/odom"
child_frame_id: "swarmone/base_link"
pose: 
  pose: 
    position: 
      x: -0.143554769936
      y: 15.5009582136
      z: 0.0
    orientation: 
      x: 0.0
      y: 0.0
      z: 0.677972087245
      w: 0.735087647099
  covariance: [752730307382.336, -43975391209.10328, 0.0, 0.0, 0.0, 2.6816034470475366e-16, -43975391209.102905, 2570365621.6942124, 0.0, 0.0, 0.0, -2.090960986877607e-17, 0.0, 0.0, 5.940601135021456e-07, 8.186617309240268e-22, 1.3459235893970107e-14, 0.0, 0.0, 0.0, 8.18661730924027e-22, 4.732264525426119e-07, -2.784613805626944e-29, 0.0, 0.0, 0.0, 1.3459235893970112e-14, -2.6440434604067304e-29, 4.7322645254261153e-07, 0.0, 2.6816034470475366e-16, -2.090960986877607e-17, 0.0, 0.0, 0.0, 1.1311040647755279e-06]
twist: 
  twist: 
    linear: 
      x: -4.00027658568e-09
      y: 0.0
      z: 0.0
    angular: 
      x: 0.0
      y: 0.0
      z: 0.000105624074584
  covariance: [9.99999601054083e-10, 0.0, 0.0, 0.0, 0.0, 0.0, 0.0, 4290119.341617767, 0.0, 0.0, 0.0, 0.0, 0.0, 0.0, 5.207763436919115e-07, 1.6647896429976127e-25, 1.348045851839312e-26, 0.0, 0.0, 0.0, 1.664789642997614e-25, 3.42785499548109e-07, -4.719836829123815e-34, 0.0, 0.0, 0.0, 1.3480458518393125e-26, -5.379224092301025e-34, 3.42785499548109e-07, 0.0, 0.0, 0.0, 0.0, 0.0, 0.0, 9.973593968224154e-10]
---
header: 
  seq: 10879
  stamp: 
    secs: 1518208986
    nsecs:  34966230
  frame_id: "swarmone/odom"
child_frame_id: "swarmone/base_link"
pose: 
  pose: 
    position: 
      x: -0.143603015061
      y: 15.5003623737
      z: 0.0
    orientation: 
      x: 0.0
      y: 0.0
      z: 0.681639466942
      w: 0.73168821031
  covariance: [753076738588.7158, -43999550789.1672, 0.0, 0.0, 0.0, 6.908869945699544e-16, -43999550789.166824, 2572006795.9076204, 0.0, 0.0, 0.0, -5.0125700128018725e-17, 0.0, 0.0, 7.639980474140093e-07, 2.24258332441633e-21, 1.637499494811935e-14, 0.0, 0.0, 0.0, 2.24258332441633e-21, 6.409679512427419e-07, -1.562005796284361e-28, 0.0, 0.0, 0.0, 1.637499494811935e-14, -1.5500286422951228e-28, 6.409679512427408e-07, 0.0, 6.908869945699544e-16, -5.0125700128018725e-17, 0.0, 0.0, 0.0, 2.9049382932924307e-06]
twist: 
  twist: 
    linear: 
      x: -4.7994539662e-09
      y: 0.0
      z: 0.0
    angular: 
      x: 0.0
      y: 0.0
      z: 4.12379672726e-05
  covariance: [9.99999599462601e-10, 0.0, 0.0, 0.0, 0.0, 0.0, 0.0, 4291301.064418282, 0.0, 0.0, 0.0, 0.0, 0.0, 0.0, 6.941207911844739e-07, 7.150147384316146e-25, 5.070191652136775e-26, 0.0, 0.0, 0.0, 7.1501473843161445e-25, 4.497064157921463e-07, -6.457079861579714e-33, 0.0, 0.0, 0.0, 5.070191652136775e-26, -6.303114120924693e-33, 4.497064157921463e-07, 0.0, 0.0, 0.0, 0.0, 0.0, 0.0, 9.989690503031303e-10]
---
header: 
  seq: 10880
  stamp: 
    secs: 1518208986
    nsecs: 134520292
  frame_id: "swarmone/odom"
child_frame_id: "swarmone/base_link"
pose: 
  pose: 
    position: 
      x: -0.143638058036
      y: 15.4998682045
      z: 0.0
    orientation: 
      x: 0.0
      y: 0.0
      z: 0.681638940032
      w: 0.731688701178
  covariance: [753422478062.0537, -44021924826.983864, 0.0, 0.0, 0.0, 4.0359962133800587e-16, -44021924826.983475, 2573441412.5809402, 0.0, 0.0, 0.0, -2.862073795074064e-17, 0.0, 0.0, 5.690338123387518e-07, 4.496959767597516e-22, 1.2877462395617701e-14, 0.0, 0.0, 0.0, 4.496959767597516e-22, 4.526015700874423e-07, -1.3739028859932534e-29, 0.0, 0.0, 0.0, 1.2877462395617703e-14, -1.3135199862029266e-29, 4.5260157008744196e-07, 0.0, 4.035996213380058e-16, -2.862073795074064e-17, 0.0, 0.0, 0.0, 9.88052917313379e-07]
twist: 
  twist: 
    linear: 
      x: -4.00025266384e-09
      y: 0.0
      z: 0.0
    angular: 
      x: 0.0
      y: 0.0
      z: 9.06295660639e-05
  covariance: [9.999995982093557e-10, 0.0, 0.0, 0.0, 0.0, 0.0, 0.0, 4292479.31583433, 0.0, 0.0, 0.0, 0.0, 0.0, 0.0, 4.978257643667362e-07, 1.2971224873640602e-25, 9.198518244026402e-27, 0.0, 0.0, 0.0, 1.2971224873640602e-25, 3.323231887850691e-07, -3.7533835035699806e-34, 0.0, 0.0, 0.0, 9.198518244026408e-27, -3.276880194983996e-34, 3.323231887850691e-07, 0.0, 0.0, 0.0, 0.0, 0.0, 0.0, 9.969790129491145e-10]
---
header: 
  seq: 10881
  stamp: 
    secs: 1518208986
    nsecs: 235378504
  frame_id: "swarmone/odom"
child_frame_id: "swarmone/base_link"
pose: 
  pose: 
    position: 
      x: -0.143677608859
      y: 15.499310452
      z: 0.0
    orientation: 
      x: 0.0
      y: 0.0
      z: 0.688921617051
      w: 0.724835847319
  covariance: [753772876074.5913, -44044600569.108246, 0.0, 0.0, 0.0, 2.680002376635428e-16, -44044600569.10786, 2574895400.136603, 0.0, 0.0, 0.0, -1.54537318502146e-17, 0.0, 0.0, 5.636536893384344e-07, 3.460862433681257e-22, 1.4213563245734586e-14, 0.0, 0.0, 0.0, 3.4608624336812576e-22, 4.482814259201116e-07, -1.1254697902637233e-29, 0.0, 0.0, 0.0, 1.421356324573458e-14, -1.1292154918677325e-29, 4.482814259201111e-07, 0.0, 2.680002376635428e-16, -1.5453731850214598e-17, 0.0, 0.0, 0.0, 9.594426878232879e-07]
twist: 
  twist: 
    linear: 
      x: -4.39767309027e-09
      y: 0.0
      z: 0.0
    angular: 
      x: 0.0
      y: 0.0
      z: 9.33180963166e-05
  covariance: [9.99999603404215e-10, 0.0, 0.0, 0.0, 0.0, 0.0, 0.0, 4293673.222152204, 0.0, 0.0, 0.0, 0.0, 0.0, 0.0, 4.929694086889748e-07, 1.3666651981304784e-25, 6.948430668798237e-27, 0.0, 0.0, 0.0, 1.3666651981304774e-25, 3.301913372059332e-07, -3.0799773839421717e-34, 0.0, 0.0, 0.0, 6.948430668798237e-27, -2.834341744521725e-34, 3.301913372059332e-07, 0.0, 0.0, 0.0, 0.0, 0.0, 0.0, 9.96889395251796e-10]
---
header: 
  seq: 10882
  stamp: 
    secs: 1518208986
    nsecs: 335255861
  frame_id: "swarmone/odom"
child_frame_id: "swarmone/base_link"
pose: 
  pose: 
    position: 
      x: -0.143659893683
      y: 15.4996588714
      z: 0.0
    orientation: 
      x: 0.0
      y: 0.0
      z: 0.677971998399
      w: 0.735087729042
  covariance: [754120417501.1045, -44063604587.96935, 0.0, 0.0, 0.0, -1.7368166638108653e-16, -44063604587.96897, 2575929449.0040855, 0.0, 0.0, 0.0, 1.2381789509438132e-17, 0.0, 0.0, 5.742829323798629e-07, -3.7365892335014026e-22, -9.114104471677911e-15, 0.0, 0.0, 0.0, -3.736589233501402e-22, 4.5685475954851246e-07, -8.247212878163842e-30, 0.0, 0.0, 0.0, -9.114104471677913e-15, -7.751815228250728e-30, 4.568547595485123e-07, 0.0, -1.7368166638108653e-16, 1.2381789509438132e-17, 0.0, 0.0, 0.0, 1.016663146806069e-06]
twist: 
  twist: 
    linear: 
      x: 2.79747605116e-09
      y: 0.0
      z: 0.0
    angular: 
      x: 0.0
      y: 0.0
      z: 8.80916136364e-05
  covariance: [9.999995995094053e-10, 0.0, 0.0, 0.0, 0.0, 0.0, 0.0, 4294855.735779787, 0.0, 0.0, 0.0, 0.0, 0.0, 0.0, 5.025900848613034e-07, -9.572806218658823e-26, -7.751356020526123e-27, 0.0, 0.0, 0.0, -9.572806218658819e-26, 3.344422997517814e-07, -2.412359629741375e-34, 0.0, 0.0, 0.0, -7.751356020526122e-27, -2.5673916735063227e-34, 3.344422997517814e-07, 0.0, 0.0, 0.0, 0.0, 0.0, 0.0, 9.970636114131159e-10]
---
header: 
  seq: 10883
  stamp: 
    secs: 1518208986
    nsecs: 434778690
  frame_id: "swarmone/odom"
child_frame_id: "swarmone/base_link"
pose: 
  pose: 
    position: 
      x: -0.143707839797
      y: 15.49906674
      z: 0.0
    orientation: 
      x: 0.0
      y: 0.0
      z: 0.677972044572
      w: 0.735087686456
  covariance: [754466168452.4888, -44087719304.58077, 0.0, 0.0, 0.0, 2.909414294478073e-16, -44087719304.58041, 2577567778.067433, 0.0, 0.0, 0.0, -2.3558232717338654e-17, 0.0, 0.0, 5.636536424333844e-07, 7.895850671684142e-22, 1.5305483970298174e-14, 0.0, 0.0, 0.0, 7.895850671684141e-22, 4.482813080981946e-07, -2.6631710471794633e-29, 0.0, 0.0, 0.0, 1.5305483970298174e-14, -2.876002651996121e-29, 4.4828130809819417e-07, 0.0, 2.9094142944780736e-16, -2.355823271733865e-17, 0.0, 0.0, 0.0, 9.594426878210714e-07]
twist: 
  twist: 
    linear: 
      x: -4.79958627356e-09
      y: 0.0
      z: 0.0
    angular: 
      x: 0.0
      y: 0.0
      z: 0.000124424127548
  covariance: [9.9999959808276e-10, 0.0, 0.0, 0.0, 0.0, 0.0, 0.0, 4296034.267854579, 0.0, 0.0, 0.0, 0.0, 0.0, 0.0, 4.929693137036631e-07, 1.4687807452451226e-25, 1.1893092583711738e-26, 0.0, 0.0, 0.0, 1.4687807452451232e-25, 3.3019067480218835e-07, -5.986944733637028e-34, 0.0, 0.0, 0.0, 1.1893092583711736e-26, -5.351930013578468e-34, 3.3019067480218835e-07, 0.0, 0.0, 0.0, 0.0, 0.0, 0.0, 9.968893952517317e-10]
---
header: 
  seq: 10884
  stamp: 
    secs: 1518208986
    nsecs: 535328865
  frame_id: "swarmone/odom"
child_frame_id: "swarmone/base_link"
pose: 
  pose: 
    position: 
      x: -0.143744522164
      y: 15.4986137055
      z: 0.0
    orientation: 
      x: 0.0
      y: 0.0
      z: 0.681639470435
      w: 0.731688207056
  covariance: [754815617304.2631, -44112092028.28087, 0.0, 0.0, 0.0, 5.10988633715519e-16, -44112092028.280495, 2579223683.8529773, 0.0, 0.0, 0.0, -3.6961515057562655e-17, 0.0, 0.0, 7.647921244416329e-07, 1.7001299489455013e-21, 1.2353158344659642e-14, 0.0, 0.0, 0.0, 1.7001299489455016e-21, 6.418876161281545e-07, -8.96149178791031e-29, 0.0, 0.0, 0.0, 1.2353158344659639e-14, -8.896720141046101e-29, 6.418876161281539e-07, 0.0, 5.10988633715519e-16, -3.696151505756265e-17, 0.0, 0.0, 0.0, 2.9192434080396795e-06]
twist: 
  twist: 
    linear: 
      x: -3.59974050568e-09
      y: 0.0
      z: 0.0
    angular: 
      x: 0.0
      y: 0.0
      z: 4.10362352907e-05
  covariance: [9.99999602189231e-10, 0.0, 0.0, 0.0, 0.0, 0.0, 0.0, 4297225.184505877, 0.0, 0.0, 0.0, 0.0, 0.0, 0.0, 6.950104911250679e-07, 5.424351162452879e-25, 3.846428069559335e-26, 0.0, 0.0, 0.0, 5.424351162452885e-25, 4.504276843240345e-07, -3.8491476556638614e-33, 0.0, 0.0, 0.0, 3.846428069559336e-26, -3.271318207464103e-33, 4.504276843240345e-07, 0.0, 0.0, 0.0, 0.0, 0.0, 0.0, 9.98974093608926e-10]
---
header: 
  seq: 10885
  stamp: 
    secs: 1518208986
    nsecs: 635236263
  frame_id: "swarmone/odom"
child_frame_id: "swarmone/base_link"
pose: 
  pose: 
    position: 
      x: -0.143772779208
      y: 15.498215285
      z: 0.0
    orientation: 
      x: 0.0
      y: 0.0
      z: 0.674288151574
      w: 0.738468339638
  covariance: [755163224134.534, -44134590139.560936, 0.0, 0.0, 0.0, 3.229688575383759e-16, -44134590139.56056, 2580666493.0806813, 0.0, 0.0, 0.0, -2.550284132387601e-17, 0.0, 0.0, 5.663604276726512e-07, 6.05777545218922e-22, 1.0300416738164308e-14, 0.0, 0.0, 0.0, 6.057775452189219e-22, 4.504499880385276e-07, -1.460758027094272e-29, 0.0, 0.0, 0.0, 1.030041673816431e-14, -1.417107841217572e-29, 4.504499880385274e-07, 0.0, 3.229688575383759e-16, -2.5502841323876002e-17, 0.0, 0.0, 0.0, 9.7374780256787e-07]
twist: 
  twist: 
    linear: 
      x: -3.20311237777e-09
      y: 0.0
      z: 0.0
    angular: 
      x: 0.0
      y: 0.0
      z: 0.000122605578112
  covariance: [9.999995996303493e-10, 0.0, 0.0, 0.0, 0.0, 0.0, 0.0, 4298408.70607603, 0.0, 0.0, 0.0, 0.0, 0.0, 0.0, 4.954092504408798e-07, 1.0126125099217357e-25, 9.215904047140363e-27, 0.0, 0.0, 0.0, 1.012612509921736e-25, 3.312588189057245e-07, -1.965097848494064e-34, 0.0, 0.0, 0.0, 9.215904047140367e-27, -3.4216139352278265e-34, 3.312588189057245e-07, 0.0, 0.0, 0.0, 0.0, 0.0, 0.0, 9.96934859014527e-10]
---
header: 
  seq: 10886
  stamp: 
    secs: 1518208986
    nsecs: 735094309
  frame_id: "swarmone/odom"
child_frame_id: "swarmone/base_link"
pose: 
  pose: 
    position: 
      x: -0.143863166764
      y: 15.497222535
      z: 0.0
    orientation: 
      x: 0.0
      y: 0.0
      z: 0.670587424357
      w: 0.741830510491
  covariance: [755510224592.6046, -44160542813.38442, 0.0, 0.0, 0.0, 5.21381994374139e-16, -44160542813.38404, 2582515830.0580826, 0.0, 0.0, 0.0, -5.110369892190217e-17, 0.0, 0.0, 5.868628174271676e-07, 1.9370293525227566e-21, 2.6549828777870313e-14, 0.0, 0.0, 0.0, 1.937029352522757e-21, 4.6720403410327023e-07, -1.2335055110228209e-28, 0.0, 0.0, 0.0, 2.6549828777870322e-14, -1.256116753034221e-28, 4.672040341032686e-07, 0.0, 5.21381994374139e-16, -5.110369892190217e-17, 0.0, 0.0, 0.0, 1.0881887205365456e-06]
twist: 
  twist: 
    linear: 
      x: -8.00095025996e-09
      y: 0.0
      z: 0.0
    angular: 
      x: 0.0
      y: 0.0
      z: 0.000109770562009
  covariance: [9.99999599431957e-10, 0.0, 0.0, 0.0, 0.0, 0.0, 0.0, 4299591.860131758, 0.0, 0.0, 0.0, 0.0, 0.0, 0.0, 5.141144876074901e-07, 3.0906543509134224e-25, 3.125885114392901e-26, 0.0, 0.0, 0.0, 3.0906543509134224e-25, 3.396813019451227e-07, -2.8080735107533303e-33, 0.0, 0.0, 0.0, 3.125885114392902e-26, -2.6153769219016757e-33, 3.396813019451227e-07, 0.0, 0.0, 0.0, 0.0, 0.0, 0.0, 9.972557345796678e-10]
---
header: 
  seq: 10887
  stamp: 
    secs: 1518208986
    nsecs: 834876537
  frame_id: "swarmone/odom"
child_frame_id: "swarmone/base_link"
pose: 
  pose: 
    position: 
      x: -0.143998350107
      y: 15.4958858441
      z: 0.0
    orientation: 
      x: 0.0
      y: 0.0
      z: 0.681638998202
      w: 0.731688646987
  covariance: [755856755961.0566, -44188209472.751236, 0.0, 0.0, 0.0, 6.849624827950172e-16, -44188209472.75085, 2584567566.8600326, 0.0, 0.0, 0.0, -5.591787192427572e-17, 0.0, 0.0, 5.690338201355489e-07, 1.6227275470403643e-21, 3.4840002059643065e-14, 0.0, 0.0, 0.0, 1.6227275470403647e-21, 4.5260162769741807e-07, -1.3151677043191833e-28, 0.0, 0.0, 0.0, 3.4840002059643065e-14, -1.3085102780026537e-28, 4.5260162769741526e-07, 0.0, 6.849624827950172e-16, -5.591787192427572e-17, 0.0, 0.0, 0.0, 9.880529173137108e-07]
twist: 
  twist: 
    linear: 
      x: -1.07973434291e-08
      y: 0.0
      z: 0.0
    angular: 
      x: 0.0
      y: 0.0
      z: 0.00012083942164
  covariance: [9.999995991276257e-10, 0.0, 0.0, 0.0, 0.0, 0.0, 0.0, 4300774.33272438, 0.0, 0.0, 0.0, 0.0, 0.0, 0.0, 4.978257801344175e-07, 3.5034698683435896e-25, 2.4846076046016911e-26, 0.0, 0.0, 0.0, 3.5034698683435886e-25, 3.323232969471029e-07, -2.7473215951070623e-33, 0.0, 0.0, 0.0, 2.4846076046016906e-26, -2.71542451279294e-33, 3.323232969471029e-07, 0.0, 0.0, 0.0, 0.0, 0.0, 0.0, 9.96979012949125e-10]
---
header: 
  seq: 10888
  stamp: 
    secs: 1518208986
    nsecs: 934625864
  frame_id: "swarmone/odom"
child_frame_id: "swarmone/base_link"
pose: 
  pose: 
    position: 
      x: -0.144026496204
      y: 15.4954889405
      z: 0.0
    orientation: 
      x: 0.0
      y: 0.0
      z: 0.681639000035
      w: 0.73168864528
  covariance: [756204195466.1288, -44210700141.992226, 0.0, 0.0, 0.0, 1.964735264287981e-16, -44210700141.99184, 2586010170.5021157, 0.0, 0.0, 0.0, -1.3932847893068713e-17, 0.0, 0.0, 5.690338189881795e-07, 4.807252387159314e-22, 1.0322795555038002e-14, 0.0, 0.0, 0.0, 4.807252387159314e-22, 4.5260162397502574e-07, -1.1221005525646064e-29, 0.0, 0.0, 0.0, 1.0322795555038005e-14, -1.180839752603811e-29, 4.526016239750254e-07, 0.0, 1.9647352642879808e-16, -1.3932847893068713e-17, 0.0, 0.0, 0.0, 9.88052917313653e-07]
twist: 
  twist: 
    linear: 
      x: -3.20053657535e-09
      y: 0.0
      z: 0.0
    angular: 
      x: 0.0
      y: 0.0
      z: 0.000120839421637
  covariance: [9.999995989953734e-10, 0.0, 0.0, 0.0, 0.0, 0.0, 0.0, 4301956.632089154, 0.0, 0.0, 0.0, 0.0, 0.0, 0.0, 4.978257777902045e-07, 1.037971935779486e-25, 7.360756230536872e-27, 0.0, 0.0, 0.0, 1.0379719357794854e-25, 3.3232328022419145e-07, -2.421484728935051e-34, 0.0, 0.0, 0.0, 7.360756230536874e-27, -3.5410066141216166e-34, 3.3232328022419145e-07, 0.0, 0.0, 0.0, 0.0, 0.0, 0.0, 9.969790129491236e-10]
---
header: 
  seq: 10889
  stamp: 
    secs: 1518208987
    nsecs:  34527540
  frame_id: "swarmone/odom"
child_frame_id: "swarmone/base_link"
pose: 
  pose: 
    position: 
      x: -0.144068841112
      y: 15.4948918256
      z: 0.0
    orientation: 
      x: 0.0
      y: 0.0
      z: 0.677972052196
      w: 0.735087679424
  covariance: [756552293498.8192, -44233234257.09894, 0.0, 0.0, 0.0, 2.9498129657471066e-16, -44233234257.09854, 2587455617.283286, 0.0, 0.0, 0.0, -2.2895367959913502e-17, 0.0, 0.0, 5.690338242466954e-07, 8.23820424706035e-22, 1.5505540967956372e-14, 0.0, 0.0, 0.0, 8.238204247060347e-22, 4.5260164083906537e-07, -3.0089051303889215e-29, 0.0, 0.0, 0.0, 1.5505540967956372e-14, -2.919063867755703e-29, 4.5260164083906473e-07, 0.0, 2.9498129657471066e-16, -2.2895367959913502e-17, 0.0, 0.0, 0.0, 9.880529173139078e-07]
twist: 
  twist: 
    linear: 
      x: -4.79986053507e-09
      y: 0.0
      z: 0.0
    angular: 
      x: 0.0
      y: 0.0
      z: 0.000120839421728
  covariance: [9.999995996069028e-10, 0.0, 0.0, 0.0, 0.0, 0.0, 0.0, 4303140.954363649, 0.0, 0.0, 0.0, 0.0, 0.0, 0.0, 4.978257884986608e-07, 1.5579206794353015e-25, 1.2614788804595381e-26, 0.0, 0.0, 0.0, 1.5579206794353008e-25, 3.323233558747548e-07, -5.803811674275594e-34, 0.0, 0.0, 0.0, 1.261478880459538e-26, -5.322946101128063e-34, 3.323233558747548e-07, 0.0, 0.0, 0.0, 0.0, 0.0, 0.0, 9.969790129491306e-10]
---
header: 
  seq: 10890
  stamp: 
    secs: 1518208987
    nsecs: 134610176
  frame_id: "swarmone/odom"
child_frame_id: "swarmone/base_link"
pose: 
  pose: 
    position: 
      x: -0.144113294524
      y: 15.4943428391
      z: 0.0
    orientation: 
      x: 0.0
      y: 0.0
      z: 0.674288096561
      w: 0.738468389869
  covariance: [756900885601.6605, -44257554133.89519, 0.0, 0.0, 0.0, 2.7331179936523367e-16, -44257554133.8948, 2589108530.9297624, 0.0, 0.0, 0.0, -2.3974168645509068e-17, 0.0, 0.0, 5.716744661638832e-07, 6.496939067338475e-22, 1.430356672050607e-14, 0.0, 0.0, 0.0, 6.496939067338476e-22, 4.547364987146526e-07, -2.2227317525722714e-29, 0.0, 0.0, 0.0, 1.4303566720506068e-14, -2.116456709324294e-29, 4.5473649871465224e-07, 0.0, 2.7331179936523363e-16, -2.3974168645509068e-17, 0.0, 0.0, 0.0, 1.0023580320603108e-06]
twist: 
  twist: 
    linear: 
      x: -4.40092576444e-09
      y: 0.0
      z: 0.0
    angular: 
      x: 0.0
      y: 0.0
      z: 8.93425698367e-05
  covariance: [9.999996003308548e-10, 0.0, 0.0, 0.0, 0.0, 0.0, 0.0, 4304327.639826357, 0.0, 0.0, 0.0, 0.0, 0.0, 0.0, 5.002193040679981e-07, 1.4684176873545385e-25, 1.3369394640547786e-26, 0.0, 0.0, 0.0, 1.4684176873545385e-25, 3.33384606997275e-07, -5.798318861156208e-34, 0.0, 0.0, 0.0, 1.3369394640547786e-26, -4.671777991722772e-34, 3.33384606997275e-07, 0.0, 0.0, 0.0, 0.0, 0.0, 0.0, 9.970219128567096e-10]
---
header: 
  seq: 10891
  stamp: 
    secs: 1518208987
    nsecs: 234457731
  frame_id: "swarmone/odom"
child_frame_id: "swarmone/base_link"
pose: 
  pose: 
    position: 
      x: -0.144194613184
      y: 15.4934496473
      z: 0.0
    orientation: 
      x: 0.0
      y: 0.0
      z: 0.681638998814
      w: 0.731688646417
  covariance: [757248487853.295, -44283556166.09636, 0.0, 0.0, 0.0, 4.443190032122138e-16, -44283556166.09597, 2590961923.6386423, 0.0, 0.0, 0.0, -3.451756921101427e-17, 0.0, 0.0, 5.690338223820196e-07, 1.0823988466971067e-21, 2.3243279338417343e-14, 0.0, 0.0, 0.0, 1.0823988466971067e-21, 4.526016349262892e-07, -5.844502686064512e-29, 0.0, 0.0, 0.0, 2.3243279338417346e-14, -5.830871297741917e-29, 4.526016349262878e-07, 0.0, 4.443190032122138e-16, -3.451756921101426e-17, 0.0, 0.0, 0.0, 9.880529173138178e-07]
twist: 
  twist: 
    linear: 
      x: -7.19879000161e-09
      y: 0.0
      z: 0.0
    angular: 
      x: 0.0
      y: 0.0
      z: 0.000120839421648
  covariance: [9.999995993898794e-10, 0.0, 0.0, 0.0, 0.0, 0.0, 0.0, 4305511.755305783, 0.0, 0.0, 0.0, 0.0, 0.0, 0.0, 4.978257847025327e-07, 2.3371688059615396e-25, 1.6574301458336965e-26, 0.0, 0.0, 0.0, 2.337168805961539e-25, 3.3232332907955916e-07, -1.0503692820358724e-33, 0.0, 0.0, 0.0, 1.6574301458336962e-26, -1.2593401679956549e-33, 3.3232332907955916e-07, 0.0, 0.0, 0.0, 0.0, 0.0, 0.0, 9.969790129491282e-10]
---
header: 
  seq: 10892
  stamp: 
    secs: 1518208987
    nsecs: 335067034
  frame_id: "swarmone/odom"
child_frame_id: "swarmone/base_link"
pose: 
  pose: 
    position: 
      x: -0.144226822474
      y: 15.4929954464
      z: 0.0
    orientation: 
      x: 0.0
      y: 0.0
      z: 0.681639003524
      w: 0.731688642029
  covariance: [757599438985.569, -44306277590.90271, 0.0, 0.0, 0.0, 2.2506841806852157e-16, -44306277590.90232, 2592419595.6267176, 0.0, 0.0, 0.0, -1.5960643553499916e-17, 0.0, 0.0, 5.716744839346986e-07, 5.556951609805239e-22, 1.1762342335958e-14, 0.0, 0.0, 0.0, 5.556951609805238e-22, 4.547365894524346e-07, -1.5000814385661588e-29, 0.0, 0.0, 0.0, 1.1762342335958001e-14, -1.5519393871948336e-29, 4.5473658945243436e-07, 0.0, 2.2506841806852157e-16, -1.596064355349992e-17, 0.0, 0.0, 0.0, 1.0023580320611826e-06]
twist: 
  twist: 
    linear: 
      x: -3.59986906256e-09
      y: 0.0
      z: 0.0
    angular: 
      x: 0.0
      y: 0.0
      z: 0.000119123426699
  covariance: [9.99999602423031e-10, 0.0, 0.0, 0.0, 0.0, 0.0, 0.0, 4306705.1241628025, 0.0, 0.0, 0.0, 0.0, 0.0, 0.0, 5.002193403557415e-07, 1.2094916095660216e-25, 8.5770845521392e-27, 0.0, 0.0, 0.0, 1.2094916095660214e-25, 3.3338486499466454e-07, -3.8600622019261415e-34, 0.0, 0.0, 0.0, 8.577084552139198e-27, -3.218874321830386e-34, 3.3338486499466454e-07, 0.0, 0.0, 0.0, 0.0, 0.0, 0.0, 9.97021912856733e-10]
---
header: 
  seq: 10893
  stamp: 
    secs: 1518208987
    nsecs: 434680700
  frame_id: "swarmone/odom"
child_frame_id: "swarmone/base_link"
pose: 
  pose: 
    position: 
      x: -0.14425488663
      y: 15.4925996889
      z: 0.0
    orientation: 
      x: 0.0
      y: 0.0
      z: 0.685288997227
      w: 0.728271234005
  covariance: [757947045192.1631, -44328782587.860245, 0.0, 0.0, 0.0, 2.4652974213652754e-16, -44328782587.859856, 2593863402.898882, 0.0, 0.0, 0.0, -1.567316789041497e-17, 0.0, 0.0, 6.285704559999812e-07, 6.112619177166438e-22, 1.1101226640809892e-14, 0.0, 0.0, 0.0, 6.112619177166438e-22, 5.031771097060582e-07, -1.765937843271608e-29, 0.0, 0.0, 0.0, 1.1101226640809893e-14, -1.8879161272645212e-29, 5.031771097060578e-07, 0.0, 2.465297421365275e-16, -1.567316789041497e-17, 0.0, 0.0, 0.0, 1.3599859007120953e-06]
twist: 
  twist: 
    linear: 
      x: -3.20031384553e-09
      y: 0.0
      z: 0.0
    angular: 
      x: 0.0
      y: 0.0
      z: 8.79129520592e-05
  covariance: [9.99999598449264e-10, 0.0, 0.0, 0.0, 0.0, 0.0, 0.0, 4307886.900596889, 0.0, 0.0, 0.0, 0.0, 0.0, 0.0, 5.53431087920187e-07, 1.8073413677074204e-25, 1.1001007185340615e-26, 0.0, 0.0, 0.0, 1.8073413677074206e-25, 3.588590730766871e-07, -4.950211661776049e-34, 0.0, 0.0, 0.0, 1.100100718534061e-26, -5.21604920742835e-34, 3.588590730766871e-07, 0.0, 0.0, 0.0, 0.0, 0.0, 0.0, 9.978021750983814e-10]
---
header: 
  seq: 10894
  stamp: 
    secs: 1518208987
    nsecs: 534324646
  frame_id: "swarmone/odom"
child_frame_id: "swarmone/base_link"
pose: 
  pose: 
    position: 
      x: -0.144285041756
      y: 15.4921043275
      z: 0.0
    orientation: 
      x: 0.0
      y: 0.0
      z: 0.677972073843
      w: 0.73508765946
  covariance: [758295113735.9346, -44349570902.129036, 0.0, 0.0, 0.0, 2.902599159426189e-16, -44349570902.128654, 2595104520.4902134, 0.0, 0.0, 0.0, -2.123810444089897e-17, 0.0, 0.0, 5.844066644849379e-07, 7.621515264733891e-22, 1.3199481404564943e-14, 0.0, 0.0, 0.0, 7.621515264733893e-22, 4.651658352912823e-07, -2.4913272592138378e-29, 0.0, 0.0, 0.0, 1.3199481404564943e-14, -2.3499423422961882e-29, 4.651658352912819e-07, 0.0, 2.902599159426189e-16, -2.1238104440898966e-17, 0.0, 0.0, 0.0, 1.073883605790096e-06]
twist: 
  twist: 
    linear: 
      x: -4.00015673016e-09
      y: 0.0
      z: 0.0
    angular: 
      x: 0.0
      y: 0.0
      z: 0.00011122602977
  covariance: [9.999995985713798e-10, 0.0, 0.0, 0.0, 0.0, 0.0, 0.0, 4309069.252519358, 0.0, 0.0, 0.0, 0.0, 0.0, 0.0, 5.118525126368743e-07, 1.5088526340829631e-25, 1.2217150600530571e-26, 0.0, 0.0, 0.0, 1.5088526340829627e-25, 3.386400052106236e-07, -5.2853534247710185e-34, 0.0, 0.0, 0.0, 1.2217150600530574e-26, -6.2422700836261214e-34, 3.386400052106236e-07, 0.0, 0.0, 0.0, 0.0, 0.0, 0.0, 9.972193478632709e-10]
---
header: 
  seq: 10895
  stamp: 
    secs: 1518208987
    nsecs: 635246277
  frame_id: "swarmone/odom"
child_frame_id: "swarmone/base_link"
pose: 
  pose: 
    position: 
      x: -0.144330238519
      y: 15.491546149
      z: 0.0
    orientation: 
      x: 0.0
      y: 0.0
      z: 0.677972058593
      w: 0.735087673524
  covariance: [758647275752.7649, -44374143086.778725, 0.0, 0.0, 0.0, 2.862851761695793e-16, -44374143086.77834, 2596774901.4511886, 0.0, 0.0, 0.0, -2.3181183611393923e-17, 0.0, 0.0, 5.742829671632615e-07, 7.917477222861478e-22, 1.4481998166874688e-14, 0.0, 0.0, 0.0, 7.91747722286148e-22, 4.5685490596438123e-07, -2.8205717155440273e-29, 0.0, 0.0, 0.0, 1.448199816687469e-14, -2.566131677090484e-29, 4.568549059643808e-07, 0.0, 2.8628517616957937e-16, -2.318118361139392e-17, 0.0, 0.0, 0.0, 1.0166631468077989e-06]
twist: 
  twist: 
    linear: 
      x: -4.40013285183e-09
      y: 0.0
      z: 0.0
    angular: 
      x: 0.0
      y: 0.0
      z: 0.000117455485434
  covariance: [9.999996036534594e-10, 0.0, 0.0, 0.0, 0.0, 0.0, 0.0, 4310266.985657115, 0.0, 0.0, 0.0, 0.0, 0.0, 0.0, 5.025901560895722e-07, 1.5212047979945323e-25, 1.231758270571169e-26, 0.0, 0.0, 0.0, 1.5212047979945325e-25, 3.3444280956557e-07, -5.4688428047923195e-34, 0.0, 0.0, 0.0, 1.2317582705711688e-26, -5.46478815097468e-34, 3.3444280956557e-07, 0.0, 0.0, 0.0, 0.0, 0.0, 0.0, 9.970636114131606e-10]
---
header: 
  seq: 10896
  stamp: 
    secs: 1518208987
    nsecs: 735272884
  frame_id: "swarmone/odom"
child_frame_id: "swarmone/base_link"
pose: 
  pose: 
    position: 
      x: -0.144378673214
      y: 15.4909479825
      z: 0.0
    orientation: 
      x: 0.0
      y: 0.0
      z: 0.677972048077
      w: 0.735087683223
  covariance: [758996443616.4904, -44398507327.52672, 0.0, 0.0, 0.0, 2.9527891339708546e-16, -44398507327.526344, 2598431237.8696284, 0.0, 0.0, 0.0, -2.3909432826952206e-17, 0.0, 0.0, 5.663604317147995e-07, 8.093224017991574e-22, 1.545570955446409e-14, 0.0, 0.0, 0.0, 8.093224017991573e-22, 4.5045000079524637e-07, -2.888292313595971e-29, 0.0, 0.0, 0.0, 1.545570955446409e-14, -3.0714446799340145e-29, 4.5045000079524584e-07, 0.0, 2.9527891339708546e-16, -2.390943282695221e-17, 0.0, 0.0, 0.0, 9.73747802568016e-07]
twist: 
  twist: 
    linear: 
      x: -4.7999942545e-09
      y: 0.0
      z: 0.0
    angular: 
      x: 0.0
      y: 0.0
      z: 0.000122605578302
  covariance: [9.99999600106994e-10, 0.0, 0.0, 0.0, 0.0, 0.0, 0.0, 4311454.31568147, 0.0, 0.0, 0.0, 0.0, 0.0, 0.0, 4.954092585334214e-07, 1.5179787222299267e-25, 1.2291460184229514e-26, 0.0, 0.0, 0.0, 1.5179787222299263e-25, 3.3125887235314826e-07, -6.301962488025819e-34, 0.0, 0.0, 0.0, 1.2291460184229512e-26, -5.661305683271871e-34, 3.3125887235314826e-07, 0.0, 0.0, 0.0, 0.0, 0.0, 0.0, 9.96934859014533e-10]
---
header: 
  seq: 10897
  stamp: 
    secs: 1518208987
    nsecs: 835355759
  frame_id: "swarmone/odom"
child_frame_id: "swarmone/base_link"
pose: 
  pose: 
    position: 
      x: -0.144427158533
      y: 15.4903491668
      z: 0.0
    orientation: 
      x: 0.0
      y: 0.0
      z: 0.685288902863
      w: 0.7282713228
  covariance: [759345936538.8593, -44422894648.40243, 0.0, 0.0, 0.0, 2.9142969520995143e-16, -44422894648.40205, 2600089206.0252595, 0.0, 0.0, 0.0, -1.969161085416882e-17, 0.0, 0.0, 5.66360433667435e-07, 6.096847235936586e-22, 1.54634577979676e-14, 0.0, 0.0, 0.0, 6.096847235936587e-22, 4.504500072414913e-07, -2.1192648354103417e-29, 0.0, 0.0, 0.0, 1.54634577979676e-14, -2.2289749683324912e-29, 4.5045000724149056e-07, 0.0, 2.9142969520995147e-16, -1.9691610854168816e-17, 0.0, 0.0, 0.0, 9.737478025681085e-07]
twist: 
  twist: 
    linear: 
      x: -4.7996050051e-09
      y: 0.0
      z: 0.0
    angular: 
      x: 0.0
      y: 0.0
      z: 0.000122605578344
  covariance: [9.999996003318032e-10, 0.0, 0.0, 0.0, 0.0, 0.0, 0.0, 4312642.531810652, 0.0, 0.0, 0.0, 0.0, 0.0, 0.0, 4.954092624954426e-07, 1.5208464665402564e-25, 9.257817077644644e-27, 0.0, 0.0, 0.0, 1.5208464665402557e-25, 3.3125890009582536e-07, -5.009347844212148e-34, 0.0, 0.0, 0.0, 9.257817077644642e-27, -4.046418762870502e-34, 3.3125890009582536e-07, 0.0, 0.0, 0.0, 0.0, 0.0, 0.0, 9.969348590145354e-10]
---
header: 
  seq: 10898
  stamp: 
    secs: 1518208987
    nsecs: 935249805
  frame_id: "swarmone/odom"
child_frame_id: "swarmone/base_link"
pose: 
  pose: 
    position: 
      x: -0.144454437532
      y: 15.4899010562
      z: 0.0
    orientation: 
      x: 0.0
      y: 0.0
      z: 0.674288141627
      w: 0.73846834872
  covariance: [759695393494.1193, -44443769115.82121, 0.0, 0.0, 0.0, 2.115533054008524e-16, -44443769115.82082, 2601335666.572669, 0.0, 0.0, 0.0, -1.7064533937800523e-17, 0.0, 0.0, 5.581374573025098e-07, 6.416177742789618e-22, 1.1411355352827835e-14, 0.0, 0.0, 0.0, 6.416177742789618e-22, 4.438923227676173e-07, -1.6932668499162989e-29, 0.0, 0.0, 0.0, 1.1411355352827834e-14, -1.5231728084175062e-29, 4.43892322767617e-07, 0.0, 2.115533054008524e-16, -1.7064533937800523e-17, 0.0, 0.0, 0.0, 9.30832458329491e-07]
twist: 
  twist: 
    linear: 
      x: -3.60050734192e-09
      y: 0.0
      z: 0.0
    angular: 
      x: 0.0
      y: 0.0
      z: 0.0001282280169
  covariance: [9.99999599576319e-10, 0.0, 0.0, 0.0, 0.0, 0.0, 0.0, 4313828.723792851, 0.0, 0.0, 0.0, 0.0, 0.0, 0.0, 4.880180435972663e-07, 1.0432170096780908e-25, 9.497637804666354e-27, 0.0, 0.0, 0.0, 1.0432170096780903e-25, 3.280447035679442e-07, -2.7451479039364972e-34, 0.0, 0.0, 0.0, 9.49763780466635e-27, -2.7505432689908478e-34, 3.280447035679442e-07, 0.0, 0.0, 0.0, 0.0, 0.0, 0.0, 9.967942979776151e-10]
---
header: 
  seq: 10899
  stamp: 
    secs: 1518208988
    nsecs:  35084963
  frame_id: "swarmone/odom"
child_frame_id: "swarmone/base_link"
pose: 
  pose: 
    position: 
      x: -0.14451315518
      y: 15.4892561224
      z: 0.0
    orientation: 
      x: 0.0
      y: 0.0
      z: 0.677972082515
      w: 0.735087651461
  covariance: [760043977774.6067, -44469850380.60881, 0.0, 0.0, 0.0, 3.4076392994167337e-16, -44469850380.60842, 2603195331.6185904, 0.0, 0.0, 0.0, -2.8602152005082115e-17, 0.0, 0.0, 5.916890317593401e-07, 1.043033299501841e-21, 1.736597760677282e-14, 0.0, 0.0, 0.0, 1.0430332995018402e-21, 4.7123413418095915e-07, -4.5217806840886796e-29, 0.0, 0.0, 0.0, 1.736597760677282e-14, -4.350507219481396e-29, 4.7123413418095835e-07, 0.0, 3.4076392994167337e-16, -2.860215200508211e-17, 0.0, 0.0, 0.0, 1.1167989500287104e-06]
twist: 
  twist: 
    linear: 
      x: -5.19971845442e-09
      y: 0.0
      z: 0.0
    angular: 
      x: 0.0
      y: 0.0
      z: 0.000106970986399
  covariance: [9.999995993401112e-10, 0.0, 0.0, 0.0, 0.0, 0.0, 0.0, 4315014.433789175, 0.0, 0.0, 0.0, 0.0, 0.0, 0.0, 5.185760968648127e-07, 2.1069006194282907e-25, 1.7059816384692946e-26, 0.0, 0.0, 0.0, 2.1069006194282903e-25, 3.4175387379929207e-07, -9.68375918926393e-34, 0.0, 0.0, 0.0, 1.7059816384692946e-26, -1.1306470602842257e-33, 3.4175387379929207e-07, 0.0, 0.0, 0.0, 0.0, 0.0, 0.0, 9.973257240047371e-10]
---
header: 
  seq: 10900
  stamp: 
    secs: 1518208988
    nsecs: 135244370
  frame_id: "swarmone/odom"
child_frame_id: "swarmone/base_link"
pose: 
  pose: 
    position: 
      x: -0.144557668877
      y: 15.4887063669
      z: 0.0
    orientation: 
      x: 0.0
      y: 0.0
      z: 0.681638939424
      w: 0.731688701745
  covariance: [760394123765.9115, -44494285995.49822, 0.0, 0.0, 0.0, 2.8293685306182708e-16, -44494285995.497826, 2604856827.0552015, 0.0, 0.0, 0.0, -2.1091911162867637e-17, 0.0, 0.0, 5.690338331191974e-07, 4.977927109250614e-22, 1.4249707874879518e-14, 0.0, 0.0, 0.0, 4.977927109250613e-22, 4.526016368106449e-07, -1.644949542290701e-29, 0.0, 0.0, 0.0, 1.4249707874879515e-14, -1.6469078359170293e-29, 4.5260163681064443e-07, 0.0, 2.8293685306182708e-16, -2.109191116286763e-17, 0.0, 0.0, 0.0, 9.880529173143406e-07]
twist: 
  twist: 
    linear: 
      x: -4.3997153646e-09
      y: 0.0
      z: 0.0
    angular: 
      x: 0.0
      y: 0.0
      z: 9.0629566437e-05
  covariance: [9.999996006372299e-10, 0.0, 0.0, 0.0, 0.0, 0.0, 0.0, 4316204.213101229, 0.0, 0.0, 0.0, 0.0, 0.0, 0.0, 4.978258065764916e-07, 1.4329653143942752e-25, 1.016204794826691e-26, 0.0, 0.0, 0.0, 1.4329653143942754e-25, 3.323234837946602e-07, -4.6800086670645824e-34, 0.0, 0.0, 0.0, 1.0162047948266907e-26, -3.7161532297510627e-34, 3.323234837946602e-07, 0.0, 0.0, 0.0, 0.0, 0.0, 0.0, 9.969790129491424e-10]
---
header: 
  seq: 10901
  stamp: 
    secs: 1518208988
    nsecs: 235227346
  frame_id: "swarmone/odom"
child_frame_id: "swarmone/base_link"
pose: 
  pose: 
    position: 
      x: -0.144589479235
      y: 15.4882577926
      z: 0.0
    orientation: 
      x: 0.0
      y: 0.0
      z: 0.681638996546
      w: 0.73168864853
  covariance: [760744047198.6478, -44516947437.36723, 0.0, 0.0, 0.0, 2.193918883672801e-16, -44516947437.36683, 2606311159.176316, 0.0, 0.0, 0.0, -1.5558105364084665e-17, 0.0, 0.0, 5.663604301924949e-07, 5.317089510219921e-22, 1.15867273881136e-14, 0.0, 0.0, 0.0, 5.317089510219921e-22, 4.504499959993579e-07, -1.5309085396486414e-29, 0.0, 0.0, 0.0, 1.1586727388113602e-14, -1.3105220018491585e-29, 4.5044999599935763e-07, 0.0, 2.1939188836728012e-16, -1.5558105364084665e-17, 0.0, 0.0, 0.0, 9.737478025679424e-07]
twist: 
  twist: 
    linear: 
      x: -3.59999729679e-09
      y: 0.0
      z: 0.0
    angular: 
      x: 0.0
      y: 0.0
      z: 0.000122605578235
  covariance: [9.99999599932481e-10, 0.0, 0.0, 0.0, 0.0, 0.0, 0.0, 4317392.114737614, 0.0, 0.0, 0.0, 0.0, 0.0, 0.0, 4.954092554397335e-07, 1.1388276443510889e-25, 8.075972873584264e-27, 0.0, 0.0, 0.0, 1.1388276443510886e-25, 3.312588505916173e-07, -2.2677735103232104e-34, 0.0, 0.0, 0.0, 8.075972873584266e-27, -3.873784922320674e-34, 3.312588505916173e-07, 0.0, 0.0, 0.0, 0.0, 0.0, 0.0, 9.969348590145307e-10]
---
header: 
  seq: 10902
  stamp: 
    secs: 1518208988
    nsecs: 334989071
  frame_id: "swarmone/odom"
child_frame_id: "swarmone/base_link"
pose: 
  pose: 
    position: 
      x: -0.144621149282
      y: 15.4878112062
      z: 0.0
    orientation: 
      x: 0.0
      y: 0.0
      z: 0.677972055702
      w: 0.735087676191
  covariance: [761093324503.1901, -44539567831.0489, 0.0, 0.0, 0.0, 2.21995183364526e-16, -44539567831.04849, 2607762912.2136965, 0.0, 0.0, 0.0, -1.7244777215044262e-17, 0.0, 0.0, 5.716744552421375e-07, 6.286683698939128e-22, 1.1663540121852923e-14, 0.0, 0.0, 0.0, 6.286683698939128e-22, 4.5473649637385996e-07, -1.73878099183435e-29, 0.0, 0.0, 0.0, 1.1663540121852922e-14, -1.6850087140430261e-29, 4.547364963738596e-07, 0.0, 2.21995183364526e-16, -1.7244777215044262e-17, 0.0, 0.0, 0.0, 1.0023580320597748e-06]
twist: 
  twist: 
    linear: 
      x: -3.59999621433e-09
      y: 0.0
      z: 0.0
    angular: 
      x: 0.0
      y: 0.0
      z: 0.000119123426201
  covariance: [9.99999599045204e-10, 0.0, 0.0, 0.0, 0.0, 0.0, 0.0, 4318577.604878164, 0.0, 0.0, 0.0, 0.0, 0.0, 0.0, 5.002192817648639e-07, 1.198408197329069e-25, 9.703784401591232e-27, 0.0, 0.0, 0.0, 1.1984081973290686e-25, 3.333844484050867e-07, -4.662525829756148e-34, 0.0, 0.0, 0.0, 9.703784401591229e-27, -2.257241515057208e-34, 3.333844484050867e-07, 0.0, 0.0, 0.0, 0.0, 0.0, 0.0, 9.970219128566953e-10]
---
header: 
  seq: 10903
  stamp: 
    secs: 1518208988
    nsecs: 435088396
  frame_id: "swarmone/odom"
child_frame_id: "swarmone/base_link"
pose: 
  pose: 
    position: 
      x: -0.144657530018
      y: 15.4873619056
      z: 0.0
    orientation: 
      x: 0.0
      y: 0.0
      z: 0.677971991301
      w: 0.735087735588
  covariance: [761443646460.0364, -44564018055.48615, 0.0, 0.0, 0.0, 2.2270299279237853e-16, -44564018055.48574, 2609425606.342966, 0.0, 0.0, 0.0, -1.8032790130226906e-17, 0.0, 0.0, 5.690338310464447e-07, 4.6446088530040065e-22, 1.165338350096824e-14, 0.0, 0.0, 0.0, 4.644608853004007e-22, 4.5260163002556356e-07, -1.2415152698154016e-29, 0.0, 0.0, 0.0, 1.165338350096824e-14, -1.2703094192674807e-29, 4.5260163002556314e-07, 0.0, 2.227029927923785e-16, -1.8032790130226906e-17, 0.0, 0.0, 0.0, 9.880529173142377e-07]
twist: 
  twist: 
    linear: 
      x: -3.60039459357e-09
      y: 0.0
      z: 0.0
    angular: 
      x: 0.0
      y: 0.0
      z: 9.06295664284e-05
  covariance: [9.999996003974943e-10, 0.0, 0.0, 0.0, 0.0, 0.0, 0.0, 4319767.324895968, 0.0, 0.0, 0.0, 0.0, 0.0, 0.0, 4.978258023467992e-07, 1.1708869773693903e-25, 9.480971631335449e-27, 0.0, 0.0, 0.0, 1.1708869773693908e-25, 3.3232345372861534e-07, -1.295894843120745e-34, 0.0, 0.0, 0.0, 9.480971631335449e-27, -4.5091762073788275e-34, 3.3232345372861534e-07, 0.0, 0.0, 0.0, 0.0, 0.0, 0.0, 9.969790129491395e-10]
---
header: 
  seq: 10904
  stamp: 
    secs: 1518208988
    nsecs: 534746885
  frame_id: "swarmone/odom"
child_frame_id: "swarmone/base_link"
pose: 
  pose: 
    position: 
      x: -0.144705609959
      y: 15.4867681216
      z: 0.0
    orientation: 
      x: 0.0
      y: 0.0
      z: 0.677972007074
      w: 0.73508772104
  covariance: [761792553641.4551, -44588370526.33904, 0.0, 0.0, 0.0, 3.1125819989260584e-16, -44588370526.33863, 2611081744.4134154, 0.0, 0.0, 0.0, -2.5203337484854377e-17, 0.0, 0.0, 5.844066649211356e-07, 6.861775552158649e-22, 1.5842492168961452e-14, 0.0, 0.0, 0.0, 6.861775552158649e-22, 4.6516580267732857e-07, -2.612063293960371e-29, 0.0, 0.0, 0.0, 1.5842492168961445e-14, -2.619394463231036e-29, 4.6516580267732804e-07, 0.0, 3.1125819989260584e-16, -2.520333748485438e-17, 0.0, 0.0, 0.0, 1.07388360579011e-06]
twist: 
  twist: 
    linear: 
      x: -4.80054598677e-09
      y: 0.0
      z: 0.0
    angular: 
      x: 0.0
      y: 0.0
      z: 8.34195223681e-05
  covariance: [9.999995986298627e-10, 0.0, 0.0, 0.0, 0.0, 0.0, 0.0, 4320952.022446607, 0.0, 0.0, 0.0, 0.0, 0.0, 0.0, 5.118525135129725e-07, 1.8105549955379243e-25, 1.4660526599073585e-26, 0.0, 0.0, 0.0, 1.8105549955379245e-25, 3.3864001102379803e-07, -8.936355011267772e-34, 0.0, 0.0, 0.0, 1.4660526599073585e-26, -7.663467554152939e-34, 3.3864001102379803e-07, 0.0, 0.0, 0.0, 0.0, 0.0, 0.0, 9.972193478632713e-10]
---
header: 
  seq: 10905
  stamp: 
    secs: 1518208988
    nsecs: 634499073
  frame_id: "swarmone/odom"
child_frame_id: "swarmone/base_link"
pose: 
  pose: 
    position: 
      x: -0.144769829742
      y: 15.4859750113
      z: 0.0
    orientation: 
      x: 0.0
      y: 0.0
      z: 0.677972058593
      w: 0.735087673525
  covariance: [762141916840.284, -44612755775.204155, 0.0, 0.0, 0.0, 4.1155093534177905e-16, -44612755775.20374, 2612740201.160513, 0.0, 0.0, 0.0, -3.332427311275163e-17, 0.0, 0.0, 5.742829281749111e-07, 1.1380082996657129e-21, 2.0817684645288555e-14, 0.0, 0.0, 0.0, 1.1380082996657129e-21, 4.568547790656662e-07, -5.554941009697212e-29, 0.0, 0.0, 0.0, 2.0817684645288552e-14, -5.574848585639986e-29, 4.5685477906566527e-07, 0.0, 4.1155093534177905e-16, -3.3324273112751633e-17, 0.0, 0.0, 0.0, 1.0166631468058628e-06]
twist: 
  twist: 
    linear: 
      x: -6.39901080735e-09
      y: 0.0
      z: 0.0
    angular: 
      x: 0.0
      y: 0.0
      z: 0.000117455484715
  covariance: [9.999995990068976e-10, 0.0, 0.0, 0.0, 0.0, 0.0, 0.0, 4322138.050733698, 0.0, 0.0, 0.0, 0.0, 0.0, 0.0, 5.025900762602645e-07, 2.186710039724537e-25, 1.7706347581507255e-26, 0.0, 0.0, 0.0, 2.1867100397245366e-25, 3.3444223839481237e-07, -1.0459875790577427e-33, 0.0, 0.0, 0.0, 1.7706347581507255e-26, -1.0780704421188305e-33, 3.3444223839481237e-07, 0.0, 0.0, 0.0, 0.0, 0.0, 0.0, 9.970636114131105e-10]
---
header: 
  seq: 10906
  stamp: 
    secs: 1518208988
    nsecs: 735342741
  frame_id: "swarmone/odom"
child_frame_id: "swarmone/base_link"
pose: 
  pose: 
    position: 
      x: -0.144806757921
      y: 15.4855189593
      z: 0.0
    orientation: 
      x: 0.0
      y: 0.0
      z: 0.674288168559
      w: 0.738468324129
  covariance: [762495232874.3479, -44637418184.011765, 0.0, 0.0, 0.0, 2.3395494011625397e-16, -44637418184.01136, 2614417613.0676656, 0.0, 0.0, 0.0, -2.0528926312782096e-17, 0.0, 0.0, 5.794057445951213e-07, 7.537716834642183e-22, 1.1936791244845376e-14, 0.0, 0.0, 0.0, 7.537716834642185e-22, 4.61042468018456e-07, -2.0777719967517943e-29, 0.0, 0.0, 0.0, 1.1936791244845374e-14, -2.2007429804521648e-29, 4.6104246801845575e-07, 0.0, 2.3395494011625397e-16, -2.05289263127821e-17, 0.0, 0.0, 0.0, 1.0452733762998727e-06]
twist: 
  twist: 
    linear: 
      x: -3.60122910312e-09
      y: 0.0
      z: 0.0
    angular: 
      x: 0.0
      y: 0.0
      z: 0.000114255910438
  covariance: [9.99999603347026e-10, 0.0, 0.0, 0.0, 0.0, 0.0, 0.0, 4323337.277030258, 0.0, 0.0, 0.0, 0.0, 0.0, 0.0, 5.072648962173181e-07, 1.3076369954585986e-25, 1.1905607440090814e-26, 0.0, 0.0, 0.0, 1.3076369954585982e-25, 3.365483177631203e-07, -4.156002318802037e-34, 0.0, 0.0, 0.0, 1.1905607440090814e-26, -4.160724941082353e-34, 3.365483177631203e-07, 0.0, 0.0, 0.0, 0.0, 0.0, 0.0, 9.971436008267226e-10]
---
header: 
  seq: 10907
  stamp: 
    secs: 1518208988
    nsecs: 835352659
  frame_id: "swarmone/odom"
child_frame_id: "swarmone/base_link"
pose: 
  pose: 
    position: 
      x: -0.144888344666
      y: 15.4846228369
      z: 0.0
    orientation: 
      x: 0.0
      y: 0.0
      z: 0.67797205798
      w: 0.735087674089
  covariance: [762845455806.0363, -44663629343.6698, 0.0, 0.0, 0.0, 4.597943370229593e-16, -44663629343.66942, 2616287346.496458, 0.0, 0.0, 0.0, -3.88032656443978e-17, 0.0, 0.0, 5.74282936842963e-07, 1.2838343361267937e-21, 2.3481430451946335e-14, 0.0, 0.0, 0.0, 1.2838343361267937e-21, 4.568548072723919e-07, -7.057749881482556e-29, 0.0, 0.0, 0.0, 2.3481430451946332e-14, -7.104843966898606e-29, 4.5685480727239064e-07, 0.0, 4.597943370229593e-16, -3.8803265644397807e-17, 0.0, 0.0, 0.0, 1.0166631468062927e-06]
twist: 
  twist: 
    linear: 
      x: -7.19929855661e-09
      y: 0.0
      z: 0.0
    angular: 
      x: 0.0
      y: 0.0
      z: 0.000117455484911
  covariance: [9.99999600040269e-10, 0.0, 0.0, 0.0, 0.0, 0.0, 0.0, 4324526.807491761, 0.0, 0.0, 0.0, 0.0, 0.0, 0.0, 5.025900940060872e-07, 2.466464107139076e-25, 1.9971700208532352e-26, 0.0, 0.0, 0.0, 2.466464107139074e-25, 3.3444236531784893e-07, -1.544032090146701e-33, 0.0, 0.0, 0.0, 1.9971700208532332e-26, -1.4154954980379291e-33, 3.3444236531784893e-07, 0.0, 0.0, 0.0, 0.0, 0.0, 0.0, 9.970636114131215e-10]
---
header: 
  seq: 10908
  stamp: 
    secs: 1518208988
    nsecs: 934354067
  frame_id: "swarmone/odom"
child_frame_id: "swarmone/base_link"
pose: 
  pose: 
    position: 
      x: -0.144939744898
      y: 15.4839880461
      z: 0.0
    orientation: 
      x: 0.0
      y: 0.0
      z: 0.67797199393
      w: 0.735087733163
  covariance: [763192572135.9774, -44687861028.01414, 0.0, 0.0, 0.0, 3.227220301727637e-16, -44687861028.013756, 2617935666.991338, 0.0, 0.0, 0.0, -2.6131568850070565e-17, 0.0, 0.0, 5.716744290915398e-07, 6.759966575616657e-22, 1.671893176803725e-14, 0.0, 0.0, 0.0, 6.759966575616658e-22, 4.547363786767048e-07, -2.60473830199337e-29, 0.0, 0.0, 0.0, 1.671893176803725e-14, -2.6725152244233937e-29, 4.547363786767042e-07, 0.0, 3.227220301727637e-16, -2.613156885007056e-17, 0.0, 0.0, 0.0, 1.0023580320584929e-06]
twist: 
  twist: 
    linear: 
      x: -5.19999720019e-09
      y: 0.0
      z: 0.0
    angular: 
      x: 0.0
      y: 0.0
      z: 8.93425693474e-05
  covariance: [9.999995959659396e-10, 0.0, 0.0, 0.0, 0.0, 0.0, 0.0, 4325704.557486655, 0.0, 0.0, 0.0, 0.0, 0.0, 0.0, 5.002192283691162e-07, 1.7178907638250293e-25, 1.391020070333322e-26, 0.0, 0.0, 0.0, 1.7178907638250297e-25, 3.333840688456813e-07, -7.085779525216254e-34, 0.0, 0.0, 0.0, 1.391020070333322e-26, -7.727574046781852e-34, 3.333840688456813e-07, 0.0, 0.0, 0.0, 0.0, 0.0, 0.0, 9.970219128566612e-10]
---
header: 
  seq: 10909
  stamp: 
    secs: 1518208989
    nsecs:  35247087
  frame_id: "swarmone/odom"
child_frame_id: "swarmone/base_link"
pose: 
  pose: 
    position: 
      x: -0.144993129721
      y: 15.4833287336
      z: 0.0
    orientation: 
      x: 0.0
      y: 0.0
      z: 0.681638999431
      w: 0.731688645843
  covariance: [763546450728.0908, -44712565487.13733, 0.0, 0.0, 0.0, 3.2439094034322323e-16, -44712565487.13695, 2619616225.582053, 0.0, 0.0, 0.0, -2.4102036999610758e-17, 0.0, 0.0, 5.690338580776884e-07, 7.900247471157848e-22, 1.69657104191507e-14, 0.0, 0.0, 0.0, 7.900247471157847e-22, 4.526017500778629e-07, -3.067114192173919e-29, 0.0, 0.0, 0.0, 1.6965710419150695e-14, -3.1530215422272465e-29, 4.5260175007786224e-07, 0.0, 3.2439094034322323e-16, -2.4102036999610755e-17, 0.0, 0.0, 0.0, 9.880529173155474e-07]
twist: 
  twist: 
    linear: 
      x: -5.20038973342e-09
      y: 0.0
      z: 0.0
    angular: 
      x: 0.0
      y: 0.0
      z: 0.000120839422272
  covariance: [9.999996035410485e-10, 0.0, 0.0, 0.0, 0.0, 0.0, 0.0, 4326905.030650839, 0.0, 0.0, 0.0, 0.0, 0.0, 0.0, 4.978258573933272e-07, 1.7059452943603402e-25, 1.209779034317685e-26, 0.0, 0.0, 0.0, 1.70594529436034e-25, 3.323238426099669e-07, -5.170920886586805e-34, 0.0, 0.0, 0.0, 1.209779034317685e-26, -7.5788217522058775e-34, 3.323238426099669e-07, 0.0, 0.0, 0.0, 0.0, 0.0, 0.0, 9.969790129491753e-10]
---
header: 
  seq: 10910
  stamp: 
    secs: 1518208989
    nsecs: 135237217
  frame_id: "swarmone/odom"
child_frame_id: "swarmone/base_link"
pose: 
  pose: 
    position: 
      x: -0.14504968787
      y: 15.4825311946
      z: 0.0
    orientation: 
      x: 0.0
      y: 0.0
      z: 0.677972062711
      w: 0.735087669727
  covariance: [763897558352.1329, -44735312140.96945, 0.0, 0.0, 0.0, 4.0505208468580796e-16, -44735312140.96907, 2621076681.3728137, 0.0, 0.0, 0.0, -3.147691456997085e-17, 0.0, 0.0, 5.768598307885448e-07, 1.1616203161318962e-21, 2.0953167581069076e-14, 0.0, 0.0, 0.0, 1.1616203161318966e-21, 4.589566937043101e-07, -5.710918789173714e-29, 0.0, 0.0, 0.0, 2.095316758106908e-14, -5.793359411186716e-29, 4.5895669370430906e-07, 0.0, 4.0505208468580796e-16, -3.147691456997085e-17, 0.0, 0.0, 0.0, 1.0309682615523596e-06]
twist: 
  twist: 
    linear: 
      x: -6.39958692289e-09
      y: 0.0
      z: 0.0
    angular: 
      x: 0.0
      y: 0.0
      z: 0.000115833606852
  covariance: [9.999995999610987e-10, 0.0, 0.0, 0.0, 0.0, 0.0, 0.0, 4328094.979898168, 0.0, 0.0, 0.0, 0.0, 0.0, 0.0, 5.049385012580435e-07, 2.248935114311208e-25, 1.8210219197241958e-26, 0.0, 0.0, 0.0, 2.2489351143112077e-25, 3.354967976356736e-07, -1.3314810541845817e-33, 0.0, 0.0, 0.0, 1.8210219197241955e-26, -1.0584831731922816e-33, 3.354967976356736e-07, 0.0, 0.0, 0.0, 0.0, 0.0, 0.0, 9.971041583847679e-10]
---
header: 
  seq: 10911
  stamp: 
    secs: 1518208989
    nsecs: 234845877
  frame_id: "swarmone/odom"
child_frame_id: "swarmone/base_link"
pose: 
  pose: 
    position: 
      x: -0.145101717235
      y: 15.4818886202
      z: 0.0
    orientation: 
      x: 0.0
      y: 0.0
      z: 0.681639006401
      w: 0.731688639349
  covariance: [764247189202.5438, -44759721507.69403, 0.0, 0.0, 0.0, 3.2946901667581586e-16, -44759721507.69365, 2622737303.5482955, 0.0, 0.0, 0.0, -2.447907435091186e-17, 0.0, 0.0, 5.74282923322426e-07, 8.094191960811292e-22, 1.689098602125276e-14, 0.0, 0.0, 0.0, 8.094191960811291e-22, 4.568547633638061e-07, -3.287122842568826e-29, 0.0, 0.0, 0.0, 1.689098602125276e-14, -3.13586052601424e-29, 4.5685476336380545e-07, 0.0, 3.2946901667581586e-16, -2.4479074350911854e-17, 0.0, 0.0, 0.0, 1.016663146805621e-06]
twist: 
  twist: 
    linear: 
      x: -5.19958411743e-09
      y: 0.0
      z: 0.0
    angular: 
      x: 0.0
      y: 0.0
