header: 
  seq: 6922
  stamp: 
    secs: 1518208590
    nsecs: 334560156
  frame_id: "swarmone/odom"
child_frame_id: "swarmone/base_link"
pose: 
  pose: 
    position: 
      x: 0.371225002541
      y: 9.03011481247
      z: 0.0
    orientation: 
      x: 0.0
      y: 0.0
      z: 0.670587396677
      w: 0.741830535512
  covariance: [78627023125.49234, -5654327705.918396, 0.0, 0.0, 0.0, -8.342042049563448e-16, -5654327705.918391, 410782696.6551661, 0.0, 0.0, 0.0, 7.859024949013839e-17, 0.0, 0.0, 5.663604260129435e-07, -2.853479907221813e-21, -4.371533994518993e-14, 0.0, 0.0, 0.0, -2.853479907221814e-21, 4.504499822477031e-07, -2.8789928880666376e-28, 0.0, 0.0, 0.0, -4.3715339945189946e-14, -2.87420861594047e-28, 4.504499822476986e-07, 0.0, -8.342042049563447e-16, 7.859024949013839e-17, 0.0, 0.0, 0.0, 9.73747802567743e-07]
twist: 
  twist: 
    linear: 
      x: 1.35982478611e-08
      y: 0.0
      z: 0.0
    angular: 
      x: 0.0
      y: 0.0
      z: 0.000122605578157
  covariance: [9.999995994520513e-10, 0.0, 0.0, 0.0, 0.0, 0.0, 0.0, 1105315.1876920452, 0.0, 0.0, 0.0, 0.0, 0.0, 0.0, 4.954092469542047e-07, -4.285680550960211e-25, -4.3344065524184164e-26, 0.0, 0.0, 0.0, -4.285680550960211e-25, 3.3125879107416056e-07, -5.8461820807162115e-33, 0.0, 0.0, 0.0, -4.334406552418417e-26, -5.894150273669426e-33, 3.3125879107416056e-07, 0.0, 0.0, 0.0, 0.0, 0.0, 0.0, 9.969348590145249e-10]
---
header: 
  seq: 6923
  stamp: 
    secs: 1518208590
    nsecs: 435284138
  frame_id: "swarmone/odom"
child_frame_id: "swarmone/base_link"
pose: 
  pose: 
    position: 
      x: 0.371332161751
      y: 9.03117435967
      z: 0.0
    orientation: 
      x: 0.0
      y: 0.0
      z: 0.674288153253
      w: 0.738468338104
  covariance: [78684238537.40317, -5659329327.544359, 0.0, 0.0, 0.0, -5.17241923579862e-16, -5659329327.544354, 411209156.1585196, 0.0, 0.0, 0.0, 4.881594871943095e-17, 0.0, 0.0, 5.690338523533366e-07, -1.6333072077923726e-21, -2.7360263006251094e-14, 0.0, 0.0, 0.0, -1.633307207792373e-21, 4.526017313934252e-07, -1.0385440885141191e-28, 0.0, 0.0, 0.0, -2.7360263006251094e-14, -1.0352952405357633e-28, 4.5260173139342345e-07, 0.0, -5.17241923579862e-16, 4.8815948719430943e-17, 0.0, 0.0, 0.0, 9.880529173152694e-07]
twist: 
  twist: 
    linear: 
      x: 8.40064891955e-09
      y: 0.0
      z: 0.0
    angular: 
      x: 0.0
      y: 0.0
      z: 0.000120839422222
  covariance: [9.999996028756886e-10, 0.0, 0.0, 0.0, 0.0, 0.0, 0.0, 1105797.8003927823, 0.0, 0.0, 0.0, 0.0, 0.0, 0.0, 4.978258457340416e-07, -2.7466359076976535e-25, -2.500732267466882e-26, 0.0, 0.0, 0.0, -2.746635907697653e-25, 3.323237601969921e-07, -2.081685999491467e-33, 0.0, 0.0, 0.0, -2.5007322674668827e-26, -2.0008581265173993e-33, 3.323237601969921e-07, 0.0, 0.0, 0.0, 0.0, 0.0, 0.0, 9.969790129491679e-10]
---
header: 
  seq: 6924
  stamp: 
    secs: 1518208590
    nsecs: 534757853
  frame_id: "swarmone/odom"
child_frame_id: "swarmone/base_link"
pose: 
  pose: 
    position: 
      x: 0.371448758957
      y: 9.03245502374
      z: 0.0
    orientation: 
      x: 0.0
      y: 0.0
      z: 0.677971993314
      w: 0.735087733731
  covariance: [78740830801.4598, -5663991157.031929, 0.0, 0.0, 0.0, -6.422184035911577e-16, -5663991157.031924, 411588925.2296921, 0.0, 0.0, 0.0, 5.4137694169968024e-17, 0.0, 0.0, 5.716744453830809e-07, -1.3586251654752043e-21, -3.35989904104763e-14, 0.0, 0.0, 0.0, -1.3586251654752045e-21, 4.5473643146160244e-07, -1.0607988769061156e-28, 0.0, 0.0, 0.0, -3.3598990410476296e-14, -1.0706851638775064e-28, 4.547364314615999e-07, 0.0, -6.422184035911577e-16, 5.4137694169968024e-17, 0.0, 0.0, 0.0, 1.0023580320592914e-06]
twist: 
  twist: 
    linear: 
      x: 1.04006544453e-08
      y: 0.0
      z: 0.0
    angular: 
      x: 0.0
      y: 0.0
      z: 8.93425695653e-05
  covariance: [9.9999959788431e-10, 0.0, 0.0, 0.0, 0.0, 0.0, 0.0, 1106274.560374229, 0.0, 0.0, 0.0, 0.0, 0.0, 0.0, 5.002192616339167e-07, -3.4522694420280994e-25, -2.795402895072771e-26, 0.0, 0.0, 0.0, -3.4522694420280994e-25, 3.3338430530223436e-07, -2.755091302342766e-33, 0.0, 0.0, 0.0, -2.795402895072771e-26, -2.9482746513402347e-33, 3.3338430530223436e-07, 0.0, 0.0, 0.0, 0.0, 0.0, 0.0, 9.970219128566825e-10]
---
header: 
  seq: 6925
  stamp: 
    secs: 1518208590
    nsecs: 635279179
  frame_id: "swarmone/odom"
child_frame_id: "swarmone/base_link"
pose: 
  pose: 
    position: 
      x: 0.371575121799
      y: 9.03401556407
      z: 0.0
    orientation: 
      x: 0.0
      y: 0.0
      z: 0.674288157997
      w: 0.738468333773
  covariance: [78798101367.82782, -5668420640.001731, 0.0, 0.0, 0.0, -7.77220869792999e-16, -5668420640.001727, 411930760.2366596, 0.0, 0.0, 0.0, 6.815045301227088e-17, 0.0, 0.0, 5.716744809806536e-07, -2.4509235527460537e-21, -4.0479048055697445e-14, 0.0, 0.0, 0.0, -2.4509235527460544e-21, 4.5473657966948265e-07, -2.320252655334198e-28, 0.0, 0.0, 0.0, -4.047904805569747e-14, -2.3122546358015087e-28, 4.5473657966947873e-07, 0.0, -7.77220869792999e-16, 6.815045301227086e-17, 0.0, 0.0, 0.0, 1.002358032061038e-06]
twist: 
  twist: 
    linear: 
      x: 1.23994510597e-08
      y: 0.0
      z: 0.0
    angular: 
      x: 0.0
      y: 0.0
      z: 0.000119123426601
  covariance: [9.999996020750745e-10, 0.0, 0.0, 0.0, 0.0, 0.0, 0.0, 1106756.480560241, 0.0, 0.0, 0.0, 0.0, 0.0, 0.0, 5.002193343246814e-07, -4.155661520989391e-25, -3.783570329766486e-26, 0.0, 0.0, 0.0, -4.155661520989393e-25, 3.333848221375654e-07, -4.8935163824458475e-33, 0.0, 0.0, 0.0, -3.7835703297664844e-26, -4.668901560745712e-33, 3.333848221375654e-07, 0.0, 0.0, 0.0, 0.0, 0.0, 0.0, 9.970219128567292e-10]
---
header: 
  seq: 6926
  stamp: 
    secs: 1518208590
    nsecs: 735172987
  frame_id: "swarmone/odom"
child_frame_id: "swarmone/base_link"
pose: 
  pose: 
    position: 
      x: 0.371697225781
      y: 9.03535671314
      z: 0.0
    orientation: 
      x: 0.0
      y: 0.0
      z: 0.677972061485
      w: 0.735087670857
  covariance: [78854998460.80283, -5673107877.844168, 0.0, 0.0, 0.0, -6.857440363834585e-16, -5673107877.844164, 412312629.18620026, 0.0, 0.0, 0.0, 5.778581149027732e-17, 0.0, 0.0, 5.768598275924655e-07, -1.958693072629749e-21, -3.532708671748085e-14, 0.0, 0.0, 0.0, -1.9586930726297487e-21, 4.5895668325890437e-07, -1.6430564328553303e-28, 0.0, 0.0, 0.0, -3.5327086717480845e-14, -1.6274863008581095e-28, 4.589566832589014e-07, 0.0, -6.857440363834586e-16, 5.778581149027731e-17, 0.0, 0.0, 0.0, 1.0309682615521993e-06]
twist: 
  twist: 
    linear: 
      x: 1.08003985269e-08
      y: 0.0
      z: 0.0
    angular: 
      x: 0.0
      y: 0.0
      z: 0.000115833606794
  covariance: [9.999995995753711e-10, 0.0, 0.0, 0.0, 0.0, 0.0, 0.0, 1107235.5309257642, 0.0, 0.0, 0.0, 0.0, 0.0, 0.0, 5.049384946975212e-07, -3.791743851825208e-25, -3.070271099168917e-26, 0.0, 0.0, 0.0, -3.791743851825208e-25, 3.3549675042185636e-07, -3.259747819133418e-33, 0.0, 0.0, 0.0, -3.070271099168918e-26, -3.532559505114778e-33, 3.3549675042185636e-07, 0.0, 0.0, 0.0, 0.0, 0.0, 0.0, 9.971041583847637e-10]
---
header: 
  seq: 6927
  stamp: 
    secs: 1518208590
    nsecs: 835057974
  frame_id: "swarmone/odom"
child_frame_id: "swarmone/base_link"
pose: 
  pose: 
    position: 
      x: 0.371817968466
      y: 9.03684781681
      z: 0.0
    orientation: 
      x: 0.0
      y: 0.0
      z: 0.670587410826
      w: 0.741830522722
  covariance: [78911972347.42142, -5677514760.070158, 0.0, 0.0, 0.0, -7.682283299099472e-16, -5677514760.070154, 412652748.65193146, 0.0, 0.0, 0.0, 7.252466830414384e-17, 0.0, 0.0, 5.768598273022122e-07, -2.712555847429079e-21, -3.924570820299232e-14, 0.0, 0.0, 0.0, -2.712555847429078e-21, 4.5895668207294305e-07, -2.5223963044928907e-28, 0.0, 0.0, 0.0, -3.924570820299231e-14, -2.509323865602833e-28, 4.5895668207293945e-07, 0.0, -7.682283299099471e-16, 7.252466830414384e-17, 0.0, 0.0, 0.0, 1.0309682615521853e-06]
twist: 
  twist: 
    linear: 
      x: 1.19991579867e-08
      y: 0.0
      z: 0.0
    angular: 
      x: 0.0
      y: 0.0
      z: 0.000115833606784
  covariance: [9.999995995400147e-10, 0.0, 0.0, 0.0, 0.0, 0.0, 0.0, 1107714.6771847964, 0.0, 0.0, 0.0, 0.0, 0.0, 0.0, 5.049384941037712e-07, -4.204754312542102e-25, -4.252634040653244e-26, 0.0, 0.0, 0.0, -4.204754312542102e-25, 3.354967461922526e-07, -5.388846372480358e-33, 0.0, 0.0, 0.0, -4.252634040653245e-26, -5.2927321101228855e-33, 3.354967461922526e-07, 0.0, 0.0, 0.0, 0.0, 0.0, 0.0, 9.971041583847633e-10]
---
header: 
  seq: 6928
  stamp: 
    secs: 1518208590
    nsecs: 934890270
  frame_id: "swarmone/odom"
child_frame_id: "swarmone/base_link"
pose: 
  pose: 
    position: 
      x: 0.371938267229
      y: 9.03803730483
      z: 0.0
    orientation: 
      x: 0.0
      y: 0.0
      z: 0.677972018991
      w: 0.735087710049
  covariance: [78968845426.23677, -5682487305.730166, 0.0, 0.0, 0.0, -6.602113219412295e-16, -5682487305.730162, 413076831.9658822, 0.0, 0.0, 0.0, 5.75875502335352e-17, 0.0, 0.0, 5.964037903255807e-07, -1.4906743709139763e-21, -3.2260333582331285e-14, 0.0, 0.0, 0.0, -1.4906743709139767e-21, 4.752036911113023e-07, -1.1880406435673537e-28, 0.0, 0.0, 0.0, -3.226033358233128e-14, -1.1950162732066716e-28, 4.752036911112998e-07, 0.0, -6.602113219412296e-16, 5.75875502335352e-17, 0.0, 0.0, 0.0, 1.1454091795209132e-06]
twist: 
  twist: 
    linear: 
      x: 9.60057526186e-09
      y: 0.0
      z: 0.0
    angular: 
      x: 0.0
      y: 0.0
      z: 7.82329946567e-05
  covariance: [9.99999599328656e-10, 0.0, 0.0, 0.0, 0.0, 0.0, 0.0, 1108193.7087908236, 0.0, 0.0, 0.0, 0.0, 0.0, 0.0, 5.229565161428014e-07, -4.067065060624308e-25, -3.2931041831323347e-26, 0.0, 0.0, 0.0, -4.0670650606243073e-25, 3.438134859271112e-07, -3.6094187701539816e-33, 0.0, 0.0, 0.0, -3.2931041831323347e-26, -3.693747542538731e-33, 3.438134859271112e-07, 0.0, 0.0, 0.0, 0.0, 0.0, 0.0, 9.973922322101656e-10]
---
header: 
  seq: 6929
  stamp: 
    secs: 1518208591
    nsecs:  34753799
  frame_id: "swarmone/odom"
child_frame_id: "swarmone/base_link"
pose: 
  pose: 
    position: 
      x: 0.372050914194
      y: 9.03942845539
      z: 0.0
    orientation: 
      x: 0.0
      y: 0.0
      z: 0.674288096562
      w: 0.738468389868
  covariance: [79025872849.93962, -5686898691.26491, 0.0, 0.0, 0.0, -7.306286793923675e-16, -5686898691.264907, 413417330.38822263, 0.0, 0.0, 0.0, 6.384213791042094e-17, 0.0, 0.0, 5.716744587312536e-07, -1.6495847615634587e-21, -3.632328555009191e-14, 0.0, 0.0, 0.0, -1.6495847615634583e-21, 4.5473647466269997e-07, -1.40340497894012e-28, 0.0, 0.0, 0.0, -3.632328555009192e-14, -1.3943889630544222e-28, 4.5473647466269685e-07, 0.0, -7.306286793923674e-16, 6.384213791042094e-17, 0.0, 0.0, 0.0, 1.0023580320599498e-06]
twist: 
  twist: 
    linear: 
      x: 1.11998410615e-08
      y: 0.0
      z: 0.0
    angular: 
      x: 0.0
      y: 0.0
      z: 8.93425696759e-05
  covariance: [9.999995994539985e-10, 0.0, 0.0, 0.0, 0.0, 0.0, 0.0, 1108673.0284138948, 0.0, 0.0, 0.0, 0.0, 0.0, 0.0, 5.002192889026129e-07, -3.7294047703733113e-25, -3.395446864149556e-26, 0.0, 0.0, 0.0, -3.72940477037331e-25, 3.333844994309052e-07, -3.833103682635882e-33, 0.0, 0.0, 0.0, -3.3954468641495564e-26, -3.913315061908444e-33, 3.333844994309052e-07, 0.0, 0.0, 0.0, 0.0, 0.0, 0.0, 9.970219128567e-10]
---
header: 
  seq: 6930
  stamp: 
    secs: 1518208591
    nsecs: 135289907
  frame_id: "swarmone/odom"
child_frame_id: "swarmone/base_link"
pose: 
  pose: 
    position: 
      x: 0.372174594318
      y: 9.04078691362
      z: 0.0
    orientation: 
      x: 0.0
      y: 0.0
      z: 0.677972054478
      w: 0.735087677319
  covariance: [79083268234.87914, -5691627699.595088, 0.0, 0.0, 0.0, -6.772509577412664e-16, -5691627699.595085, 413802674.6684437, 0.0, 0.0, 0.0, 5.71126848975802e-17, 0.0, 0.0, 5.71674481477608e-07, -1.9006391725177795e-21, -3.5262930685617525e-14, 0.0, 0.0, 0.0, -1.9006391725177795e-21, 4.547365813931972e-07, -1.5445197750756417e-28, 0.0, 0.0, 0.0, -3.5262930685617525e-14, -1.5474496574943203e-28, 4.5473658139319433e-07, 0.0, -6.772509577412663e-16, 5.71126848975802e-17, 0.0, 0.0, 0.0, 1.0023580320610623e-06]
twist: 
  twist: 
    linear: 
      x: 1.08002553532e-08
      y: 0.0
      z: 0.0
    angular: 
      x: 0.0
      y: 0.0
      z: 0.000119123426609
  covariance: [9.99999602133582e-10, 0.0, 0.0, 0.0, 0.0, 0.0, 0.0, 1109155.7158360875, 0.0, 0.0, 0.0, 0.0, 0.0, 0.0, 5.002193353394618e-07, -3.623278952080094e-25, -2.933876898908938e-26, 0.0, 0.0, 0.0, -3.6232789520800947e-25, 3.3338482935243027e-07, -3.253693191474111e-33, 0.0, 0.0, 0.0, -2.9338768989089373e-26, -3.25457539164302e-33, 3.3338482935243027e-07, 0.0, 0.0, 0.0, 0.0, 0.0, 0.0, 9.970219128567298e-10]
---
header: 
  seq: 6931
  stamp: 
    secs: 1518208591
    nsecs: 234781742
  frame_id: "swarmone/odom"
child_frame_id: "swarmone/base_link"
pose: 
  pose: 
    position: 
      x: 0.372290396865
      y: 9.0422170105
      z: 0.0
    orientation: 
      x: 0.0
      y: 0.0
      z: 0.670587407294
      w: 0.741830525915
  covariance: [79140149158.95135, -5696028098.706276, 0.0, 0.0, 0.0, -7.260103658785881e-16, -5696028098.706274, 414142353.75164545, 0.0, 0.0, 0.0, 6.858511294103114e-17, 0.0, 0.0, 5.742829193629408e-07, -2.5652497005963264e-21, -3.763659432609211e-14, 0.0, 0.0, 0.0, -2.5652497005963276e-21, 4.5685475012823596e-07, -2.260925512119363e-28, 0.0, 0.0, 0.0, -3.76365943260921e-14, -2.2748242473076467e-28, 4.5685475012823257e-07, 0.0, -7.260103658785882e-16, 6.858511294103114e-17, 0.0, 0.0, 0.0, 1.0166631468054236e-06]
twist: 
  twist: 
    linear: 
      x: 1.15994442905e-08
      y: 0.0
      z: 0.0
    angular: 
      x: 0.0
      y: 0.0
      z: 0.000117455484614
  covariance: [9.999995979575483e-10, 0.0, 0.0, 0.0, 0.0, 0.0, 0.0, 1109633.5274659025, 0.0, 0.0, 0.0, 0.0, 0.0, 0.0, 5.025900582121566e-07, -3.9459973838823365e-25, -3.990926187453321e-26, 0.0, 0.0, 0.0, -3.945997383882337e-25, 3.3444210914742153e-07, -4.7074719763206066e-33, 0.0, 0.0, 0.0, -3.9909261874533205e-26, -4.5625353888425674e-33, 3.3444210914742153e-07, 0.0, 0.0, 0.0, 0.0, 0.0, 0.0, 9.970636114130991e-10]
---
header: 
  seq: 6932
  stamp: 
    secs: 1518208591
    nsecs: 335283756
  frame_id: "swarmone/odom"
child_frame_id: "swarmone/base_link"
pose: 
  pose: 
    position: 
      x: 0.372417400262
      y: 9.04347279149
      z: 0.0
    orientation: 
      x: 0.0
      y: 0.0
      z: 0.677972000597
      w: 0.735087727014
  covariance: [79197536249.03897, -5701046310.868838, 0.0, 0.0, 0.0, -6.475720579503562e-16, -5701046310.868835, 414570415.9969701, 0.0, 0.0, 0.0, 5.670500807427836e-17, 0.0, 0.0, 5.794057335514078e-07, -1.3932230118767649e-21, -3.303863067663215e-14, 0.0, 0.0, 0.0, -1.393223011876765e-21, 4.610423982833421e-07, -1.0997345588883056e-28, 0.0, 0.0, 0.0, -3.3038630676632155e-14, -1.0982481364144562e-28, 4.610423982833395e-07, 0.0, -6.475720579503562e-16, 5.670500807427836e-17, 0.0, 0.0, 0.0, 1.045273376299311e-06]
twist: 
  twist: 
    linear: 
      x: 1.00006765646e-08
      y: 0.0
      z: 0.0
    angular: 
      x: 0.0
      y: 0.0
      z: 8.56919327264e-05
  covariance: [9.999996019986153e-10, 0.0, 0.0, 0.0, 0.0, 0.0, 0.0, 1110116.3298058165, 0.0, 0.0, 0.0, 0.0, 0.0, 0.0, 5.072648734842908e-07, -3.6223879909491236e-25, -2.933130342387768e-26, 0.0, 0.0, 0.0, -3.6223879909491245e-25, 3.365481530556786e-07, -3.10954078418026e-33, 0.0, 0.0, 0.0, -2.9331303423877694e-26, -3.093412718417158e-33, 3.365481530556786e-07, 0.0, 0.0, 0.0, 0.0, 0.0, 0.0, 9.971436008267087e-10]
---
header: 
  seq: 6933
  stamp: 
    secs: 1518208591
    nsecs: 435008287
  frame_id: "swarmone/odom"
child_frame_id: "swarmone/base_link"
pose: 
  pose: 
    position: 
      x: 0.372537752728
      y: 9.04495910441
      z: 0.0
    orientation: 
      x: 0.0
      y: 0.0
      z: 0.674288112409
      w: 0.738468375399
  covariance: [79254616139.67604, -5705462472.049905, 0.0, 0.0, 0.0, -7.994565193620964e-16, -5705462472.049902, 414911343.7296345, 0.0, 0.0, 0.0, 7.017192059154037e-17, 0.0, 0.0, 5.868628131961086e-07, -1.9607014834493185e-21, -3.9766933239974826e-14, 0.0, 0.0, 0.0, -1.9607014834493185e-21, 4.6720398603174013e-07, -1.8837546675963618e-28, 0.0, 0.0, 0.0, -3.9766933239974826e-14, -1.8908304118879024e-28, 4.672039860317363e-07, 0.0, -7.994565193620964e-16, 7.017192059154037e-17, 0.0, 0.0, 0.0, 1.0881887205363243e-06]
twist: 
  twist: 
    linear: 
      x: 1.19995553806e-08
      y: 0.0
      z: 0.0
    angular: 
      x: 0.0
      y: 0.0
      z: 8.23279214429e-05
  covariance: [9.999995988956826e-10, 0.0, 0.0, 0.0, 0.0, 0.0, 0.0, 1110595.5355944498, 0.0, 0.0, 0.0, 0.0, 0.0, 0.0, 5.141144788351873e-07, -4.633888872037662e-25, -4.219024512057715e-26, 0.0, 0.0, 0.0, -4.63388887203766e-25, 3.396812373111414e-07, -5.626789176087229e-33, 0.0, 0.0, 0.0, -4.2190245120577136e-26, -5.403323948870098e-33, 3.396812373111414e-07, 0.0, 0.0, 0.0, 0.0, 0.0, 0.0, 9.972557345796626e-10]
---
header: 
  seq: 6934
  stamp: 
    secs: 1518208591
    nsecs: 534671068
  frame_id: "swarmone/odom"
child_frame_id: "swarmone/base_link"
pose: 
  pose: 
    position: 
      x: 0.37265929269
      y: 9.04629403193
      z: 0.0
    orientation: 
      x: 0.0
      y: 0.0
      z: 0.674288153864
      w: 0.738468337547
  covariance: [79311644478.86345, -5710161994.122355, 0.0, 0.0, 0.0, -6.837353292243294e-16, -5710161994.122352, 415294359.75915223, 0.0, 0.0, 0.0, 6.225168428915582e-17, 0.0, 0.0, 5.690338160041804e-07, -2.0772725001749702e-21, -3.480411460050467e-14, 0.0, 0.0, 0.0, -2.0772725001749706e-21, 4.526016141578241e-07, -1.6874820503762245e-28, 0.0, 0.0, 0.0, -3.480411460050468e-14, -1.6676586368201543e-28, 4.5260161415782134e-07, 0.0, -6.837353292243294e-16, 6.225168428915582e-17, 0.0, 0.0, 0.0, 9.880529173135107e-07]
twist: 
  twist: 
    linear: 
      x: 1.07997112295e-08
      y: 0.0
      z: 0.0
    angular: 
      x: 0.0
      y: 0.0
      z: 0.000120839421526
  covariance: [9.999995986471727e-10, 0.0, 0.0, 0.0, 0.0, 0.0, 0.0, 1111074.5824133756, 0.0, 0.0, 0.0, 0.0, 0.0, 0.0, 4.978257717213047e-07, -3.494198072269178e-25, -3.181348514399213e-26, 0.0, 0.0, 0.0, -3.494198072269179e-25, 3.323232375125745e-07, -3.42050092669631e-33, 0.0, 0.0, 0.0, -3.181348514399213e-26, -3.308767519307302e-33, 3.323232375125745e-07, 0.0, 0.0, 0.0, 0.0, 0.0, 0.0, 9.969790129491195e-10]
---
header: 
  seq: 6935
  stamp: 
    secs: 1518208591
    nsecs: 635283709
  frame_id: "swarmone/odom"
child_frame_id: "swarmone/base_link"
pose: 
  pose: 
    position: 
      x: 0.372773984289
      y: 9.04755376523
      z: 0.0
    orientation: 
      x: 0.0
      y: 0.0
      z: 0.677972068499
      w: 0.735087664388
  covariance: [79369249640.20656, -5714909202.888637, 0.0, 0.0, 0.0, -6.484863243779265e-16, -5714909202.888634, 415681279.53028256, 0.0, 0.0, 0.0, 5.458658555095339e-17, 0.0, 0.0, 5.819211707754213e-07, -1.8917833223205578e-21, -3.319883027885826e-14, 0.0, 0.0, 0.0, -1.8917833223205578e-21, 4.6311210790876147e-07, -1.5015317331472567e-28, 0.0, 0.0, 0.0, -3.3198830278858274e-14, -1.5029249558312154e-28, 4.631121079087588e-07, 0.0, -6.484863243779265e-16, 5.458658555095339e-17, 0.0, 0.0, 0.0, 1.059578491045594e-06]
twist: 
  twist: 
    linear: 
      x: 1.00003982803e-08
      y: 0.0
      z: 0.0
    angular: 
      x: 0.0
      y: 0.0
      z: 0.000112720613552
  covariance: [9.999996024362208e-10, 0.0, 0.0, 0.0, 0.0, 0.0, 0.0, 1111558.3346126818, 0.0, 0.0, 0.0, 0.0, 0.0, 0.0, 5.095694572539243e-07, -3.716840065344029e-25, -3.009602133119742e-26, 0.0, 0.0, 0.0, -3.7168400653440307e-25, 3.3759599187795507e-07, -3.089400381645206e-33, 0.0, 0.0, 0.0, -3.009602133119743e-26, -3.312726661331876e-33, 3.3759599187795507e-07, 0.0, 0.0, 0.0, 0.0, 0.0, 0.0, 9.971819832647667e-10]
---
header: 
  seq: 6936
  stamp: 
    secs: 1518208591
    nsecs: 734789133
  frame_id: "swarmone/odom"
child_frame_id: "swarmone/base_link"
pose: 
  pose: 
    position: 
      x: 0.372885824511
      y: 9.04893492697
      z: 0.0
    orientation: 
      x: 0.0
      y: 0.0
      z: 0.670587400219
      w: 0.74183053231
  covariance: [79426302817.40909, -5719323838.103606, 0.0, 0.0, 0.0, -7.010870902195417e-16, -5719323838.103604, 416022134.7509855, 0.0, 0.0, 0.0, 6.596380369929171e-17, 0.0, 0.0, 5.690338105436319e-07, -2.3869304297278718e-21, -3.6035170547360866e-14, 0.0, 0.0, 0.0, -2.3869304297278714e-21, 4.5260159641082843e-07, -2.001087363284122e-28, 0.0, 0.0, 0.0, -3.603517054736087e-14, -1.9905703856464899e-28, 4.526015964108253e-07, 0.0, -7.010870902195417e-16, 6.596380369929171e-17, 0.0, 0.0, 0.0, 9.880529173132454e-07]
twist: 
  twist: 
    linear: 
      x: 1.11992987037e-08
      y: 0.0
      z: 0.0
    angular: 
      x: 0.0
      y: 0.0
      z: 0.000120839421477
  covariance: [9.99999598012472e-10, 0.0, 0.0, 0.0, 0.0, 0.0, 0.0, 1112036.9013306908, 0.0, 0.0, 0.0, 0.0, 0.0, 0.0, 4.978257605992454e-07, -3.6142393458747218e-25, -3.65533005940479e-26, 0.0, 0.0, 0.0, -3.6142393458747236e-25, 3.323231588936736e-07, -4.095824471072522e-33, 0.0, 0.0, 0.0, -3.65533005940479e-26, -4.031304744251593e-33, 3.323231588936736e-07, 0.0, 0.0, 0.0, 0.0, 0.0, 0.0, 9.969790129491124e-10]
---
header: 
  seq: 6937
  stamp: 
    secs: 1518208591
    nsecs: 835309744
  frame_id: "swarmone/odom"
child_frame_id: "swarmone/base_link"
pose: 
  pose: 
    position: 
      x: 0.373002714041
      y: 9.05009070299
      z: 0.0
    orientation: 
      x: 0.0
      y: 0.0
      z: 0.677972057374
      w: 0.735087674648
  covariance: [79483866461.65326, -5724358414.24153, 0.0, 0.0, 0.0, -5.79418565812854e-16, -5724358414.241529, 416451700.90889156, 0.0, 0.0, 0.0, 5.073510119541425e-17, 0.0, 0.0, 5.742829538871788e-07, -1.6491975932177411e-21, -3.0161760695655695e-14, 0.0, 0.0, 0.0, -1.6491975932177411e-21, 4.5685486273598166e-07, -1.1593596798007845e-28, 0.0, 0.0, 0.0, -3.016176069565569e-14, -1.1775308090442987e-28, 4.568548627359795e-07, 0.0, -5.794185658128539e-16, 5.073510119541425e-17, 0.0, 0.0, 0.0, 1.0166631468071378e-06]
twist: 
  twist: 
    linear: 
      x: 9.20092549025e-09
      y: 0.0
      z: 0.0
    angular: 
      x: 0.0
      y: 0.0
      z: 0.000117455485217
  covariance: [9.999996020722394e-10, 0.0, 0.0, 0.0, 0.0, 0.0, 0.0, 1112520.4899905394, 0.0, 0.0, 0.0, 0.0, 0.0, 0.0, 5.025901289001369e-07, -3.168038579988132e-25, -2.565249324043063e-26, 0.0, 0.0, 0.0, -3.1680385799881313e-25, 3.344426148915632e-07, -2.4130787181983336e-33, 0.0, 0.0, 0.0, -2.5652493240430624e-26, -2.4934905180766963e-33, 3.344426148915632e-07, 0.0, 0.0, 0.0, 0.0, 0.0, 0.0, 9.970636114131436e-10]
---
header: 
  seq: 6938
  stamp: 
    secs: 1518208591
    nsecs: 934772968
  frame_id: "swarmone/odom"
child_frame_id: "swarmone/base_link"
pose: 
  pose: 
    position: 
      x: 0.373122439586
      y: 9.05156927728
      z: 0.0
    orientation: 
      x: 0.0
      y: 0.0
      z: 0.674288093924
      w: 0.738468392277
  covariance: [79540961309.14806, -5728776637.225279, 0.0, 0.0, 0.0, -7.406906656207141e-16, -5728776637.225277, 416792864.60825205, 0.0, 0.0, 0.0, 6.489966217356639e-17, 0.0, 0.0, 5.690338090725827e-07, -1.7279399489208904e-21, -3.8593202519251586e-14, 0.0, 0.0, 0.0, -1.72793994892089e-21, 4.526015590581497e-07, -1.5504789094327318e-28, 0.0, 0.0, 0.0, -3.859320251925158e-14, -1.5442754284162967e-28, 4.526015590581462e-07, 0.0, -7.406906656207141e-16, 6.489966217356639e-17, 0.0, 0.0, 0.0, 9.880529173131732e-07]
twist: 
  twist: 
    linear: 
      x: 1.19994446358e-08
      y: 0.0
      z: 0.0
    angular: 
      x: 0.0
      y: 0.0
      z: 9.06295661382e-05
  covariance: [9.99999597841906e-10, 0.0, 0.0, 0.0, 0.0, 0.0, 0.0, 1112999.129706933, 0.0, 0.0, 0.0, 0.0, 0.0, 0.0, 4.978257576002655e-07, -3.874401138671076e-25, -3.527480989823612e-26, 0.0, 0.0, 0.0, -3.8744011386710754e-25, 3.3232313763742093e-07, -4.032671948103977e-33, 0.0, 0.0, 0.0, -3.527480989823613e-26, -4.22485975712735e-33, 3.3232313763742093e-07, 0.0, 0.0, 0.0, 0.0, 0.0, 0.0, 9.969790129491106e-10]
---
header: 
  seq: 6939
  stamp: 
    secs: 1518208592
    nsecs:  35270691
  frame_id: "swarmone/odom"
child_frame_id: "swarmone/base_link"
pose: 
  pose: 
    position: 
      x: 0.373241448003
      y: 9.05287639899
      z: 0.0
    orientation: 
      x: 0.0
      y: 0.0
      z: 0.674288157385
      w: 0.738468334332
  covariance: [79598633669.00772, -5733530155.657958, 0.0, 0.0, 0.0, -6.484323307960205e-16, -5733530155.657956, 417180374.36351275, 0.0, 0.0, 0.0, 5.90374907870183e-17, 0.0, 0.0, 5.716744801853227e-07, -2.0552608562570228e-21, -3.3942979048912196e-14, 0.0, 0.0, 0.0, -2.0552608562570224e-21, 4.547365770893511e-07, -1.63262817769625e-28, 0.0, 0.0, 0.0, -3.394297904891219e-14, -1.624784369826537e-28, 4.5473657708934845e-07, 0.0, -6.484323307960205e-16, 5.903749078701829e-17, 0.0, 0.0, 0.0, 1.0023580320609986e-06]
twist: 
  twist: 
    linear: 
      x: 1.03998588942e-08
      y: 0.0
      z: 0.0
    angular: 
      x: 0.0
      y: 0.0
      z: 0.000119123426589
  covariance: [9.999996019816122e-10, 0.0, 0.0, 0.0, 0.0, 0.0, 0.0, 1113482.8870781339, 0.0, 0.0, 0.0, 0.0, 0.0, 0.0, 5.002193326995522e-07, -3.4846207717950208e-25, -3.1726286810648626e-26, 0.0, 0.0, 0.0, -3.4846207717950226e-25, 3.33384810560846e-07, -3.317573083491941e-33, 0.0, 0.0, 0.0, -3.172628681064864e-26, -3.3333678198834346e-33, 3.33384810560846e-07, 0.0, 0.0, 0.0, 0.0, 0.0, 0.0, 9.97021912856728e-10]
---
header: 
  seq: 6940
  stamp: 
    secs: 1518208592
    nsecs: 134868860
  frame_id: "swarmone/odom"
child_frame_id: "swarmone/base_link"
pose: 
  pose: 
    position: 
      x: 0.373353769152
      y: 9.05411007384
      z: 0.0
    orientation: 
      x: 0.0
      y: 0.0
      z: 0.674288447193
      w: 0.738468069711
  covariance: [79655822802.4625, -5738244044.889515, 0.0, 0.0, 0.0, -1.4068703205413553e-15, -5738244044.889512, 417564673.77472126, 0.0, 0.0, 0.0, 1.280907045552498e-16, 0.0, 0.0, 7.639980446343002e-07, -4.479936115137014e-21, -3.40261569823155e-14, 0.0, 0.0, 0.0, -4.479936115137013e-21, 6.409678966824696e-07, -6.463107842337011e-28, 0.0, 0.0, 0.0, -3.4026156982315485e-14, -6.455001864435278e-28, 6.409678966824646e-07, 0.0, -1.4068703205413553e-15, 1.280907045552498e-16, 0.0, 0.0, 0.0, 2.904938293291979e-06]
twist: 
  twist: 
    linear: 
      x: 1.00002516511e-08
      y: 0.0
      z: 0.0
    angular: 
      x: 0.0
      y: 0.0
      z: 3.09284754337e-05
  covariance: [9.999995983867833e-10, 0.0, 0.0, 0.0, 0.0, 0.0, 0.0, 1113962.452624534, 0.0, 0.0, 0.0, 0.0, 0.0, 0.0, 6.941207841773589e-07, -1.4833455739154373e-24, -1.350534627962409e-25, 0.0, 0.0, 0.0, -1.483345573915437e-24, 4.4970632501592113e-07, -3.4577199921628803e-32, 0.0, 0.0, 0.0, -1.3505346279624088e-25, -3.511587988816515e-32, 4.4970632501592113e-07, 0.0, 0.0, 0.0, 0.0, 0.0, 0.0, 9.989690503031288e-10]
---
header: 
  seq: 6941
  stamp: 
    secs: 1518208592
    nsecs: 235312462
  frame_id: "swarmone/odom"
child_frame_id: "swarmone/base_link"
pose: 
  pose: 
    position: 
      x: 0.373472646508
      y: 9.05541576987
      z: 0.0
    orientation: 
      x: 0.0
      y: 0.0
      z: 0.674288157385
      w: 0.738468334332
  covariance: [79713530668.57266, -5743000874.812834, 0.0, 0.0, 0.0, -1.0631899106674405e-15, -5743000874.812833, 417952493.1605368, 0.0, 0.0, 0.0, 9.679896993064979e-17, 0.0, 0.0, 5.716744784742484e-07, -2.0537879464462545e-21, -3.392462602344696e-14, 0.0, 0.0, 0.0, -2.0537879464462537e-21, 4.547365718760224e-07, -1.6243922166925787e-28, 0.0, 0.0, 0.0, -3.392462602344696e-14, -1.6289287599598483e-28, 4.5473657187601975e-07, 0.0, -1.0631899106674407e-15, 9.679896993064976e-17, 0.0, 0.0, 0.0, 1.002358032060962e-06]
twist: 
  twist: 
    linear: 
      x: 1.03997155401e-08
      y: 0.0
      z: 0.0
    angular: 
      x: 0.0
      y: 0.0
      z: 0.000119123426468
  covariance: [9.999996017676624e-10, 0.0, 0.0, 0.0, 0.0, 0.0, 0.0, 1114446.2283653677, 0.0, 0.0, 0.0, 0.0, 0.0, 0.0, 5.002193293198459e-07, -3.48858941398654e-25, -3.176241810485623e-26, 0.0, 0.0, 0.0, -3.4885894139865396e-25, 3.333847898529224e-07, -3.3425855332656235e-33, 0.0, 0.0, 0.0, -3.1762418104856226e-26, -3.341731236491026e-33, 3.333847898529224e-07, 0.0, 0.0, 0.0, 0.0, 0.0, 0.0, 9.970219128567255e-10]
---
header: 
  seq: 6942
  stamp: 
    secs: 1518208592
    nsecs: 334775925
  frame_id: "swarmone/odom"
child_frame_id: "swarmone/base_link"
pose: 
  pose: 
    position: 
      x: 0.373584732626
      y: 9.05664686327
      z: 0.0
    orientation: 
      x: 0.0
      y: 0.0
      z: 0.674288090664
      w: 0.738468395254
  covariance: [79770708361.15198, -5747714229.588571, 0.0, 0.0, 0.0, -6.082081603849934e-16, -5747714229.588569, 418336790.08950776, 0.0, 0.0, 0.0, 5.5375182700865006e-17, 0.0, 0.0, 5.663604120020017e-07, -1.4128475339702692e-21, -3.201680522282746e-14, 0.0, 0.0, 0.0, -1.4128475339702694e-21, 4.504499048717381e-07, -1.0386118659085958e-28, 0.0, 0.0, 0.0, -3.2016805222827444e-14, -1.0476752927184213e-28, 4.5044990487173575e-07, 0.0, -6.082081603849934e-16, 5.5375182700865006e-17, 0.0, 0.0, 0.0, 9.737478025670721e-07]
twist: 
  twist: 
    linear: 
      x: 9.99945903163e-09
      y: 0.0
      z: 0.0
    angular: 
      x: 0.0
      y: 0.0
      z: 9.19541835158e-05
  covariance: [9.999995978428663e-10, 0.0, 0.0, 0.0, 0.0, 0.0, 0.0, 1114925.4213749336, 0.0, 0.0, 0.0, 0.0, 0.0, 0.0, 4.954092185000287e-07, -3.141784317930454e-25, -2.860488196325138e-26, 0.0, 0.0, 0.0, -3.141784317930455e-25, 3.3125859132071514e-07, -2.731618081014087e-33, 0.0, 0.0, 0.0, -2.860488196325138e-26, -2.618768379565182e-33, 3.3125859132071514e-07, 0.0, 0.0, 0.0, 0.0, 0.0, 0.0, 9.96934859014506e-10]
---
header: 
  seq: 6943
  stamp: 
    secs: 1518208592
    nsecs: 435414553
  frame_id: "swarmone/odom"
child_frame_id: "swarmone/base_link"
pose: 
  pose: 
    position: 
      x: 0.373681130705
      y: 9.05770564561
      z: 0.0
    orientation: 
      x: 0.0
      y: 0.0
      z: 0.674288160906
      w: 0.738468331116
  covariance: [79828594995.73166, -5752486236.964755, 0.0, 0.0, 0.0, -5.270140212578788e-16, -5752486236.964752, 418725890.32095623, 0.0, 0.0, 0.0, 4.7982782836734464e-17, 0.0, 0.0, 5.742829578012131e-07, -1.693324276932817e-21, -2.757182922434879e-14, 0.0, 0.0, 0.0, -1.6933242769328172e-21, 4.568548753583399e-07, -1.107654554513564e-28, 0.0, 0.0, 0.0, -2.7571829224348793e-14, -1.0857281260142044e-28, 4.568548753583382e-07, 0.0, -5.270140212578788e-16, 4.798278283673447e-17, 0.0, 0.0, 0.0, 1.0166631468073317e-06]
twist: 
  twist: 
    linear: 
      x: 8.40105024089e-09
      y: 0.0
      z: 0.0
    angular: 
      x: 0.0
      y: 0.0
      z: 0.000117455485243
  covariance: [9.999996025388786e-10, 0.0, 0.0, 0.0, 0.0, 0.0, 0.0, 1115410.4158590017, 0.0, 0.0, 0.0, 0.0, 0.0, 0.0, 5.025901369131353e-07, -2.8934887446572425e-25, -2.634423009851003e-26, 0.0, 0.0, 0.0, -2.893488744657243e-25, 3.3444267220202464e-07, -2.2506826480469823e-33, 0.0, 0.0, 0.0, -2.6344230098510034e-26, -2.2824257125721992e-33, 3.3444267220202464e-07, 0.0, 0.0, 0.0, 0.0, 0.0, 0.0, 9.970636114131483e-10]
---
header: 
  seq: 6944
  stamp: 
    secs: 1518208592
    nsecs: 534874201
  frame_id: "swarmone/odom"
child_frame_id: "swarmone/base_link"
pose: 
  pose: 
    position: 
      x: 0.373811063145
      y: 9.05913278047
      z: 0.0
    orientation: 
      x: 0.0
      y: 0.0
      z: 0.677972527666
      w: 0.735087240897
  covariance: [79885836523.04703, -5757205120.591172, 0.0, 0.0, 0.0, -1.6481754187944516e-15, -5757205120.591169, 419110669.7503596, 0.0, 0.0, 0.0, 1.3590688356278876e-16, 0.0, 0.0, 7.655808576796074e-07, -6.207574221999938e-21, -3.9339123670994925e-14, 0.0, 0.0, 0.0, -6.2075742219999365e-21, 6.428024977325907e-07, -1.0406329493281013e-27, 0.0, 0.0, 0.0, -3.933912367099491e-14, -1.0428190532330117e-27, 6.428024977325841e-07, 0.0, -1.6481754187944516e-15, 1.3590688356278876e-16, 0.0, 0.0, 0.0, 2.933548522783979e-06]
twist: 
  twist: 
    linear: 
      x: 1.16023683265e-08
      y: 0.0
      z: 0.0
    angular: 
      x: 0.0
      y: 0.0
      z: 4.08364670333e-05
  covariance: [9.999995978274456e-10, 0.0, 0.0, 0.0, 0.0, 0.0, 0.0, 1115889.8668082776, 0.0, 0.0, 0.0, 0.0, 0.0, 0.0, 6.958949848743952e-07, -1.7357145211668454e-24, -1.4053741413488603e-25, 0.0, 0.0, 0.0, -1.7357145211668454e-24, 4.511464722278335e-07, -4.277307753506977e-32, 0.0, 0.0, 0.0, -1.4053741413488603e-25, -4.240930623887167e-32, 4.511464722278335e-07, 0.0, 0.0, 0.0, 0.0, 0.0, 0.0, 9.989790878121934e-10]
---
header: 
  seq: 6945
  stamp: 
    secs: 1518208592
    nsecs: 635324001
  frame_id: "swarmone/odom"
child_frame_id: "swarmone/base_link"
pose: 
  pose: 
    position: 
      x: 0.373965723151
      y: 9.06104285561
      z: 0.0
    orientation: 
      x: 0.0
      y: 0.0
      z: 0.677972051582
      w: 0.73508767999
  covariance: [79943730991.34659, -5761686471.675373, 0.0, 0.0, 0.0, -1.5552670745384508e-15, -5761686471.675371, 419456815.1954235, 0.0, 0.0, 0.0, 1.2593219526920236e-16, 0.0, 0.0, 5.690338431467139e-07, -2.6224013674698704e-21, -4.9366692029822784e-14, 0.0, 0.0, 0.0, -2.622401367469871e-21, 4.526017021466995e-07, -2.9942390407536025e-28, 0.0, 0.0, 0.0, -4.936669202982278e-14, -3.013621646329632e-28, 4.526017021466939e-07, 0.0, -1.5552670745384508e-15, 1.2593219526920234e-16, 0.0, 0.0, 0.0, 9.880529173148717e-07]
twist: 
  twist: 
    linear: 
      x: 1.51981359373e-08
      y: 0.0
      z: 0.0
    angular: 
      x: 0.0
      y: 0.0
      z: 0.000120839421936
  covariance: [9.999996017922456e-10, 0.0, 0.0, 0.0, 0.0, 0.0, 0.0, 1116374.2302755448, 0.0, 0.0, 0.0, 0.0, 0.0, 0.0, 4.978258271033146e-07, -4.968908518265384e-25, -4.023451377554952e-26, 0.0, 0.0, 0.0, -4.968908518265384e-25, 3.3232363198034804e-07, -6.096269534528697e-33, 0.0, 0.0, 0.0, -4.023451377554952e-26, -6.063719220097021e-33, 3.3232363198034804e-07, 0.0, 0.0, 0.0, 0.0, 0.0, 0.0, 9.969790129491555e-10]
---
header: 
  seq: 6946
  stamp: 
    secs: 1518208592
    nsecs: 734795332
  frame_id: "swarmone/odom"
child_frame_id: "swarmone/base_link"
pose: 
  pose: 
    position: 
      x: 0.374089459347
      y: 9.06257096084
      z: 0.0
    orientation: 
      x: 0.0
      y: 0.0
      z: 0.674288096565
      w: 0.738468389866
  covariance: [80001094561.11604, -5766126907.588583, 0.0, 0.0, 0.0, -7.654395356047875e-16, -5766126907.588581, 419799814.2624467, 0.0, 0.0, 0.0, 6.71419542852653e-17, 0.0, 0.0, 5.716744453012192e-07, -1.8194242693768126e-21, -4.0056176427690793e-14, 0.0, 0.0, 0.0, -1.8194242693768126e-21, 4.547364311112962e-07, -1.7034957906233045e-28, 0.0, 0.0, 0.0, -4.00561764276908e-14, -1.6994844392689507e-28, 4.547364311112924e-07, 0.0, -7.654395356047874e-16, 6.714195428526528e-17, 0.0, 0.0, 0.0, 1.0023580320592874e-06]
twist: 
  twist: 
    linear: 
      x: 1.23994561389e-08
      y: 0.0
      z: 0.0
    angular: 
      x: 0.0
      y: 0.0
      z: 8.93425695642e-05
  covariance: [9.999995978746716e-10, 0.0, 0.0, 0.0, 0.0, 0.0, 0.0, 1116854.013715792, 0.0, 0.0, 0.0, 0.0, 0.0, 0.0, 5.002192614667481e-07, -4.1122025004716396e-25, -3.7440065956606527e-26, 0.0, 0.0, 0.0, -4.11220250047164e-25, 3.3338430411370664e-07, -4.764744055258608e-33, 0.0, 0.0, 0.0, -3.744006595660653e-26, -4.5882996839794674e-33, 3.3338430411370664e-07, 0.0, 0.0, 0.0, 0.0, 0.0, 0.0, 9.970219128566825e-10]
---
header: 
  seq: 6947
  stamp: 
    secs: 1518208592
    nsecs: 835293531
  frame_id: "swarmone/odom"
child_frame_id: "swarmone/base_link"
pose: 
  pose: 
    position: 
      x: 0.374213047756
      y: 9.06392841171
      z: 0.0
    orientation: 
      x: 0.0
      y: 0.0
      z: 0.67797199332
      w: 0.735087733725
  covariance: [80059033885.627, -5770903811.733091, 0.0, 0.0, 0.0, -6.770040341123187e-16, -5770903811.733089, 420189371.07426417, 0.0, 0.0, 0.0, 5.709183368804954e-17, 0.0, 0.0, 5.716744802028584e-07, -1.425148549081666e-21, -3.525028742553976e-14, 0.0, 0.0, 0.0, -1.425148549081666e-21, 4.5473654429449993e-07, -1.1685940285909345e-28, 0.0, 0.0, 0.0, -3.5250287425539757e-14, -1.177141354379484e-28, 4.54736544294497e-07, 0.0, -6.770040341123188e-16, 5.709183368804955e-17, 0.0, 0.0, 0.0, 1.0023580320609999e-06]
twist: 
  twist: 
    linear: 
      x: 1.08005236144e-08
      y: 0.0
      z: 0.0
    angular: 
      x: 0.0
      y: 0.0
      z: 8.93425699734e-05
  covariance: [9.999996019835044e-10, 0.0, 0.0, 0.0, 0.0, 0.0, 0.0, 1117338.8896681448, 0.0, 0.0, 0.0, 0.0, 0.0, 0.0, 5.002193327364423e-07, -3.621979693467487e-25, -2.932825346031357e-26, 0.0, 0.0, 0.0, -3.6219796934674854e-25, 3.3338481084555145e-07, -3.206147621700127e-33, 0.0, 0.0, 0.0, -2.932825346031356e-26, -3.2222586991826723e-33, 3.3338481084555145e-07, 0.0, 0.0, 0.0, 0.0, 0.0, 0.0, 9.97021912856728e-10]
---
header: 
  seq: 6948
  stamp: 
    secs: 1518208592
    nsecs: 934741020
  frame_id: "swarmone/odom"
child_frame_id: "swarmone/base_link"
pose: 
  pose: 
    position: 
      x: 0.374336723367
      y: 9.06545576525
      z: 0.0
    orientation: 
      x: 0.0
      y: 0.0
      z: 0.674288154483
      w: 0.738468336982
  covariance: [80116449843.67853, -5775348605.426734, 0.0, 0.0, 0.0, -7.61586552952593e-16, -5775348605.426732, 420532732.3206189, 0.0, 0.0, 0.0, 6.675491643673961e-17, 0.0, 0.0, 5.690338085238759e-07, -2.3797260493755454e-21, -3.987242280238243e-14, 0.0, 0.0, 0.0, -2.3797260493755458e-21, 4.5260159000882795e-07, -2.214433960761168e-28, 0.0, 0.0, 0.0, -3.987242280238244e-14, -2.1889489544877034e-28, 4.5260159000882435e-07, 0.0, -7.61586552952593e-16, 6.67549164367396e-17, 0.0, 0.0, 0.0, 9.880529173131463e-07]
twist: 
  twist: 
    linear: 
      x: 1.23990486871e-08
      y: 0.0
      z: 0.0
    angular: 
      x: 0.0
      y: 0.0
      z: 0.000120839421406
  covariance: [9.999995977782687e-10, 0.0, 0.0, 0.0, 0.0, 0.0, 0.0, 1117818.8343576656, 0.0, 0.0, 0.0, 0.0, 0.0, 0.0, 4.978257564817608e-07, -4.0027812978489827e-25, -3.644368865478817e-26, 0.0, 0.0, 0.0, -4.002781297848985e-25, 3.32323129712616e-07, -4.402458552199503e-33, 0.0, 0.0, 0.0, -3.6443688654788187e-26, -4.627265900236409e-33, 3.32323129712616e-07, 0.0, 0.0, 0.0, 0.0, 0.0, 0.0, 9.969790129491098e-10]
---
header: 
  seq: 6949
  stamp: 
    secs: 1518208593
    nsecs:  35268068
  frame_id: "swarmone/odom"
child_frame_id: "swarmone/base_link"
pose: 
  pose: 
    position: 
      x: 0.374446643739
      y: 9.06666309307
      z: 0.0
    orientation: 
      x: 0.0
      y: 0.0
      z: 0.677972054478
      w: 0.735087677319
  covariance: [80174472629.21062, -5780132687.659066, 0.0, 0.0, 0.0, -5.990972846385838e-16, -5780132687.659066, 420922904.5236573, 0.0, 0.0, 0.0, 5.050267034400938e-17, 0.0, 0.0, 5.716744811715428e-07, -1.6895827118976965e-21, -3.13430463081087e-14, 0.0, 0.0, 0.0, -1.6895827118976968e-21, 4.547365803984878e-07, -1.228687691396032e-28, 0.0, 0.0, 0.0, -3.1343046308108694e-14, -1.2440429034683481e-28, 4.547365803984855e-07, 0.0, -5.990972846385839e-16, 5.050267034400938e-17, 0.0, 0.0, 0.0, 1.002358032061047e-06]
twist: 
  twist: 
    linear: 
      x: 9.60065498282e-09
      y: 0.0
      z: 0.0
    angular: 
      x: 0.0
      y: 0.0
      z: 0.000119123426651
  covariance: [9.999996020977209e-10, 0.0, 0.0, 0.0, 0.0, 0.0, 0.0, 1118304.1287857725, 0.0, 0.0, 0.0, 0.0, 0.0, 0.0, 5.002193347134022e-07, -3.2204776050331476e-25, -2.607713899151411e-26, 0.0, 0.0, 0.0, -3.2204776050331476e-25, 3.333848248788681e-07, -2.3854365571039836e-33, 0.0, 0.0, 0.0, -2.6077138991514114e-26, -2.673451945837126e-33, 3.333848248788681e-07, 0.0, 0.0, 0.0, 0.0, 0.0, 0.0, 9.970219128567292e-10]
---
header: 
  seq: 6950
  stamp: 
    secs: 1518208593
    nsecs: 134770393
  frame_id: "swarmone/odom"
child_frame_id: "swarmone/base_link"
pose: 
  pose: 
    position: 
      x: 0.374562472237
      y: 9.06809351043
      z: 0.0
    orientation: 
      x: 0.0
      y: 0.0
      z: 0.670587393145
      w: 0.741830538705
  covariance: [80231986485.60593, -5784585399.109938, 0.0, 0.0, 0.0, -6.987117176990611e-16, -5784585399.109938, 421266905.5641002, 0.0, 0.0, 0.0, 6.582359674514416e-17, 0.0, 0.0, 5.636536417017711e-07, -2.3786925042198603e-21, -3.698143629419939e-14, 0.0, 0.0, 0.0, -2.37869250421986e-21, 4.4828130552121734e-07, -2.025639423786593e-28, 0.0, 0.0, 0.0, -3.698143629419939e-14, -2.0063603125434674e-28, 4.4828130552121416e-07, 0.0, -6.987117176990613e-16, 6.582359674514416e-17, 0.0, 0.0, 0.0, 9.594426878210365e-07]
twist: 
  twist: 
    linear: 
      x: 1.1599326305e-08
      y: 0.0
      z: 0.0
    angular: 
      x: 0.0
      y: 0.0
      z: 0.000124424127584
  covariance: [9.999995979999353e-10, 0.0, 0.0, 0.0, 0.0, 0.0, 0.0, 1118784.6146610063, 0.0, 0.0, 0.0, 0.0, 0.0, 0.0, 4.929693122209167e-07, -3.5424044291429887e-25, -3.582666797638959e-26, 0.0, 0.0, 0.0, -3.5424044291429873e-25, 3.301906644380382e-07, -4.221592408903986e-33, 0.0, 0.0, 0.0, -3.582666797638959e-26, -4.140899351186224e-33, 3.301906644380382e-07, 0.0, 0.0, 0.0, 0.0, 0.0, 0.0, 9.968893952517307e-10]
---
header: 
  seq: 6951
  stamp: 
    secs: 1518208593
    nsecs: 235307217
  frame_id: "swarmone/odom"
child_frame_id: "swarmone/base_link"
pose: 
  pose: 
    position: 
      x: 0.374684476499
      y: 9.06929985835
      z: 0.0
    orientation: 
      x: 0.0
      y: 0.0
      z: 0.67797208191
      w: 0.735087652019
  covariance: [80290026033.71104, -5789664041.618174, 0.0, 0.0, 0.0, -6.391031314926363e-16, -5789664041.618175, 421700517.8441429, 0.0, 0.0, 0.0, 5.561913736465569e-17, 0.0, 0.0, 5.916890533467018e-07, -1.939365966711511e-21, -3.228825560441872e-14, 0.0, 0.0, 0.0, -1.939365966711511e-21, 4.712342065765812e-07, -1.5262385745530463e-28, 0.0, 0.0, 0.0, -3.2288255604418724e-14, -1.5409697998387976e-28, 4.7123420657657874e-07, 0.0, -6.391031314926363e-16, 5.561913736465569e-17, 0.0, 0.0, 0.0, 1.1167989500298764e-06]
twist: 
  twist: 
    linear: 
      x: 9.60054451216e-09
      y: 0.0
      z: 0.0
    angular: 
      x: 0.0
      y: 0.0
      z: 0.000106970986765
  covariance: [9.999996021364013e-10, 0.0, 0.0, 0.0, 0.0, 0.0, 0.0, 1119270.2357789068, 0.0, 0.0, 0.0, 0.0, 0.0, 0.0, 5.185761418774211e-07, -3.9173891351069863e-25, -3.1719105409049097e-26, 0.0, 0.0, 0.0, -3.9173891351069876e-25, 3.41754210136863e-07, -3.54767116763347e-33, 0.0, 0.0, 0.0, -3.17191054090491e-26, -3.463093521891301e-33, 3.41754210136863e-07, 0.0, 0.0, 0.0, 0.0, 0.0, 0.0, 9.97325724004762e-10]
---
header: 
  seq: 6952
  stamp: 
    secs: 1518208593
    nsecs: 334783792
  frame_id: "swarmone/odom"
child_frame_id: "swarmone/base_link"
pose: 
  pose: 
    position: 
      x: 0.374796252299
      y: 9.07068025395
      z: 0.0
    orientation: 
      x: 0.0
      y: 0.0
      z: 0.674288154482
      w: 0.738468336982
  covariance: [80347591288.96062, -5794121095.699552, 0.0, 0.0, 0.0, -7.145700505258864e-16, -5794121095.699551, 422044885.8247864, 0.0, 0.0, 0.0, 6.245703629349212e-17, 0.0, 0.0, 5.690338095468963e-07, -2.1503220230502997e-21, -3.602606715357047e-14, 0.0, 0.0, 0.0, -2.1503220230503e-21, 4.526015933332529e-07, -1.7944870301939214e-28, 0.0, 0.0, 0.0, -3.602606715357047e-14, -1.8005821232187059e-28, 4.5260159333325e-07, 0.0, -7.145700505258865e-16, 6.245703629349211e-17, 0.0, 0.0, 0.0, 9.880529173131986e-07]
twist: 
  twist: 
    linear: 
      x: 1.1199843615e-08
      y: 0.0
      z: 0.0
    angular: 
      x: 0.0
      y: 0.0
      z: 0.00012083942145
  covariance: [9.99999597895909e-10, 0.0, 0.0, 0.0, 0.0, 0.0, 0.0, 1119750.873895408, 0.0, 0.0, 0.0, 0.0, 0.0, 0.0, 4.978257585739e-07, -3.616956263398595e-25, -3.293063949746377e-26, 0.0, 0.0, 0.0, -3.6169562633985934e-25, 3.3232314468024795e-07, -3.5173446020036366e-33, 0.0, 0.0, 0.0, -3.293063949746377e-26, -3.710125681546693e-33, 3.3232314468024795e-07, 0.0, 0.0, 0.0, 0.0, 0.0, 0.0, 9.96979012949111e-10]
---
header: 
  seq: 6953
  stamp: 
    secs: 1518208593
    nsecs: 435253859
  frame_id: "swarmone/odom"
child_frame_id: "swarmone/base_link"
pose: 
  pose: 
    position: 
      x: 0.374919768623
      y: 9.07203689044
      z: 0.0
    orientation: 
      x: 0.0
      y: 0.0
      z: 0.674288174991
      w: 0.738468318255
  covariance: [80405714941.0477, -5798914259.378571, 0.0, 0.0, 0.0, -7.053918349674089e-16, -5798914259.37857, 422435873.89659363, 0.0, 0.0, 0.0, 6.422342253400915e-17, 0.0, 0.0, 5.844066908478121e-07, -2.3313114413056318e-21, -3.593322627940801e-14, 0.0, 0.0, 0.0, -2.3313114413056314e-21, 4.6516592240312866e-07, -2.0271323055018996e-28, 0.0, 0.0, 0.0, -3.5933226279408024e-14, -2.0042871327715077e-28, 4.651659224031256e-07, 0.0, -7.053918349674089e-16, 6.422342253400916e-17, 0.0, 0.0, 0.0, 1.073883605791461e-06]
twist: 
  twist: 
    linear: 
      x: 0.000200010720501
      y: 0.0
      z: 0.0
    angular: 
      x: 0.0
      y: 0.0
      z: 0.000111226030272
  covariance: [9.999996018720488e-10, 0.0, 0.0, 0.0, 0.0, 0.0, 0.0, 1120236.4518764922, 0.0, 0.0, 0.0, 0.0, 0.0, 0.0, 5.118525671609154e-07, -4.1030973344092073e-25, -3.735730357327024e-26, 0.0, 0.0, 0.0, -4.1030973344092055e-25, 3.3864040456409737e-07, -4.3091363302173805e-33, 0.0, 0.0, 0.0, -3.735730357327023e-26, -4.4048772060079104e-33, 3.3864040456409737e-07, 0.0, 0.0, 0.0, 0.0, 0.0, 0.0, 9.972193478633027e-10]
---
header: 
  seq: 6954
  stamp: 
    secs: 1518208593
    nsecs: 534666300
  frame_id: "swarmone/odom"
child_frame_id: "swarmone/base_link"
pose: 
  pose: 
    position: 
      x: 0.375046975957
      y: 9.07343401211
      z: 0.0
    orientation: 
      x: 0.0
      y: 0.0
      z: 0.66686981958
      w: 0.745174237164
  covariance: [80463259820.07571, -5803659993.252943, 0.0, 0.0, 0.0, -7.098404863325877e-16, -5803659993.252942, 422823019.80769527, 0.0, 0.0, 0.0, 7.388824235434374e-17, 0.0, 0.0, 5.690338073119782e-07, -1.9795005203105936e-21, -3.6257481624760085e-14, 0.0, 0.0, 0.0, -1.979500520310593e-21, 4.5260155319234746e-07, -1.6665998535701048e-28, 0.0, 0.0, 0.0, -3.6257481624760085e-14, -1.6641346918698802e-28, 4.526015531923445e-07, 0.0, -7.098404863325878e-16, 7.388824235434374e-17, 0.0, 0.0, 0.0, 9.880529173130891e-07]
twist: 
  twist: 
    linear: 
      x: 1.12786587118e-08
      y: 0.0
      z: 0.0
    angular: 
      x: 0.0
      y: 0.0
      z: 9.06295661057e-05
  covariance: [9.999995976364856e-10, 0.0, 0.0, 0.0, 0.0, 0.0, 0.0, 1120717.0564439015, 0.0, 0.0, 0.0, 0.0, 0.0, 0.0, 4.978257540194152e-07, -3.6327496538901397e-25, -4.0414129148644523e-26, 0.0, 0.0, 0.0, -3.63274965389014e-25, 3.3232311243394584e-07, -4.6115616407283865e-33, 0.0, 0.0, 0.0, -4.041412914864454e-26, -4.515627680276259e-33, 3.3232311243394584e-07, 0.0, 0.0, 0.0, 0.0, 0.0, 0.0, 9.96979012949108e-10]
---
header: 
  seq: 6955
  stamp: 
    secs: 1518208593
    nsecs: 635170221
  frame_id: "swarmone/odom"
child_frame_id: "swarmone/base_link"
pose: 
  pose: 
    position: 
      x: 0.375130722025
      y: 9.07418679849
      z: 0.0
    orientation: 
      x: 0.0
      y: 0.0
      z: 0.674288152639
      w: 0.738468338665
  covariance: [80521352369.86575, -5809037913.66638, 0.0, 0.0, 0.0, -3.7034186283859017e-16, -5809037913.666379, 423300625.109241, 0.0, 0.0, 0.0, 3.6210201423936596e-17, 0.0, 0.0, 5.690338448778016e-07, -1.16414919259829e-21, -1.9503065418723405e-14, 0.0, 0.0, 0.0, -1.1641491925982896e-21, 4.5260170728084676e-07, -5.383518383216718e-29, 0.0, 0.0, 0.0, -1.9503065418723408e-14, -5.153056316942168e-29, 4.526017072808459e-07, 0.0, -3.703418628385901e-16, 3.6210201423936596e-17, 0.0, 0.0, 0.0, 9.880529173149075e-07]
twist: 
  twist: 
    linear: 
      x: 6.00157695936e-09
      y: 0.0
      z: 0.0
    angular: 
      x: 0.0
      y: 0.0
      z: 0.000120839422043
  covariance: [9.99999602006161e-10, 0.0, 0.0, 0.0, 0.0, 0.0, 0.0, 1121203.0774315074, 0.0, 0.0, 0.0, 0.0, 0.0, 0.0, 4.978258305119243e-07, -1.957888432171032e-25, -1.7826137646807128e-26, 0.0, 0.0, 0.0, -1.9578884321710325e-25, 3.323236526809816e-07, -1.0981242942588247e-33, 0.0, 0.0, 0.0, -1.782613764680713e-26, -1.017763332736353e-33, 3.323236526809816e-07, 0.0, 0.0, 0.0, 0.0, 0.0, 0.0, 9.96979012949158e-10]
---
header: 
  seq: 6956
  stamp: 
    secs: 1518208593
    nsecs: 734651566
  frame_id: "swarmone/odom"
child_frame_id: "swarmone/base_link"
pose: 
  pose: 
    position: 
      x: 0.375251819809
      y: 9.07551684658
      z: 0.0
    orientation: 
      x: 0.0
      y: 0.0
      z: 0.670587341416
      w: 0.741830585465
  covariance: [80579003409.44058, -5813792989.808592, 0.0, 0.0, 0.0, -6.661191173925984e-16, -5813792989.80859, 423688593.73127204, 0.0, 0.0, 0.0, 6.514843565899118e-17, 0.0, 0.0, 5.71674445645026e-07, -1.7588055610590443e-21, -3.489095059396648e-14, 0.0, 0.0, 0.0, -1.7588055610590443e-21, 4.547364321304656e-07, -1.444514450547052e-28, 0.0, 0.0, 0.0, -3.489095059396647e-14, -1.4396582137451192e-28, 4.547364321304627e-07, 0.0, -6.661191173925984e-16, 6.514843565899117e-17, 0.0, 0.0, 0.0, 1.0023580320593043e-06]
twist: 
  twist: 
    linear: 
      x: 1.07994472705e-08
      y: 0.0
      z: 0.0
    angular: 
      x: 0.0
      y: 0.0
      z: 8.93425695687e-05
  covariance: [9.99999597915149e-10, 0.0, 0.0, 0.0, 0.0, 0.0, 0.0, 1121684.291756335, 0.0, 0.0, 0.0, 0.0, 0.0, 0.0, 5.002192621688023e-07, -3.57849542136132e-25, -3.61924274602234e-26, 0.0, 0.0, 0.0, -3.57849542136132e-25, 3.3338430910511456e-07, -3.864384284750588e-33, 0.0, 0.0, 0.0, -3.61924274602234e-26, -3.960073105071879e-33, 3.3338430910511456e-07, 0.0, 0.0, 0.0, 0.0, 0.0, 0.0, 9.97021912856683e-10]
---
header: 
  seq: 6957
  stamp: 
    secs: 1518208593
    nsecs: 835117340
  frame_id: "swarmone/odom"
child_frame_id: "swarmone/base_link"
pose: 
  pose: 
    position: 
      x: 0.375368576188
      y: 9.07667130478
      z: 0.0
    orientation: 
      x: 0.0
      y: 0.0
      z: 0.677972018999
      w: 0.735087710042
  covariance: [80637202514.17145, -5818887061.711111, 0.0, 0.0, 0.0, -6.312499557687619e-16, -5818887061.711109, 424123694.85713786, 0.0, 0.0, 0.0, 5.498512728832499e-17, 0.0, 0.0, 5.964038093765577e-07, -1.4374722449995245e-21, -3.111308482548542e-14, 0.0, 0.0, 0.0, -1.4374722449995245e-21, 4.7520375551349634e-07, -1.108438641221675e-28, 0.0, 0.0, 0.0, -3.1113084825485426e-14, -1.1078445137939005e-28, 4.752037555134941e-07, 0.0, -6.312499557687619e-16, 5.4985127288324993e-17, 0.0, 0.0, 0.0, 1.145409179521965e-06]
twist: 
  twist: 
    linear: 
      x: 9.20084902711e-09
      y: 0.0
      z: 0.0
    angular: 
      x: 0.0
      y: 0.0
      z: 7.82329948678e-05
  covariance: [9.999996018550461e-10, 0.0, 0.0, 0.0, 0.0, 0.0, 0.0, 1122170.4077199057, 0.0, 0.0, 0.0, 0.0, 0.0, 0.0, 5.229565560598706e-07, -3.922383954686846e-25, -3.1759472202682335e-26, 0.0, 0.0, 0.0, -3.922383954686844e-25, 3.4381378771086407e-07, -3.2594744607366816e-33, 0.0, 0.0, 0.0, -3.1759472202682324e-26, -3.373577858228055e-33, 3.4381378771086407e-07, 0.0, 0.0, 0.0, 0.0, 0.0, 0.0, 9.973922322101871e-10]
---
header: 
  seq: 6958
  stamp: 
    secs: 1518208593
    nsecs: 934601784
  frame_id: "swarmone/odom"
child_frame_id: "swarmone/base_link"
pose: 
  pose: 
    position: 
      x: 0.375484290496
      y: 9.07810030163
      z: 0.0
    orientation: 
      x: 0.0
      y: 0.0
      z: 0.670587852994
      w: 0.741830123018
  covariance: [80694971331.44228, -5823361563.031062, 0.0, 0.0, 0.0, -1.622046986345064e-15, -5823361563.03106, 424469550.40862155, 0.0, 0.0, 0.0, 1.5852052011645977e-16, 0.0, 0.0, 7.59118701193879e-07, -7.497587508224413e-21, -3.9658257402486764e-14, 0.0, 0.0, 0.0, -7.497587508224412e-21, 6.353493966445465e-07, -1.23534157105141e-27, 0.0, 0.0, 0.0, -3.9658257402486776e-14, -1.2334369167463824e-27, 6.353493966445399e-07, 0.0, -1.622046986345064e-15, 1.5852052011645977e-16, 0.0, 0.0, 0.0, 2.819107604815095e-06]
twist: 
  twist: 
    linear: 
      x: 1.1598387601e-08
      y: 0.0
      z: 0.0
    angular: 
      x: 0.0
      y: 0.0
      z: 4.2491277468e-05
  covariance: [9.999995979277175e-10, 0.0, 0.0, 0.0, 0.0, 0.0, 0.0, 1122651.9137720405, 0.0, 0.0, 0.0, 0.0, 0.0, 0.0, 6.886717430794115e-07, -1.6687346370549788e-24, -1.687887677302124e-25, 0.0, 0.0, 0.0, -1.668734637054979e-24, 4.453399955417816e-07, -4.880608810026265e-32, 0.0, 0.0, 0.0, -1.687887677302124e-25, -4.9299528669426186e-32, 4.453399955417816e-07, 0.0, 0.0, 0.0, 0.0, 0.0, 0.0, 9.98937717530199e-10]
---
header: 
  seq: 6959
  stamp: 
    secs: 1518208594
    nsecs:  35126686
  frame_id: "swarmone/odom"
child_frame_id: "swarmone/base_link"
pose: 
  pose: 
    position: 
      x: 0.375601189561
      y: 9.07925620214
      z: 0.0
    orientation: 
      x: 0.0
      y: 0.0
      z: 0.674288181421
      w: 0.738468312384
  covariance: [80753271723.2353, -5828464931.891295, 0.0, 0.0, 0.0, -9.627783470722393e-16, -5828464931.891294, 424905495.0894433, 0.0, 0.0, 0.0, 9.310721940181292e-17, 0.0, 0.0, 5.892901234184473e-07, -2.0539308467033927e-21, -3.084145295015018e-14, 0.0, 0.0, 0.0, -2.0539308467033924e-21, 4.692268052122327e-07, -1.5333575456052966e-28, 0.0, 0.0, 0.0, -3.0841452950150177e-14, -1.5513608511217111e-28, 4.6922680521223044e-07, 0.0, -9.627783470722391e-16, 9.310721940181294e-17, 0.0, 0.0, 0.0, 1.1024938352838058e-06]
twist: 
  twist: 
    linear: 
      x: 9.20128356494e-09
      y: 0.0
      z: 0.0
    angular: 
      x: 0.0
      y: 0.0
      z: 0.000108352693881
  covariance: [9.999996020897152e-10, 0.0, 0.0, 0.0, 0.0, 0.0, 0.0, 1123138.5955452956, 0.0, 0.0, 0.0, 0.0, 0.0, 0.0, 5.163556258065993e-07, -3.6706708950018274e-25, -3.342404359350257e-26, 0.0, 0.0, 0.0, -3.6706708950018265e-25, 3.407195483310547e-07, -3.513220401408143e-33, 0.0, 0.0, 0.0, -3.342404359350257e-26, -3.3875988234211014e-33, 3.407195483310547e-07, 0.0, 0.0, 0.0, 0.0, 0.0, 0.0, 9.972911813068232e-10]
---
header: 
  seq: 6960
  stamp: 
    secs: 1518208594
    nsecs: 134556293
  frame_id: "swarmone/odom"
child_frame_id: "swarmone/base_link"
pose: 
  pose: 
    position: 
      x: 0.37572664528
      y: 9.08063411279
      z: 0.0
    orientation: 
      x: 0.0
      y: 0.0
      z: 0.670587392524
      w: 0.741830539266
  covariance: [80811025492.4512, -5833229408.029146, 0.0, 0.0, 0.0, -6.970607345958014e-16, -5833229408.029144, 425294323.959612, 0.0, 0.0, 0.0, 6.792996107503558e-17, 0.0, 0.0, 5.636536391207379e-07, -2.2950959972368485e-21, -3.568099998594755e-14, 0.0, 0.0, 0.0, -2.2950959972368485e-21, 4.482812972919254e-07, -1.8785140977842362e-28, 0.0, 0.0, 0.0, -3.5680999985947543e-14, -1.8749882406279732e-28, 4.4828129729192253e-07, 0.0, -6.970607345958015e-16, 6.792996107503558e-17, 0.0, 0.0, 0.0, 9.594426878209168e-07]
twist: 
  twist: 
    linear: 
      x: 1.11997074739e-08
      y: 0.0
      z: 0.0
    angular: 
      x: 0.0
      y: 0.0
      z: 0.000124424127521
  covariance: [9.999995977059599e-10, 0.0, 0.0, 0.0, 0.0, 0.0, 0.0, 1123620.1128967085, 0.0, 0.0, 0.0, 0.0, 0.0, 0.0, 4.929693070019787e-07, -3.4181122624979606e-25, -3.4569792865295897e-26, 0.0, 0.0, 0.0, -3.4181122624979606e-25, 3.3019062820520445e-07, -3.803969208836163e-33, 0.0, 0.0, 0.0, -3.4569792865295885e-26, -3.7886146072712694e-33, 3.3019062820520445e-07, 0.0, 0.0, 0.0, 0.0, 0.0, 0.0, 9.968893952517271e-10]
---
header: 
  seq: 6961
  stamp: 
    secs: 1518208594
    nsecs: 235146284
  frame_id: "swarmone/odom"
child_frame_id: "swarmone/base_link"
pose: 
  pose: 
    position: 
      x: 0.37585896222
      y: 9.08194240908
      z: 0.0
    orientation: 
      x: 0.0
      y: 0.0
      z: 0.674288153252
      w: 0.738468338105
  covariance: [80869430745.53181, -5838342524.752934, 0.0, 0.0, 0.0, -6.364248397837588e-16, -5838342524.752932, 425731165.492143, 0.0, 0.0, 0.0, 6.004321897178682e-17, 0.0, 0.0, 5.690338478030235e-07, -2.019428570453824e-21, -3.3828179124107503e-14, 0.0, 0.0, 0.0, -2.019428570453824e-21, 4.526017167114449e-07, -1.591861775127744e-28, 0.0, 0.0, 0.0, -3.38281791241075e-14, -1.5783914184272901e-28, 4.5260171671144213e-07, 0.0, -6.364248397837588e-16, 6.004321897178682e-17, 0.0, 0.0, 0.0, 9.880529173150485e-07]
twist: 
  twist: 
    linear: 
      x: 1.04002489155e-08
      y: 0.0
      z: 0.0
    angular: 
      x: 0.0
      y: 0.0
      z: 0.000120839422145
  covariance: [9.99999602346694e-10, 0.0, 0.0, 0.0, 0.0, 0.0, 0.0, 1124107.3897729355, 0.0, 0.0, 0.0, 0.0, 0.0, 0.0, 4.978258364666555e-07, -3.3959006055853644e-25, -3.091865924850207e-26, 0.0, 0.0, 0.0, -3.3959006055853635e-25, 3.3232369470423913e-07, -3.3391132498988324e-33, 0.0, 0.0, 0.0, -3.091865924850207e-26, -3.1626023167030935e-33, 3.3232369470423913e-07, 0.0, 0.0, 0.0, 0.0, 0.0, 0.0, 9.969790129491617e-10]
---
header: 
  seq: 6962
  stamp: 
    secs: 1518208594
    nsecs: 334678411
  frame_id: "swarmone/odom"
child_frame_id: "swarmone/base_link"
pose: 
  pose: 
    position: 
      x: 0.375984670439
      y: 9.08332309481
      z: 0.0
    orientation: 
      x: 0.0
      y: 0.0
      z: 0.670587399598
      w: 0.741830532872
  covariance: [80927310598.50713, -5843117927.622049, 0.0, 0.0, 0.0, -6.845148722700301e-16, -5843117927.622046, 426120938.7533339, 0.0, 0.0, 0.0, 6.692547546911548e-17, 0.0, 0.0, 5.69033811463473e-07, -2.387641327909301e-21, -3.6043618262577195e-14, 0.0, 0.0, 0.0, -2.387641327909301e-21, 4.5260159936299723e-07, -1.991540385065515e-28, 0.0, 0.0, 0.0, -3.604361826257721e-14, -2.0022427078083135e-28, 4.5260159936299427e-07, 0.0, -6.845148722700301e-16, 6.692547546911549e-17, 0.0, 0.0, 0.0, 9.880529173132884e-07]
twist: 
  twist: 
    linear: 
      x: 1.11987934585e-08
      y: 0.0
      z: 0.0
    angular: 
      x: 0.0
      y: 0.0
      z: 0.000120839421505
  covariance: [9.999995981203e-10, 0.0, 0.0, 0.0, 0.0, 0.0, 0.0, 1124589.6808035113, 0.0, 0.0, 0.0, 0.0, 0.0, 0.0, 4.978257624668508e-07, -3.614896346482646e-25, -3.656048913762795e-26, 0.0, 0.0, 0.0, -3.614896346482645e-25, 3.32323171971573e-07, -4.047025902566725e-33, 0.0, 0.0, 0.0, -3.656048913762794e-26, -3.999655801255986e-33, 3.32323171971573e-07, 0.0, 0.0, 0.0, 0.0, 0.0, 0.0, 9.969790129491137e-10]
---
header: 
  seq: 6963
  stamp: 
    secs: 1518208594
    nsecs: 434727907
  frame_id: "swarmone/odom"
child_frame_id: "swarmone/base_link"
pose: 
  pose: 
    position: 
      x: 0.376080264096
      y: 9.08426830244
      z: 0.0
    orientation: 
      x: 0.0
      y: 0.0
      z: 0.677972371261
      w: 0.73508738515
  covariance: [80985468843.62248, -5848209690.906901, 0.0, 0.0, 0.0, -1.1222498543691756e-15, -5848209690.9068985, 426556001.30544144, 0.0, 0.0, 0.0, 9.400969719176953e-17, 0.0, 0.0, 7.724484897413868e-07, -3.1729083942481826e-21, -2.5682020930377112e-14, 0.0, 0.0, 0.0, -3.1729083942481838e-21, 6.508312347770733e-07, -3.5747889231885916e-28, 0.0, 0.0, 0.0, -2.5682020930377115e-14, -3.58726013156279e-28, 6.508312347770704e-07, 0.0, -1.1222498543691756e-15, 9.400969719176953e-17, 0.0, 0.0, 0.0, 3.0622945555000215e-06]
twist: 
  twist: 
    linear: 
      x: 7.60188799756e-09
      y: 0.0
      z: 0.0
    angular: 
      x: 0.0
      y: 0.0
      z: 2.93418038572e-05
  covariance: [9.99999600198469e-10, 0.0, 0.0, 0.0, 0.0, 0.0, 0.0, 1125074.6177920108, 0.0, 0.0, 0.0, 0.0, 0.0, 0.0, 7.036306957557365e-07, -1.1894027687994521e-24, -9.629852914076781e-26, 0.0, 0.0, 0.0, -1.1894027687994527e-24, 4.5753533836553403e-07, -1.9967148959033685e-32, 0.0, 0.0, 0.0, -9.629852914076782e-26, -1.9225669628402833e-32, 4.5753533836553403e-07, 0.0, 0.0, 0.0, 0.0, 0.0, 0.0, 9.990219393843585e-10]
---
header: 
  seq: 6964
  stamp: 
    secs: 1518208594
    nsecs: 535344839
  frame_id: "swarmone/odom"
child_frame_id: "swarmone/base_link"
pose: 
  pose: 
    position: 
      x: 0.376186387409
      y: 9.08557885226
      z: 0.0
    orientation: 
      x: 0.0
      y: 0.0
      z: 0.674288615761
      w: 0.738467915793
