header: 
  seq: 9486
  stamp: 
    secs: 1518208846
    nsecs: 734570503
  frame_id: "swarmone/odom"
child_frame_id: "swarmone/base_link"
pose: 
  pose: 
    position: 
      x: 0.12693035117
      y: 13.8145668515
      z: 0.0
    orientation: 
      x: 0.0
      y: 0.0
      z: 0.674288150343
      w: 0.738468340762
  covariance: [380160753989.9969, -20691920390.261982, 0.0, 0.0, 0.0, 2.6372295470195966e-16, -20691920390.262024, 1127689280.4450788, 0.0, 0.0, 0.0, -2.401102391727563e-17, 0.0, 0.0, 5.663604120895612e-07, 8.288701916853829e-22, 1.4087700938651048e-14, 0.0, 0.0, 0.0, 8.28870191685383e-22, 4.5044993764734276e-07, -2.3645249419118765e-29, 0.0, 0.0, 0.0, 1.4087700938651048e-14, -2.4492137793593e-29, 4.5044993764734233e-07, 0.0, 2.637229547019597e-16, -2.4011023917275633e-17, 0.0, 0.0, 0.0, 9.737478025670753e-07]
twist: 
  twist: 
    linear: 
      x: -4.39973520117e-09
      y: 0.0
      z: 0.0
    angular: 
      x: 0.0
      y: 0.0
      z: 0.000122605578018
  covariance: [9.999995978534586e-10, 0.0, 0.0, 0.0, 0.0, 0.0, 0.0, 2844873.82557999, 0.0, 0.0, 0.0, 0.0, 0.0, 0.0, 4.95409218674466e-07, 1.382370849159043e-25, 1.2586016415469189e-26, 0.0, 0.0, 0.0, 1.3823708491590427e-25, 3.312585924763887e-07, -4.364640727881474e-34, 0.0, 0.0, 0.0, 1.2586016415469186e-26, -3.885313857028297e-34, 3.312585924763887e-07, 0.0, 0.0, 0.0, 0.0, 0.0, 0.0, 9.969348590145062e-10]
---
header: 
  seq: 9487
  stamp: 
    secs: 1518208846
    nsecs: 835095406
  frame_id: "swarmone/odom"
child_frame_id: "swarmone/base_link"
pose: 
  pose: 
    position: 
      x: 0.12688913603
      y: 13.8141141587
      z: 0.0
    orientation: 
      x: 0.0
      y: 0.0
      z: 0.677972047468
      w: 0.735087683785
  covariance: [380362396085.5201, -20706567904.972046, 0.0, 0.0, 0.0, 2.1926457201163051e-16, -20706567904.972084, 1128685000.9417458, 0.0, 0.0, 0.0, -1.8490673695363856e-17, 0.0, 0.0, 5.663604489674178e-07, 6.100117199663854e-22, 1.1648593508017822e-14, 0.0, 0.0, 0.0, 6.100117199663855e-22, 4.504500561907514e-07, -1.6070004078481266e-29, 0.0, 0.0, 0.0, 1.1648593508017825e-14, -1.6702728104255148e-29, 4.504500561907509e-07, 0.0, 2.192645720116305e-16, -1.8490673695363856e-17, 0.0, 0.0, 0.0, 9.737478025688407e-07]
twist: 
  twist: 
    linear: 
      x: -3.59960910037e-09
      y: 0.0
      z: 0.0
    angular: 
      x: 0.0
      y: 0.0
      z: 0.000122605578612
  covariance: [9.999996020892237e-10, 0.0, 0.0, 0.0, 0.0, 0.0, 0.0, 2845778.3937907466, 0.0, 0.0, 0.0, 0.0, 0.0, 0.0, 4.954092935663113e-07, 1.1440275335421263e-25, 9.263567466817514e-27, 0.0, 0.0, 0.0, 1.144027533542126e-25, 3.3125911819536004e-07, -3.7119849062694645e-34, 0.0, 0.0, 0.0, 9.263567466817513e-27, -4.194473573744421e-34, 3.3125911819536004e-07, 0.0, 0.0, 0.0, 0.0, 0.0, 0.0, 9.96934859014556e-10]
---
header: 
  seq: 9488
  stamp: 
    secs: 1518208846
    nsecs: 934572935
  frame_id: "swarmone/odom"
child_frame_id: "swarmone/base_link"
pose: 
  pose: 
    position: 
      x: 0.126865183352
      y: 13.8138183502
      z: 0.0
    orientation: 
      x: 0.0
      y: 0.0
      z: 0.674288150961
      w: 0.738468340197
  covariance: [380562193202.93634, -20720076226.55879, 0.0, 0.0, 0.0, 1.4461957243115603e-16, -20720076226.558826, 1129562621.3090067, 0.0, 0.0, 0.0, -1.2680929788658427e-17, 0.0, 0.0, 5.663604124939312e-07, 4.521016384090881e-22, 7.685431726611177e-15, 0.0, 0.0, 0.0, 4.521016384090882e-22, 4.50449938948982e-07, -4.4228446062874636e-30, 0.0, 0.0, 0.0, 7.685431726611177e-15, -7.790682326003576e-30, 4.5044993894898194e-07, 0.0, 1.4461957243115603e-16, -1.2680929788658425e-17, 0.0, 0.0, 0.0, 9.73747802567095e-07]
twist: 
  twist: 
    linear: 
      x: -2.39999915341e-09
      y: 0.0
      z: 0.0
    angular: 
      x: 0.0
      y: 0.0
      z: 0.000122605577974
  covariance: [9.999995978997261e-10, 0.0, 0.0, 0.0, 0.0, 0.0, 0.0, 2846673.726011582, 0.0, 0.0, 0.0, 0.0, 0.0, 0.0, 4.954092194967853e-07, 7.541493930199464e-26, 6.86621671101275e-27, 0.0, 0.0, 0.0, 7.541493930199462e-26, 3.3125859827135866e-07, -1.9436000893159944e-34, 0.0, 0.0, 0.0, 6.866216711012753e-27, -1.9345845062965637e-34, 3.3125859827135866e-07, 0.0, 0.0, 0.0, 0.0, 0.0, 0.0, 9.969348590145069e-10]
---
header: 
  seq: 9489
  stamp: 
    secs: 1518208847
    nsecs:  35052061
  frame_id: "swarmone/odom"
child_frame_id: "swarmone/base_link"
pose: 
  pose: 
    position: 
      x: 0.126837730754
      y: 13.8135168204
      z: 0.0
    orientation: 
      x: 0.0
      y: 0.0
      z: 0.677972043963
      w: 0.735087687018
  covariance: [380763913634.5005, -20734731221.43145, 0.0, 0.0, 0.0, 1.4468143806859112e-16, -20734731221.431488, 1130559054.3660443, 0.0, 0.0, 0.0, -1.2205843517975114e-17, 0.0, 0.0, 5.63653676147402e-07, 3.98675053345932e-22, 7.72647422434157e-15, 0.0, 0.0, 0.0, 3.9867505334593187e-22, 4.482814158637037e-07, -7.650955929645784e-30, 0.0, 0.0, 0.0, 7.726474224341573e-15, -6.467880971985616e-30, 4.482814158637036e-07, 0.0, 1.4468143806859115e-16, -1.2205843517975115e-17, 0.0, 0.0, 0.0, 9.59442687822664e-07]
twist: 
  twist: 
    linear: 
      x: -2.399868952e-09
      y: 0.0
      z: 0.0
    angular: 
      x: 0.0
      y: 0.0
      z: 0.000124424128193
  covariance: [9.99999601907943e-10, 0.0, 0.0, 0.0, 0.0, 0.0, 0.0, 2847578.2635653066, 0.0, 0.0, 0.0, 0.0, 0.0, 0.0, 4.929693819746389e-07, 7.414416569860273e-26, 6.003716714006072e-27, 0.0, 0.0, 0.0, 7.414416569860273e-26, 3.3019115087058916e-07, -1.3080876029175506e-34, 0.0, 0.0, 0.0, 6.0037167140060684e-27, -3.4083104726715396e-35, 3.3019115087058916e-07, 0.0, 0.0, 0.0, 0.0, 0.0, 0.0, 9.96889395251778e-10]
---
header: 
  seq: 9490
  stamp: 
    secs: 1518208847
    nsecs: 134557962
  frame_id: "swarmone/odom"
child_frame_id: "swarmone/base_link"
pose: 
  pose: 
    position: 
      x: 0.126817759855
      y: 13.8132701807
      z: 0.0
    orientation: 
      x: 0.0
      y: 0.0
      z: 0.677972048077
      w: 0.735087683223
  covariance: [380963936465.28046, -20748256412.161526, 0.0, 0.0, 0.0, 1.2002495403054457e-16, -20748256412.161564, 1131437935.4168189, 0.0, 0.0, 0.0, -9.718707466674043e-18, 0.0, 0.0, 5.663604134904621e-07, 3.354519041549613e-22, 6.40603849725834e-15, 0.0, 0.0, 0.0, 3.354519041549613e-22, 4.504499422580179e-07, -6.041064386232348e-30, 0.0, 0.0, 0.0, 6.4060384972583405e-15, -3.8699630653859256e-30, 4.5044994225801774e-07, 0.0, 1.2002495403054455e-16, -9.718707466674043e-18, 0.0, 0.0, 0.0, 9.737478025671424e-07]
twist: 
  twist: 
    linear: 
      x: -1.99986869946e-09
      y: 0.0
      z: 0.0
    angular: 
      x: 0.0
      y: 0.0
      z: 0.000122605577994
  covariance: [9.99999598014372e-10, 0.0, 0.0, 0.0, 0.0, 0.0, 0.0, 2848474.228732096, 0.0, 0.0, 0.0, 0.0, 0.0, 0.0, 4.954092215193857e-07, 6.291403769843099e-26, 5.094309708229649e-27, 0.0, 0.0, 0.0, 6.291403769843099e-26, 3.3125861244597117e-07, -4.829782308271872e-35, 0.0, 0.0, 0.0, 5.094309708229652e-27, -1.9260446095793066e-34, 3.3125861244597117e-07, 0.0, 0.0, 0.0, 0.0, 0.0, 0.0, 9.969348590145081e-10]
---
header: 
  seq: 9491
  stamp: 
    secs: 1518208847
    nsecs: 235009193
  frame_id: "swarmone/odom"
child_frame_id: "swarmone/base_link"
pose: 
  pose: 
    position: 
      x: 0.126801476155
      y: 13.8130690777
      z: 0.0
    orientation: 
      x: 0.0
      y: 0.0
      z: 0.677972044572
      w: 0.735087686455
  covariance: [381165944771.93896, -20761916606.823788, 0.0, 0.0, 0.0, 9.646579657159887e-17, -20761916606.823826, 1132325661.904511, 0.0, 0.0, 0.0, -7.811065329388887e-18, 0.0, 0.0, 5.636536751729233e-07, 2.657360675892106e-22, 5.150384808098441e-15, 0.0, 0.0, 0.0, 2.6573606758921076e-22, 4.4828141274855285e-07, -3.479490472583821e-30, 0.0, 0.0, 0.0, 5.15038480809844e-15, -2.7937174868833808e-30, 4.482814127485528e-07, 0.0, 9.646579657159885e-17, -7.811065329388887e-18, 0.0, 0.0, 0.0, 9.594426878226179e-07]
twist: 
  twist: 
    linear: 
      x: -1.60025598588e-09
      y: 0.0
      z: 0.0
    angular: 
      x: 0.0
      y: 0.0
      z: 0.000124424128176
  covariance: [9.999996017973943e-10, 0.0, 0.0, 0.0, 0.0, 0.0, 0.0, 2849378.896386116, 0.0, 0.0, 0.0, 0.0, 0.0, 0.0, 4.92969380001218e-07, 4.9423701122095e-26, 4.0019629461859264e-27, 0.0, 0.0, 0.0, 4.9423701122095024e-26, 3.3019113710744313e-07, -4.881746489891686e-35, 0.0, 0.0, 0.0, 4.001962946185926e-27, -6.568969162667464e-35, 3.3019113710744313e-07, 0.0, 0.0, 0.0, 0.0, 0.0, 0.0, 9.968893952517768e-10]
---
header: 
  seq: 9492
  stamp: 
    secs: 1518208847
    nsecs: 334687948
  frame_id: "swarmone/odom"
child_frame_id: "swarmone/base_link"
pose: 
  pose: 
    position: 
      x: 0.126777424977
      y: 13.8127720527
      z: 0.0
    orientation: 
      x: 0.0
      y: 0.0
      z: 0.674288086
      w: 0.738468399513
  covariance: [381366484250.7251, -20775478382.41789, 0.0, 0.0, 0.0, 1.4136976890231914e-16, -20775478382.417923, 1133207071.7732449, 0.0, 0.0, 0.0, -1.2391217052962473e-17, 0.0, 0.0, 5.609128728763063e-07, 3.2674640122885225e-22, 7.628971544528682e-15, 0.0, 0.0, 0.0, 3.267464012288523e-22, 4.4609547409201726e-07, -5.2138111444174544e-30, 0.0, 0.0, 0.0, 7.628971544528682e-15, -6.1403930447635986e-30, 4.4609547409201705e-07, 0.0, 1.4136976890231914e-16, -1.2391217052962474e-17, 0.0, 0.0, 0.0, 9.45137573075231e-07]
twist: 
  twist: 
    linear: 
      x: -2.40025165802e-09
      y: 0.0
      z: 0.0
    angular: 
      x: 0.0
      y: 0.0
      z: 9.47230777019e-05
  covariance: [9.99999598711457e-10, 0.0, 0.0, 0.0, 0.0, 0.0, 0.0, 2850276.796412979, 0.0, 0.0, 0.0, 0.0, 0.0, 0.0, 4.905057053490786e-07, 7.143881223778523e-26, 6.504176502580503e-27, 0.0, 0.0, 0.0, 7.143881223778523e-26, 3.291193904001876e-07, -2.5892630808468355e-34, 0.0, 0.0, 0.0, 6.5041765025805e-27, -9.726103297262327e-35, 3.291193904001876e-07, 0.0, 0.0, 0.0, 0.0, 0.0, 0.0, 9.968425624991176e-10]
---
header: 
  seq: 9493
  stamp: 
    secs: 1518208847
    nsecs: 435202837
  frame_id: "swarmone/odom"
child_frame_id: "swarmone/base_link"
pose: 
  pose: 
    position: 
      x: 0.126740793837
      y: 13.8123697099
      z: 0.0
    orientation: 
      x: 0.0
      y: 0.0
      z: 0.677971988063
      w: 0.735087738574
  covariance: [381568617435.6934, -20790166672.256313, 0.0, 0.0, 0.0, 1.9298829771840368e-16, -20790166672.25634, 1134206144.9791744, 0.0, 0.0, 0.0, -1.6261931160146058e-17, 0.0, 0.0, 5.663604486191479e-07, 4.0668309576977183e-22, 1.0354409893017186e-14, 0.0, 0.0, 0.0, 4.0668309576977193e-22, 4.504500225347406e-07, -9.443288517489538e-30, 0.0, 0.0, 0.0, 1.0354409893017186e-14, -9.978301742932722e-30, 4.5045002253474036e-07, 0.0, 1.9298829771840365e-16, -1.6261931160146058e-17, 0.0, 0.0, 0.0, 9.737478025688233e-07]
twist: 
  twist: 
    linear: 
      x: -3.2001230936e-09
      y: 0.0
      z: 0.0
    angular: 
      x: 0.0
      y: 0.0
      z: 9.19541839589e-05
  covariance: [9.999996020495748e-10, 0.0, 0.0, 0.0, 0.0, 0.0, 0.0, 2851182.4192747953, 0.0, 0.0, 0.0, 0.0, 0.0, 0.0, 4.954092928568337e-07, 1.0169020938610829e-25, 8.23417399577472e-27, 0.0, 0.0, 0.0, 1.0169020938610824e-25, 3.312591131707133e-07, -1.4608004045768591e-34, 0.0, 0.0, 0.0, 8.234173995774719e-27, -3.0681777307387364e-34, 3.312591131707133e-07, 0.0, 0.0, 0.0, 0.0, 0.0, 0.0, 9.969348590145557e-10]
---
header: 
  seq: 9494
  stamp: 
    secs: 1518208847
    nsecs: 534648418
  frame_id: "swarmone/odom"
child_frame_id: "swarmone/base_link"
pose: 
  pose: 
    position: 
      x: 0.126704912648
      y: 13.8119265797
      z: 0.0
    orientation: 
      x: 0.0
      y: 0.0
      z: 0.677972524777
      w: 0.735087243562
  covariance: [381768856730.08496, -20803709775.959225, 0.0, 0.0, 0.0, 5.061058777500262e-16, -20803709775.959255, 1135086506.873931, 0.0, 0.0, 0.0, -4.098067430149278e-17, 0.0, 0.0, 7.647921131171433e-07, 1.918422678780495e-21, 1.2217392128083164e-14, 0.0, 0.0, 0.0, 1.9184226787804955e-21, 6.418875635120317e-07, -9.922334684512269e-29, 0.0, 0.0, 0.0, 1.2217392128083167e-14, -1.0007378266094793e-28, 6.41887563512031e-07, 0.0, 5.061058777500262e-16, -4.098067430149278e-17, 0.0, 0.0, 0.0, 2.9192434080378377e-06]
twist: 
  twist: 
    linear: 
      x: -3.59973442374e-09
      y: 0.0
      z: 0.0
    angular: 
      x: 0.0
      y: 0.0
      z: 4.10362350481e-05
  covariance: [9.999995977705464e-10, 0.0, 0.0, 0.0, 0.0, 0.0, 0.0, 2852078.596610984, 0.0, 0.0, 0.0, 0.0, 0.0, 0.0, 6.950104625675733e-07, 5.360616742638342e-25, 4.3406223277564556e-26, 0.0, 0.0, 0.0, 5.360616742638344e-25, 4.50427313775405e-07, -3.656671210064089e-33, 0.0, 0.0, 0.0, 4.3406223277564556e-26, -3.965549463013401e-33, 4.50427313775405e-07, 0.0, 0.0, 0.0, 0.0, 0.0, 0.0, 9.989740936089205e-10]
---
header: 
  seq: 9495
  stamp: 
    secs: 1518208847
    nsecs: 635098934
  frame_id: "swarmone/odom"
child_frame_id: "swarmone/base_link"
pose: 
  pose: 
    position: 
      x: 0.126672346951
      y: 13.8115243883
      z: 0.0
    orientation: 
      x: 0.0
      y: 0.0
      z: 0.677972044572
      w: 0.735087686456
  covariance: [381971204832.9831, -20817396109.9119, 0.0, 0.0, 0.0, 3.226784385689391e-16, -20817396109.911934, 1135976245.6443799, 0.0, 0.0, 0.0, -2.6127731568821938e-17, 0.0, 0.0, 5.636536752646679e-07, 5.313082086200836e-22, 1.0300289302782711e-14, 0.0, 0.0, 0.0, 5.313082086200836e-22, 4.48281413385892e-07, -1.2548730039421163e-29, 0.0, 0.0, 0.0, 1.0300289302782711e-14, -1.253511930239829e-29, 4.482814133858917e-07, 0.0, 3.226784385689391e-16, -2.6127731568821938e-17, 0.0, 0.0, 0.0, 9.594426878226702e-07]
twist: 
  twist: 
    linear: 
      x: -3.20025061486e-09
      y: 0.0
      z: 0.0
    angular: 
      x: 0.0
      y: 0.0
      z: 0.00012442412805
  covariance: [9.999996017950772e-10, 0.0, 0.0, 0.0, 0.0, 0.0, 0.0, 2852984.0207764115, 0.0, 0.0, 0.0, 0.0, 0.0, 0.0, 4.929693803063746e-07, 9.903073174200416e-26, 8.018769976938385e-27, 0.0, 0.0, 0.0, 9.903073174200416e-26, 3.3019114263512736e-07, -1.9936363942901787e-34, 0.0, 0.0, 0.0, 8.018769976938387e-27, -2.7961422836385674e-34, 3.3019114263512736e-07, 0.0, 0.0, 0.0, 0.0, 0.0, 0.0, 9.968893952517768e-10]
---
header: 
  seq: 9496
  stamp: 
    secs: 1518208847
    nsecs: 734549046
  frame_id: "swarmone/odom"
child_frame_id: "swarmone/base_link"
pose: 
  pose: 
    position: 
      x: 0.126636438258
      y: 13.8110809265
      z: 0.0
    orientation: 
      x: 0.0
      y: 0.0
      z: 0.67428814744
      w: 0.738468343412
  covariance: [382171622138.3653, -20830952886.344753, 0.0, 0.0, 0.0, 2.1367787846706243e-16, -20830952886.344784, 1136857646.8212297, 0.0, 0.0, 0.0, -1.873626809418639e-17, 0.0, 0.0, 5.636536398364832e-07, 6.648878902983719e-22, 1.1471154879328494e-14, 0.0, 0.0, 0.0, 6.648878902983717e-22, 4.4828129967317334e-07, -1.746146692858341e-29, 0.0, 0.0, 0.0, 1.1471154879328494e-14, -1.7497052282423726e-29, 4.482812996731731e-07, 0.0, 2.136778784670624e-16, -1.8736268094186388e-17, 0.0, 0.0, 0.0, 9.594426878209473e-07]
twist: 
  twist: 
    linear: 
      x: -3.59986680049e-09
      y: 0.0
      z: 0.0
    angular: 
      x: 0.0
      y: 0.0
      z: 0.000124424127559
  covariance: [9.999995977888643e-10, 0.0, 0.0, 0.0, 0.0, 0.0, 0.0, 2853880.61641528, 0.0, 0.0, 0.0, 0.0, 0.0, 0.0, 4.929693084401161e-07, 1.0998266247994704e-25, 1.0013445912286366e-26, 0.0, 0.0, 0.0, 1.0998266247994702e-25, 3.301906380010041e-07, -3.3988432984005492e-34, 0.0, 0.0, 0.0, 1.0013445912286363e-26, -3.3965249360723646e-34, 3.301906380010041e-07, 0.0, 0.0, 0.0, 0.0, 0.0, 0.0, 9.968893952517282e-10]
---
header: 
  seq: 9497
  stamp: 
    secs: 1518208847
    nsecs: 835019827
  frame_id: "swarmone/odom"
child_frame_id: "swarmone/base_link"
pose: 
  pose: 
    position: 
      x: 0.126599839782
      y: 13.8106789487
      z: 0.0
    orientation: 
      x: 0.0
      y: 0.0
      z: 0.6742881433
      w: 0.738468347192
  covariance: [382374007589.71344, -20845662945.003994, 0.0, 0.0, 0.0, 1.899222516918924e-16, -20845662945.00402, 1137858581.9871485, 0.0, 0.0, 0.0, -1.7291745321675913e-17, 0.0, 0.0, 5.609129011128664e-07, 5.853777972492106e-22, 1.025167870609746e-14, 0.0, 0.0, 0.0, 5.853777972492106e-22, 4.4609559599075206e-07, -1.4500618211501787e-29, 0.0, 0.0, 0.0, 1.0251678706097462e-14, -1.2833715658652987e-29, 4.4609559599075195e-07, 0.0, 1.899222516918924e-16, -1.7291745321675913e-17, 0.0, 0.0, 0.0, 9.451375730765491e-07]
twist: 
  twist: 
    linear: 
      x: -3.19987058899e-09
      y: 0.0
      z: 0.0
    angular: 
      x: 0.0
      y: 0.0
      z: 0.000126297437367
  covariance: [9.999996018748757e-10, 0.0, 0.0, 0.0, 0.0, 0.0, 0.0, 2854786.604665081, 0.0, 0.0, 0.0, 0.0, 0.0, 0.0, 4.90505762369539e-07, 9.599826540409906e-26, 8.740315777523243e-27, 0.0, 0.0, 0.0, 9.599826540409906e-26, 3.2911978549907566e-07, -2.5952102862338864e-34, 0.0, 0.0, 0.0, 8.740315777523244e-27, -3.0771649758722993e-34, 3.2911978549907566e-07, 0.0, 0.0, 0.0, 0.0, 0.0, 0.0, 9.968425624991571e-10]
---
header: 
  seq: 9498
  stamp: 
    secs: 1518208847
    nsecs: 934556961
  frame_id: "swarmone/odom"
child_frame_id: "swarmone/base_link"
pose: 
  pose: 
    position: 
      x: 0.126568408567
      y: 13.8103337193
      z: 0.0
    orientation: 
      x: 0.0
      y: 0.0
      z: 0.677972057977
      w: 0.735087674092
  covariance: [382574596881.45306, -20860243308.72989, 0.0, 0.0, 0.0, 1.7218887637527922e-16, -20860243308.729904, 1138850802.3290906, 0.0, 0.0, 0.0, -1.4492932205430526e-17, 0.0, 0.0, 5.742829208920718e-07, 4.9697804706203e-22, 9.08946566328723e-15, 0.0, 0.0, 0.0, 4.969780470620301e-22, 4.568547553347723e-07, -1.0922782902021333e-29, 0.0, 0.0, 0.0, 9.08946566328723e-15, -1.0299119738801802e-29, 4.568547553347721e-07, 0.0, 1.7218887637527922e-16, -1.4492932205430526e-17, 0.0, 0.0, 0.0, 1.0166631468054983e-06]
twist: 
  twist: 
    linear: 
      x: -2.80012932199e-09
      y: 0.0
      z: 0.0
    angular: 
      x: 0.0
      y: 0.0
      z: 0.000117455484651
  covariance: [9.999995981405033e-10, 0.0, 0.0, 0.0, 0.0, 0.0, 0.0, 2855684.3628752483, 0.0, 0.0, 0.0, 0.0, 0.0, 0.0, 5.025900613387133e-07, 9.546829088933121e-26, 7.730299060691413e-27, 0.0, 0.0, 0.0, 9.546829088933123e-26, 3.3444213142714153e-07, -1.768707358878091e-34, 0.0, 0.0, 0.0, 7.730299060691414e-27, -3.3719428642760215e-34, 3.3444213142714153e-07, 0.0, 0.0, 0.0, 0.0, 0.0, 0.0, 9.970636114131012e-10]
---
header: 
  seq: 9499
  stamp: 
    secs: 1518208848
    nsecs:  35022259
  frame_id: "swarmone/odom"
child_frame_id: "swarmone/base_link"
pose: 
  pose: 
    position: 
      x: 0.126535835875
      y: 13.8099314479
      z: 0.0
    orientation: 
      x: 0.0
      y: 0.0
      z: 0.677972055088
      w: 0.735087676757
  covariance: [382777316238.30225, -20873958461.324043, 0.0, 0.0, 0.0, 2.0153085688010742e-16, -20873958461.324055, 1139742767.0951548, 0.0, 0.0, 0.0, -1.6318431794366402e-17, 0.0, 0.0, 5.716744790971592e-07, 5.627648699173958e-22, 1.0440391656079957e-14, 0.0, 0.0, 0.0, 5.627648699173955e-22, 4.547365736825852e-07, -1.3633594940100284e-29, 0.0, 0.0, 0.0, 1.0440391656079956e-14, -1.380115664876965e-29, 4.5473657368258496e-07, 0.0, 2.015308568801074e-16, -1.6318431794366402e-17, 0.0, 0.0, 0.0, 1.0023580320609459e-06]
twist: 
  twist: 
    linear: 
      x: -3.19986174536e-09
      y: 0.0
      z: 0.0
    angular: 
      x: 0.0
      y: 0.0
      z: 0.000119123426609
  covariance: [9.999996018531602e-10, 0.0, 0.0, 0.0, 0.0, 0.0, 0.0, 2856590.683334342, 0.0, 0.0, 0.0, 0.0, 0.0, 0.0, 5.002193304797242e-07, 1.0727647216901627e-25, 8.686448761760831e-27, 0.0, 0.0, 0.0, 1.0727647216901623e-25, 3.333847948233652e-07, -1.937218305041378e-34, 0.0, 0.0, 0.0, 8.686448761760827e-27, -4.181341347587472e-34, 3.333847948233652e-07, 0.0, 0.0, 0.0, 0.0, 0.0, 0.0, 9.970219128567267e-10]
---
header: 
  seq: 9500
  stamp: 
    secs: 1518208848
    nsecs: 134936333
  frame_id: "swarmone/odom"
child_frame_id: "swarmone/base_link"
pose: 
  pose: 
    position: 
      x: 0.126507649392
      y: 13.8095833388
      z: 0.0
    orientation: 
      x: 0.0
      y: 0.0
      z: 0.681639002914
      w: 0.731688642598
  covariance: [382979008535.3705, -20887604706.93427, 0.0, 0.0, 0.0, 1.7461660310547168e-16, -20887604706.934277, 1140630315.654354, 0.0, 0.0, 0.0, -1.2968339366560286e-17, 0.0, 0.0, 5.716744604381899e-07, 4.291953099060824e-22, 9.08419593048778e-15, 0.0, 0.0, 0.0, 4.291953099060826e-22, 4.5473651331731417e-07, -8.447148112564022e-30, 0.0, 0.0, 0.0, 9.08419593048778e-15, -9.758170293124425e-30, 4.5473651331731396e-07, 0.0, 1.7461660310547168e-16, -1.2968339366560288e-17, 0.0, 0.0, 0.0, 1.0023580320600302e-06]
twist: 
  twist: 
    linear: 
      x: -2.79946148728e-09
      y: 0.0
      z: 0.0
    angular: 
      x: 0.0
      y: 0.0
      z: 0.000119123426287
  covariance: [9.999995996565893e-10, 0.0, 0.0, 0.0, 0.0, 0.0, 0.0, 2857492.221244515, 0.0, 0.0, 0.0, 0.0, 0.0, 0.0, 5.00219292377321e-07, 9.341130773723776e-26, 6.624284406375776e-27, 0.0, 0.0, 0.0, 9.341130773723775e-26, 3.3338452390221914e-07, -2.0877911184822693e-34, 0.0, 0.0, 0.0, 6.624284406375774e-27, -1.6150888037294914e-34, 3.3338452390221914e-07, 0.0, 0.0, 0.0, 0.0, 0.0, 0.0, 9.970219128567021e-10]
---
header: 
  seq: 9501
  stamp: 
    secs: 1518208848
    nsecs: 234302044
  frame_id: "swarmone/odom"
child_frame_id: "swarmone/base_link"
pose: 
  pose: 
    position: 
      x: 0.12649717344
      y: 13.8094356151
      z: 0.0
    orientation: 
      x: 0.0
      y: 0.0
      z: 0.677972059209
      w: 0.735087672956
  covariance: [383179830566.63086, -20900183102.829918, 0.0, 0.0, 0.0, 7.51428819518329e-17, -20900183102.82992, 1141404385.2025013, 0.0, 0.0, 0.0, -5.834770697412505e-18, 0.0, 0.0, 5.742829150810309e-07, 2.12679633119317e-22, 3.890295290673606e-15, 0.0, 0.0, 0.0, 2.12679633119317e-22, 4.568547364330263e-07, -1.982511334174789e-30, 0.0, 0.0, 0.0, 3.890295290673606e-15, -1.9046377025728252e-30, 4.5685473643302637e-07, 0.0, 7.514288195183292e-17, -5.834770697412505e-18, 0.0, 0.0, 0.0, 1.016663146805211e-06]
twist: 
  twist: 
    linear: 
      x: -1.20067954754e-09
      y: 0.0
      z: 0.0
    angular: 
      x: 0.0
      y: 0.0
      z: 0.00011745548454
  covariance: [9.999995974472418e-10, 0.0, 0.0, 0.0, 0.0, 0.0, 0.0, 2858388.99931033, 0.0, 0.0, 0.0, 0.0, 0.0, 0.0, 5.025900494448931e-07, 4.0862005531242874e-26, 3.3086921124997536e-27, 0.0, 0.0, 0.0, 4.086200553124286e-26, 3.3444204641866936e-07, -2.0842341170099453e-34, 0.0, 0.0, 0.0, 3.308692112499753e-27, 6.429343282773247e-35, 3.3444204641866936e-07, 0.0, 0.0, 0.0, 0.0, 0.0, 0.0, 9.970636114130935e-10]
---
header: 
  seq: 9502
  stamp: 
    secs: 1518208848
    nsecs: 334831715
  frame_id: "swarmone/odom"
child_frame_id: "swarmone/base_link"
pose: 
  pose: 
    position: 
      x: 0.126464563374
      y: 13.8090328736
      z: 0.0
    orientation: 
      x: 0.0
      y: 0.0
      z: 0.681639225484
      w: 0.731688435252
  covariance: [383382936391.3677, -20913926208.70807, 0.0, 0.0, 0.0, 1.9600126667120101e-16, -20913926208.708073, 1142298351.6364558, 0.0, 0.0, 0.0, -1.4582194543415816e-17, 0.0, 0.0, 5.636536779163952e-07, 9.318242322159011e-22, 1.0305318867081395e-14, 0.0, 0.0, 0.0, 9.318242322159011e-22, 4.482815509507082e-07, -2.1513080344227514e-29, 0.0, 0.0, 0.0, 1.0305318867081397e-14, -2.2501251557873728e-29, 4.4828155095070787e-07, 0.0, 1.9600126667120101e-16, -1.4582194543415816e-17, 0.0, 0.0, 0.0, 9.594426878227485e-07]
twist: 
  twist: 
    linear: 
      x: -3.1990746302e-09
      y: 0.0
      z: 0.0
    angular: 
      x: 0.0
      y: 0.0
      z: 0.000248848256251
  covariance: [9.99999602108109e-10, 0.0, 0.0, 0.0, 0.0, 0.0, 0.0, 2859296.473056775, 0.0, 0.0, 0.0, 0.0, 0.0, 0.0, 4.929693855603804e-07, 9.896949947318784e-26, 7.018525626786685e-27, 0.0, 0.0, 0.0, 9.896949947318779e-26, 3.301911759463566e-07, -2.5893055159293845e-34, 0.0, 0.0, 0.0, 7.018525626786685e-27, -1.631362376492131e-34, 3.301911759463566e-07, 0.0, 0.0, 0.0, 0.0, 0.0, 0.0, 9.968893952517807e-10]
---
header: 
  seq: 9503
  stamp: 
    secs: 1518208848
    nsecs: 435305119
  frame_id: "swarmone/odom"
child_frame_id: "swarmone/base_link"
pose: 
  pose: 
    position: 
      x: 0.126460990678
      y: 13.8089824926
      z: 0.0
    orientation: 
      x: 0.0
      y: 0.0
      z: 0.681638993058
      w: 0.731688651779
  covariance: [383586168824.27765, -20926656563.670025, 0.0, 0.0, 0.0, 2.404202229970201e-17, -20926656563.67003, 1143081859.5623846, 0.0, 0.0, 0.0, -1.7049261381705634e-18, 0.0, 0.0, 5.636536759459626e-07, 5.834606061998162e-23, 1.289586845891976e-15, 0.0, 0.0, 0.0, 5.834606061998163e-23, 4.482814153149462e-07, 4.3570811019039823e-32, 0.0, 0.0, 0.0, 1.2895868458919764e-15, -3.8846738091871503e-31, 4.482814153149462e-07, 0.0, 2.4042022299702008e-17, -1.7049261381705632e-18, 0.0, 0.0, 0.0, 9.59442687822654e-07]
twist: 
  twist: 
    linear: 
      x: -4.00768947976e-10
      y: 0.0
      z: 0.0
    angular: 
      x: 0.0
      y: 0.0
      z: 0.000124424128385
  covariance: [9.999996018852676e-10, 0.0, 0.0, 0.0, 0.0, 0.0, 0.0, 2860203.630774386, 0.0, 0.0, 0.0, 0.0, 0.0, 0.0, 4.929693815655838e-07, 1.2384289642514493e-26, 8.782293311419938e-28, 0.0, 0.0, 0.0, 1.2384289642514498e-26, 3.301911479953453e-07, -1.1268247167940724e-34, 0.0, 0.0, 0.0, 8.78229331141994e-28, 1.126824508583568e-34, 3.301911479953453e-07, 0.0, 0.0, 0.0, 0.0, 0.0, 0.0, 9.968893952517778e-10]
---
header: 
  seq: 9504
  stamp: 
    secs: 1518208848
    nsecs: 534822941
  frame_id: "swarmone/odom"
child_frame_id: "swarmone/base_link"
pose: 
  pose: 
    position: 
      x: 0.126436474924
      y: 13.8086367983
      z: 0.0
    orientation: 
      x: 0.0
      y: 0.0
      z: 0.674288144537
      w: 0.738468346063
  covariance: [383787553184.2176, -20939272001.386047, 0.0, 0.0, 0.0, 1.6471710437257844e-16, -20939272001.38605, 1143858349.8559928, 0.0, 0.0, 0.0, -1.3878778168985425e-17, 0.0, 0.0, 5.609128670839549e-07, 5.073900863381057e-22, 8.886904763706516e-15, 0.0, 0.0, 0.0, 5.073900863381057e-22, 4.4609548771019657e-07, -1.1213826282600121e-29, 0.0, 0.0, 0.0, 8.886904763706514e-15, -9.324842906466435e-30, 4.4609548771019646e-07, 0.0, 1.6471710437257846e-16, -1.3878778168985422e-17, 0.0, 0.0, 0.0, 9.451375730749606e-07]
twist: 
  twist: 
    linear: 
      x: -2.80063295298e-09
      y: 0.0
      z: 0.0
    angular: 
      x: 0.0
      y: 0.0
      z: 0.000126297436768
  covariance: [9.999995980625244e-10, 0.0, 0.0, 0.0, 0.0, 0.0, 0.0, 2861102.349828835, 0.0, 0.0, 0.0, 0.0, 0.0, 0.0, 4.905056936521015e-07, 8.321826861672659e-26, 7.576541353775817e-27, 0.0, 0.0, 0.0, 8.32182686167266e-26, 3.291193093512911e-07, -1.9532838837411833e-34, 0.0, 0.0, 0.0, 7.576541353775817e-27, -2.1083373331338873e-34, 3.291193093512911e-07, 0.0, 0.0, 0.0, 0.0, 0.0, 0.0, 9.968425624991096e-10]
---
header: 
  seq: 9505
  stamp: 
    secs: 1518208848
    nsecs: 635317802
  frame_id: "swarmone/odom"
child_frame_id: "swarmone/base_link"
pose: 
  pose: 
    position: 
      x: 0.126381549438
      y: 13.8080335267
      z: 0.0
    orientation: 
      x: 0.0
      y: 0.0
      z: 0.674288157385
      w: 0.738468334331
  covariance: [383990671231.2226, -20954041041.215107, 0.0, 0.0, 0.0, 2.949846789944589e-16, -20954041041.215115, 1144863952.202281, 0.0, 0.0, 0.0, -2.6857309390142497e-17, 0.0, 0.0, 5.716744800844725e-07, 9.487215717128991e-22, 1.5666303552916667e-14, 0.0, 0.0, 0.0, 9.487215717128991e-22, 4.547365767537223e-07, -3.4688247759397424e-29, 0.0, 0.0, 0.0, 1.5666303552916667e-14, -3.471216431865952e-29, 4.547365767537217e-07, 0.0, 2.9498467899445883e-16, -2.68573093901425e-17, 0.0, 0.0, 0.0, 1.0023580320609927e-06]
twist: 
  twist: 
    linear: 
      x: -4.80025112715e-09
      y: 0.0
      z: 0.0
    angular: 
      x: 0.0
      y: 0.0
      z: 0.00011912342664
  covariance: [9.999996019702693e-10, 0.0, 0.0, 0.0, 0.0, 0.0, 0.0, 2862010.0832892037, 0.0, 0.0, 0.0, 0.0, 0.0, 0.0, 5.002193324903694e-07, 1.608271397752063e-25, 1.464276416235067e-26, 0.0, 0.0, 0.0, 1.608271397752063e-25, 3.3338480900703854e-07, -6.602286441861137e-34, 0.0, 0.0, 0.0, 1.464276416235067e-26, -6.441068824084794e-34, 3.3338480900703854e-07, 0.0, 0.0, 0.0, 0.0, 0.0, 0.0, 9.97021912856728e-10]
---
header: 
  seq: 9506
  stamp: 
    secs: 1518208848
    nsecs: 734561443
  frame_id: "swarmone/odom"
child_frame_id: "swarmone/base_link"
pose: 
  pose: 
    position: 
      x: 0.126319064979
      y: 13.8073472183
      z: 0.0
    orientation: 
      x: 0.0
      y: 0.0
      z: 0.677972050965
      w: 0.735087680559
  covariance: [384191344740.71124, -20968633187.15576, 0.0, 0.0, 0.0, 3.433096221151885e-16, -20968633187.155773, 1145857619.8287632, 0.0, 0.0, 0.0, -2.8962559757636577e-17, 0.0, 0.0, 5.690338014196793e-07, 9.54763117342236e-22, 1.7968093407765317e-14, 0.0, 0.0, 0.0, 9.547631173422361e-22, 4.5260156720394005e-07, -4.044280444707162e-29, 0.0, 0.0, 0.0, 1.7968093407765317e-14, -3.9170385482153913e-29, 4.5260156720393936e-07, 0.0, 3.4330962211518854e-16, -2.8962559757636577e-17, 0.0, 0.0, 0.0, 9.88052917312802e-07]
twist: 
  twist: 
    linear: 
      x: -5.59878723418e-09
      y: 0.0
      z: 0.0
    angular: 
      x: 0.0
      y: 0.0
      z: 0.000120839421327
  covariance: [9.999995969520995e-10, 0.0, 0.0, 0.0, 0.0, 0.0, 0.0, 2862906.7033345643, 0.0, 0.0, 0.0, 0.0, 0.0, 0.0, 4.978257420147861e-07, 1.8053636198026357e-25, 1.461861188834764e-26, 0.0, 0.0, 0.0, 1.8053636198026348e-25, 3.3232302751025124e-07, -9.194008153226084e-34, 0.0, 0.0, 0.0, 1.461861188834764e-26, -7.747493379290777e-34, 3.3232302751025124e-07, 0.0, 0.0, 0.0, 0.0, 0.0, 0.0, 9.969790129491004e-10]
---
header: 
  seq: 9507
  stamp: 
    secs: 1518208848
    nsecs: 834497452
  frame_id: "swarmone/odom"
child_frame_id: "swarmone/base_link"
pose: 
  pose: 
    position: 
      x: 0.126298921189
      y: 13.8070984434
      z: 0.0
    orientation: 
      x: 0.0
      y: 0.0
      z: 0.67797199393
      w: 0.735087733163
  covariance: [384393676930.0306, -20982327848.735962, 0.0, 0.0, 0.0, 1.241051274309676e-16, -20982327848.73598, 1146748804.5434046, 0.0, 0.0, 0.0, -1.0049088177310142e-17, 0.0, 0.0, 5.716744611830371e-07, 2.6244393153496687e-22, 6.490759405702862e-15, 0.0, 0.0, 0.0, 2.624439315349669e-22, 4.54736482659759e-07, -4.0090665323694655e-30, 0.0, 0.0, 0.0, 6.490759405702863e-15, -3.944895602759641e-30, 4.54736482659759e-07, 0.0, 1.241051274309676e-16, -1.0049088177310142e-17, 0.0, 0.0, 0.0, 1.0023580320600664e-06]
twist: 
  twist: 
    linear: 
      x: -1.99986990943e-09
      y: 0.0
      z: 0.0
    angular: 
      x: 0.0
      y: 0.0
      z: 8.93425697717e-05
  covariance: [9.99999599744455e-10, 0.0, 0.0, 0.0, 0.0, 0.0, 0.0, 2863809.7678072737, 0.0, 0.0, 0.0, 0.0, 0.0, 0.0, 5.002192938971908e-07, 6.669210733075671e-26, 5.400230435680832e-27, 0.0, 0.0, 0.0, 6.66921073307567e-26, 3.3338453468538457e-07, -2.0906501950436095e-34, 0.0, 0.0, 0.0, 5.400230435680831e-27, -6.462242113782277e-35, 3.3338453468538457e-07, 0.0, 0.0, 0.0, 0.0, 0.0, 0.0, 9.970219128567032e-10]
---
header: 
  seq: 9508
  stamp: 
    secs: 1518208848
    nsecs: 934716463
  frame_id: "swarmone/odom"
child_frame_id: "swarmone/base_link"
pose: 
  pose: 
    position: 
      x: 0.126282713232
      y: 13.8068982762
      z: 0.0
    orientation: 
      x: 0.0
      y: 0.0
      z: 0.677972041067
      w: 0.735087689688
  covariance: [384596667646.17236, -20996067848.21112, 0.0, 0.0, 0.0, 9.623866829514591e-17, -20996067848.211136, 1147643013.0088897, 0.0, 0.0, 0.0, -7.79267853896201e-18, 0.0, 0.0, 5.609128921901884e-07, 2.5986180459568373e-22, 5.113462388682006e-15, 0.0, 0.0, 0.0, 2.5986180459568373e-22, 4.460955677181244e-07, -3.5237670847714454e-30, 0.0, 0.0, 0.0, 5.113462388682008e-15, -2.5288069238299506e-30, 4.4609556771812434e-07, 0.0, 9.623866829514593e-17, -7.792678538962012e-18, 0.0, 0.0, 0.0, 9.451375730761335e-07]
twist: 
  twist: 
    linear: 
      x: -1.60012864851e-09
      y: 0.0
      z: 0.0
    angular: 
      x: 0.0
      y: 0.0
      z: 0.000126297437154
  covariance: [9.999996008747178e-10, 0.0, 0.0, 0.0, 0.0, 0.0, 0.0, 2864715.5803087843, 0.0, 0.0, 0.0, 0.0, 0.0, 0.0, 4.905057443546262e-07, 4.792607737224547e-26, 3.8806966004064545e-27, 0.0, 0.0, 0.0, 4.792607737224549e-26, 3.291196607403412e-07, -1.1394424026741138e-34, 0.0, 0.0, 0.0, 3.8806966004064545e-27, -1.6620099182994995e-35, 3.291196607403412e-07, 0.0, 0.0, 0.0, 0.0, 0.0, 0.0, 9.96842562499145e-10]
---
header: 
  seq: 9509
  stamp: 
    secs: 1518208849
    nsecs:  35156488
  frame_id: "swarmone/odom"
child_frame_id: "swarmone/base_link"
pose: 
  pose: 
    position: 
      x: 0.12626235932
      y: 13.8066469113
      z: 0.0
    orientation: 
      x: 0.0
      y: 0.0
      z: 0.674288172083
      w: 0.738468320911
  covariance: [384800191979.8588, -21009844887.797462, 0.0, 0.0, 0.0, 1.2768120898478087e-16, -21009844887.797478, 1148539712.391449, 0.0, 0.0, 0.0, -1.1227884731672713e-17, 0.0, 0.0, 5.819211652418027e-07, 4.244727522145895e-22, 6.631096285650258e-15, 0.0, 0.0, 0.0, 4.244727522145895e-22, 4.631120895368694e-07, -6.500907153054353e-30, 0.0, 0.0, 0.0, 6.631096285650259e-15, -6.96379503545346e-30, 4.6311208953686926e-07, 0.0, 1.2768120898478085e-16, -1.1227884731672713e-17, 0.0, 0.0, 0.0, 1.0595784910453082e-06]
twist: 
  twist: 
    linear: 
      x: -2.0011972305e-09
      y: 0.0
      z: 0.0
    angular: 
      x: 0.0
      y: 0.0
      z: 0.000112720613464
  covariance: [9.999996017529607e-10, 0.0, 0.0, 0.0, 0.0, 0.0, 0.0, 2865623.582024036, 0.0, 0.0, 0.0, 0.0, 0.0, 0.0, 5.095694458301807e-07, 7.417397060392232e-26, 6.753339017818321e-27, 0.0, 0.0, 0.0, 7.417397060392233e-26, 3.375959085277281e-07, -1.7592418048403186e-34, 0.0, 0.0, 0.0, 6.753339017818321e-27, -3.038343006963424e-34, 3.375959085277281e-07, 0.0, 0.0, 0.0, 0.0, 0.0, 0.0, 9.971819832647599e-10]
---
header: 
  seq: 9510
  stamp: 
    secs: 1518208849
    nsecs: 135034800
  frame_id: "swarmone/odom"
child_frame_id: "swarmone/base_link"
pose: 
  pose: 
    position: 
      x: 0.126199069662
      y: 13.8059517579
      z: 0.0
    orientation: 
      x: 0.0
      y: 0.0
      z: 0.677972043959
      w: 0.735087687021
  covariance: [385002489456.0228, -21024558397.100616, 0.0, 0.0, 0.0, 3.4551442849359867e-16, -21024558397.100636, 1149542017.5991807, 0.0, 0.0, 0.0, -2.921538841608835e-17, 0.0, 0.0, 5.636536550474922e-07, 9.24602218890446e-22, 1.7919694868423333e-14, 0.0, 0.0, 0.0, 9.246022188904457e-22, 4.482813484312294e-07, -3.7425058805394484e-29, 0.0, 0.0, 0.0, 1.791969486842333e-14, -3.8517385188098997e-29, 4.482813484312286e-07, 0.0, 3.4551442849359867e-16, -2.9215388416088344e-17, 0.0, 0.0, 0.0, 9.594426878216686e-07]
twist: 
  twist: 
    linear: 
      x: -5.59931366724e-09
      y: 0.0
      z: 0.0
    angular: 
      x: 0.0
      y: 0.0
      z: 0.000124424127808
  covariance: [9.999995995132563e-10, 0.0, 0.0, 0.0, 0.0, 0.0, 0.0, 2866526.69595053, 0.0, 0.0, 0.0, 0.0, 0.0, 0.0, 4.929693392518772e-07, 1.7197108399664711e-25, 1.3925211997553663e-26, 0.0, 0.0, 0.0, 1.7197108399664716e-25, 3.3019085305025917e-07, -7.773309889317882e-34, 0.0, 0.0, 0.0, 1.3925211997553663e-26, -6.965228482090246e-34, 3.3019085305025917e-07, 0.0, 0.0, 0.0, 0.0, 0.0, 0.0, 9.96889395251749e-10]
---
header: 
  seq: 9511
  stamp: 
    secs: 1518208849
    nsecs: 235058308
  frame_id: "swarmone/odom"
child_frame_id: "swarmone/base_link"
pose: 
  pose: 
    position: 
      x: 0.126162747301
      y: 13.8055031785
      z: 0.0
    orientation: 
      x: 0.0
      y: 0.0
      z: 0.677972111864
      w: 0.735087624392
  covariance: [385205340647.9525, -21038291473.524704, 0.0, 0.0, 0.0, 2.1930689933226265e-16, -21038291473.524723, 1150436020.4420938, 0.0, 0.0, 0.0, -1.7757804435540648e-17, 0.0, 0.0, 5.690338284372226e-07, 7.732267566668055e-22, 1.1642964636114927e-14, 0.0, 0.0, 0.0, 7.732267566668056e-22, 4.5260168710336374e-07, -2.123942312215604e-29, 0.0, 0.0, 0.0, 1.164296463611493e-14, -2.0539570320328533e-29, 4.526016871033633e-07, 0.0, 2.1930689933226265e-16, -1.7757804435540648e-17, 0.0, 0.0, 0.0, 9.880529173141102e-07]
twist: 
  twist: 
    linear: 
      x: -3.59973892881e-09
      y: 0.0
      z: 0.0
    angular: 
      x: 0.0
      y: 0.0
      z: 0.000151049277212
  covariance: [9.999996000945872e-10, 0.0, 0.0, 0.0, 0.0, 0.0, 0.0, 2867431.312909652, 0.0, 0.0, 0.0, 0.0, 0.0, 0.0, 4.978257970300507e-07, 1.1698043993809693e-25, 9.472202221059451e-27, 0.0, 0.0, 0.0, 1.1698043993809689e-25, 3.323234161002983e-07, -2.4256469357233853e-34, 0.0, 0.0, 0.0, 9.472202221059451e-27, -3.0620677003081004e-34, 3.323234161002983e-07, 0.0, 0.0, 0.0, 0.0, 0.0, 0.0, 9.969790129491362e-10]
---
header: 
  seq: 9512
  stamp: 
    secs: 1518208849
    nsecs: 334955454
  frame_id: "swarmone/odom"
child_frame_id: "swarmone/base_link"
pose: 
  pose: 
    position: 
      x: 0.126134564285
      y: 13.8051551259
      z: 0.0
    orientation: 
      x: 0.0
      y: 0.0
      z: 0.674288150959
      w: 0.738468340199
  covariance: [385408020838.3158, -21052013866.923702, 0.0, 0.0, 0.0, 1.7027702033428538e-16, -21052013866.923717, 1151329406.6124313, 0.0, 0.0, 0.0, -1.4925151188856486e-17, 0.0, 0.0, 5.6636042719997e-07, 5.297875349786637e-22, 9.005114948043847e-15, 0.0, 0.0, 0.0, 5.297875349786636e-22, 4.5044998617854895e-07, -1.1289853299728465e-29, 0.0, 0.0, 0.0, 9.005114948043846e-15, -1.0713642193927454e-29, 4.5044998617854874e-07, 0.0, 1.7027702033428535e-16, -1.4925151188856483e-17, 0.0, 0.0, 0.0, 9.737478025677993e-07]
twist: 
  twist: 
    linear: 
      x: -2.8003916781e-09
      y: 0.0
      z: 0.0
    angular: 
      x: 0.0
      y: 0.0
      z: 0.000122605578275
  covariance: [9.999995995887466e-10, 0.0, 0.0, 0.0, 0.0, 0.0, 0.0, 2868334.976985793, 0.0, 0.0, 0.0, 0.0, 0.0, 0.0, 4.954092493625851e-07, 8.836557156125671e-26, 8.045310282538775e-27, 0.0, 0.0, 0.0, 8.836557156125668e-26, 3.312588079337063e-07, -2.254961441008435e-34, 0.0, 0.0, 0.0, 8.045310282538775e-27, -2.255594862118718e-34, 3.312588079337063e-07, 0.0, 0.0, 0.0, 0.0, 0.0, 0.0, 9.969348590145267e-10]
---
header: 
  seq: 9513
  stamp: 
    secs: 1518208849
    nsecs: 434788465
  frame_id: "swarmone/odom"
child_frame_id: "swarmone/base_link"
pose: 
  pose: 
    position: 
      x: 0.126086829014
      y: 13.8046683525
      z: 0.0
    orientation: 
      x: 0.0
      y: 0.0
      z: 0.877204881769
      w: 0.480116231136
  covariance: [385610458915.52814, -21066694253.09844, 0.0, 0.0, 0.0, 6.815905839543397e-16, -21066694253.09845, 1152327872.3732197, 0.0, 0.0, 0.0, 3.7719984825032566e-16, 0.0, 0.0, 8.257624236253907e-07, -1.1593020589931018e-19, 1.1716971432771337e-14, 0.0, 0.0, 0.0, -1.1593020589931023e-19, 7.172180977575492e-07, 7.759303573299055e-27, 0.0, 0.0, 0.0, 1.171697143277134e-14, 7.832637289669011e-27, 7.172180977575484e-07, 0.0, 6.815905839543397e-16, 3.7719984825032566e-16, 0.0, 0.0, 0.0, 4.406975341635223e-06]
twist: 
  twist: 
    linear: 
      x: 0.0769999653272
      y: 0.0
      z: 0.0
    angular: 
      x: 0.0
      y: 0.0
      z: -0.00982320852586
  covariance: [9.999995993315108e-10, 0.0, 0.0, 0.0, 0.0, 0.0, 0.0, 2869238.2505600825, 0.0, 0.0, 0.0, 0.0, 0.0, 0.0, 7.658420931223426e-07, 6.691267699428855e-25, -4.283695292771551e-25, 0.0, 0.0, 0.0, 6.691267699428857e-25, 5.163360526106417e-07, 5.067280657381917e-32, 0.0, 0.0, 0.0, -4.283695292771551e-25, 4.8361853551701376e-32, 5.163360526106417e-07, 0.0, 0.0, 0.0, 0.0, 0.0, 0.0, 9.993200324642339e-10]
---
header: 
  seq: 9514
  stamp: 
    secs: 1518208849
    nsecs: 534882069
  frame_id: "swarmone/odom"
child_frame_id: "swarmone/base_link"
pose: 
  pose: 
    position: 
      x: 0.108830673521
      y: 13.8316880518
      z: 0.0
    orientation: 
      x: 0.0
      y: 0.0
      z: 0.605187624636
      w: 0.796082871935
  covariance: [385782228952.273, -21016452234.64739, 0.0, 0.0, 0.0, -4.637000001974091e-14, -21016452234.6474, 1146357120.7886648, 0.0, 0.0, 0.0, -5.312376840521263e-15, 0.0, 0.0, 7.655808642197199e-07, -6.095114781840605e-19, -7.689743342532343e-13, 0.0, 0.0, 0.0, -6.095114781840604e-19, 6.428026028410436e-07, -2.0728881950492e-24, 0.0, 0.0, 0.0, -7.689743342532342e-13, -2.0728805113045984e-24, 6.428026028385209e-07, 0.0, -4.637000001974091e-14, -5.312376840521263e-15, 0.0, 0.0, 0.0, 2.9335485227851347e-06]
twist: 
  twist: 
    linear: 
      x: 0.220500137155
      y: 0.0
      z: 0.0
    angular: 
      x: 0.0
      y: 0.0
      z: -0.139795817598
  covariance: [9.999996003755565e-10, 0.0, 0.0, 0.0, 0.0, 0.0, 0.0, 2870144.072284114, 0.0, 0.0, 0.0, 0.0, 0.0, 0.0, 6.958950014125551e-07, -3.280774660734612e-23, -9.114904626542753e-24, 0.0, 0.0, 0.0, -3.280774660734612e-23, 4.5114669137000546e-07, -5.176850506548764e-29, 0.0, 0.0, 0.0, -9.114904626542753e-24, -5.176882009221125e-29, 4.5114669137000546e-07, 0.0, 0.0, 0.0, 0.0, 0.0, 0.0, 9.989790878121967e-10]
---
header: 
  seq: 9515
  stamp: 
    secs: 1518208849
    nsecs: 634398460
  frame_id: "swarmone/odom"
child_frame_id: "swarmone/base_link"
pose: 
  pose: 
    position: 
      x: 0.113070915219
      y: 13.8469661094
      z: 0.0
    orientation: 
      x: 0.0
      y: 0.0
      z: 0.640385079392
      w: 0.768054002067
  covariance: [385977653327.9309, -21048883826.067238, 0.0, 0.0, 0.0, -9.273831099097594e-15, -21048883826.067245, 1149303634.4630933, 0.0, 0.0, 0.0, 2.4064745177226144e-15, 0.0, 0.0, 5.89290091930847e-07, 7.311603613133204e-20, -1.309187115011007e-13, 0.0, 0.0, 0.0, 7.31160361313321e-20, 4.692263931184842e-07, 2.4746910458559513e-25, 0.0, 0.0, 0.0, -1.3091871150110068e-13, 2.474682815495972e-25, 4.6922639311844244e-07, 0.0, -9.273831099097594e-15, 2.4064745177226144e-15, 0.0, 0.0, 0.0, 1.1024938352821297e-06]
twist: 
  twist: 
    linear: 
      x: 0.172999969909
      y: 0.0
      z: 0.0
    angular: 
      x: 0.0
      y: 0.0
      z: -0.0998645591876
  covariance: [9.999995980572724e-10, 0.0, 0.0, 0.0, 0.0, 0.0, 0.0, 2871044.8593721665, 0.0, 0.0, 0.0, 0.0, 0.0, 0.0, 5.163555603248494e-07, -1.5478723009789545e-24, -2.8392464439480456e-25, 0.0, 0.0, 0.0, -1.547872300978954e-24, 3.407190623256592e-07, -1.4613990452488432e-31, 0.0, 0.0, 0.0, -2.839246443948045e-25, -1.4594767223508222e-31, 3.407190623256592e-07, 0.0, 0.0, 0.0, 0.0, 0.0, 0.0, 9.972911813067864e-10]
---
header: 
  seq: 9516
  stamp: 
    secs: 1518208849
    nsecs: 735264063
  frame_id: "swarmone/odom"
child_frame_id: "swarmone/base_link"
pose: 
  pose: 
    position: 
      x: 0.11562371506
      y: 13.8609282573
      z: 0.0
    orientation: 
      x: 0.0
      y: 0.0
      z: 0.589145069529
      w: 0.808027281129
  covariance: [386179949600.6813, -21072874266.87613, 0.0, 0.0, 0.0, -4.487729602785015e-15, -21072874266.876137, 1151314163.4682198, 0.0, 0.0, 0.0, 1.0894644658739377e-15, 0.0, 0.0, 5.940601316676365e-07, -1.7893204514378032e-20, -1.455670893794199e-13, 0.0, 0.0, 0.0, -1.7893204514378032e-20, 4.732265074812425e-07, 3.781585304372462e-26, 0.0, 0.0, 0.0, -1.455670893794199e-13, 3.781552930276312e-26, 4.732265074811903e-07, 0.0, -4.487729602785015e-15, 1.089464465873938e-15, 0.0, 0.0, 0.0, 1.1311040647765232e-06]
twist: 
  twist: 
    linear: 
      x: 0.119799995486
      y: 0.0
      z: 0.0
    angular: 
      x: 0.0
      y: 0.0
      z: 0.00010562394399
  covariance: [9.999996034333063e-10, 0.0, 0.0, 0.0, 0.0, 0.0, 0.0, 2871958.0513412035, 0.0, 0.0, 0.0, 0.0, 0.0, 0.0, 5.207763816713994e-07, -1.7226851580124416e-24, -5.530417878118967e-25, 0.0, 0.0, 0.0, -1.7226851580124405e-24, 3.4278578523157486e-07, -2.626720437001666e-31, 0.0, 0.0, 0.0, -5.530417878118965e-25, -2.631997365139467e-31, 3.4278578523157486e-07, 0.0, 0.0, 0.0, 0.0, 0.0, 0.0, 9.97359396822436e-10]
---
header: 
  seq: 9517
  stamp: 
    secs: 1518208849
    nsecs: 834791660
  frame_id: "swarmone/odom"
child_frame_id: "swarmone/base_link"
pose: 
  pose: 
    position: 
      x: 0.11716465371
      y: 13.8657340255
      z: 0.0
    orientation: 
      x: 0.0
      y: 0.0
      z: 0.8649247955
      w: 0.501901482494
  covariance: [386373226267.7479, -21109160489.01216, 0.0, 0.0, 0.0, -6.426984287877572e-16, -21109160489.012165, 1154690972.868875, 0.0, 0.0, 0.0, 4.439380208929988e-16, 0.0, 0.0, 5.716744472466399e-07, -1.383589921300373e-20, 2.3849241350887626e-14, 0.0, 0.0, 0.0, -1.3835899213003734e-20, 4.547365396451064e-07, 7.622391496141975e-28, 0.0, 0.0, 0.0, 2.3849241350887626e-14, 7.785306845351193e-28, 4.54736539645105e-07, 0.0, -6.42698428787757e-16, 4.439380208929988e-16, 0.0, 0.0, 0.0, 1.002358032059386e-06]
twist: 
  twist: 
    linear: 
      x: 0.144299934643
      y: 0.0
      z: 0.0
    angular: 
      x: 0.0
      y: 0.0
      z: 0.010178685124
  covariance: [9.999995981020466e-10, 0.0, 0.0, 0.0, 0.0, 0.0, 0.0, 2872859.3193952395, 0.0, 0.0, 0.0, 0.0, 0.0, 0.0, 5.002192654502185e-07, 2.115127739330337e-25, -1.2242779579411293e-25, 0.0, 0.0, 0.0, 2.115127739330337e-25, 3.333843326685893e-07, 8.59811200296984e-33, 0.0, 0.0, 0.0, -1.2242779579411286e-25, 7.187557440629278e-33, 3.333843326685893e-07, 0.0, 0.0, 0.0, 0.0, 0.0, 0.0, 9.970219128566852e-10]
---
header: 
  seq: 9518
  stamp: 
    secs: 1518208849
    nsecs: 934396505
  frame_id: "swarmone/odom"
child_frame_id: "swarmone/base_link"
pose: 
  pose: 
    position: 
      x: 0.0980337441026
      y: 13.8992234403
      z: 0.0
    orientation: 
      x: 0.0
      y: 0.0
      z: 0.655617525702
      w: 0.755093146567
  covariance: [386549689407.0068, -21063546469.538574, 0.0, 0.0, 0.0, -1.7071168560017905e-14, -21063546469.53858, 1149208637.3393753, 0.0, 0.0, 0.0, -1.5863190815106405e-15, 0.0, 0.0, 5.892900946218886e-07, -9.691705241922536e-21, -8.406014080449383e-13, 0.0, 0.0, 0.0, -9.691705241922539e-21, 4.692266055282242e-07, 7.098324397740141e-26, 0.0, 0.0, 0.0, -8.406014080449381e-13, 7.098352650450432e-26, 4.6922660552650366e-07, 0.0, -1.7071168560017905e-14, -1.5863190815106415e-15, 0.0, 0.0, 0.0, 1.1024938352822244e-06]
twist: 
  twist: 
    linear: 
      x: 0.275800142317
      y: 0.0
      z: 0.0
    angular: 
      x: 0.0
      y: 0.0
      z: -0.0997020299435
  covariance: [9.999995984137006e-10, 0.0, 0.0, 0.0, 0.0, 0.0, 0.0, 2873761.475717551, 0.0, 0.0, 0.0, 0.0, 0.0, 0.0, 5.163555657993889e-07, -9.936257406357817e-24, -1.4076706014396322e-24, 0.0, 0.0, 0.0, -9.936257406357815e-24, 3.407190996434814e-07, -3.8416905015300635e-30, 0.0, 0.0, 0.0, -1.4076706014396322e-24, -3.841881493963491e-30, 3.407190996434814e-07, 0.0, 0.0, 0.0, 0.0, 0.0, 0.0, 9.972911813067897e-10]
---
header: 
  seq: 9519
  stamp: 
    secs: 1518208850
    nsecs:  34665346
  frame_id: "swarmone/odom"
child_frame_id: "swarmone/base_link"
pose: 
  pose: 
    position: 
      x: 0.101687799142
      y: 13.9250134068
      z: 0.0
    orientation: 
      x: 0.0
      y: 0.0
      z: 0.699716411908
      w: 0.714420704422
  covariance: [386752344550.30646, -21083409277.0205, 0.0, 0.0, 0.0, -8.675718008355478e-15, -21083409277.020508, 1150768417.1882367, 0.0, 0.0, 0.0, 7.51860138933603e-16, 0.0, 0.0, 5.663604401350997e-07, 1.8728197706710798e-20, -3.138810879878444e-13, 0.0, 0.0, 0.0, 1.8728197706710813e-20, 4.504500934759625e-07, 1.4138036234233276e-25, 0.0, 0.0, 0.0, -3.138810879878444e-13, 1.4138036874589467e-25, 4.504500934757352e-07, 0.0, -8.675718008355478e-15, 7.518601389336031e-16, 0.0, 0.0, 0.0, 9.737478025684208e-07]
twist: 
  twist: 
    linear: 
      x: 0.32099996918
      y: 0.0
      z: 0.0
    angular: 
      x: 0.0
      y: 0.0
      z: -0.119448274867
  covariance: [9.999996010730935e-10, 0.0, 0.0, 0.0, 0.0, 0.0, 0.0, 2874669.8368254583, 0.0, 0.0, 0.0, 0.0, 0.0, 0.0, 4.954092756377688e-07, -3.096918564876769e-24, -6.497910646601615e-26, 0.0, 0.0, 0.0, -3.09691856487677e-24, 3.312589925542338e-07, -7.041049618845525e-32, 0.0, 0.0, 0.0, -6.497910646601616e-26, -7.042257391015041e-32, 3.312589925542338e-07, 0.0, 0.0, 0.0, 0.0, 0.0, 0.0, 9.96934859014544e-10]
---
header: 
  seq: 9520
  stamp: 
    secs: 1518208850
    nsecs: 135286331
  frame_id: "swarmone/odom"
child_frame_id: "swarmone/base_link"
pose: 
  pose: 
    position: 
      x: 0.102411695958
      y: 13.9597836192
      z: 0.0
    orientation: 
      x: 0.0
      y: 0.0
      z: 0.670587036671
      w: 0.741830860944
  covariance: [386957785728.7254, -21091126721.112114, 0.0, 0.0, 0.0, -1.1668104521347664e-14, -21091126721.11212, 1151000659.677373, 0.0, 0.0, 0.0, 7.29594937204063e-16, 0.0, 0.0, 5.690338488600311e-07, 2.1487664755780955e-20, -4.789907340327446e-13, 0.0, 0.0, 0.0, 2.148766475578095e-20, 4.5260152379753105e-07, 6.054081556891576e-26, 0.0, 0.0, 0.0, -4.789907340327447e-13, 6.054044223881942e-26, 4.5260152379699853e-07, 0.0, -1.1668104521347666e-14, 7.29594937204063e-16, 0.0, 0.0, 0.0, 9.880529173151e-07]
twist: 
  twist: 
    linear: 
      x: 0.267100041021
      y: 0.0
      z: 0.0
    angular: 
      x: 0.0
      y: 0.0
      z: -0.0798187409263
  covariance: [9.999996024691872e-10, 0.0, 0.0, 0.0, 0.0, 0.0, 0.0, 2875581.580502646, 0.0, 0.0, 0.0, 0.0, 0.0, 0.0, 4.978258386158154e-07, -4.808585259650291e-24, -4.859848650513458e-25, 0.0, 0.0, 0.0, -4.808585259650291e-24, 3.323237099094608e-07, -7.170107496856092e-31, 0.0, 0.0, 0.0, -4.859848650513459e-25, -7.168499579967026e-31, 3.323237099094608e-07, 0.0, 0.0, 0.0, 0.0, 0.0, 0.0, 9.969790129491631e-10]
---
header: 
  seq: 9521
  stamp: 
    secs: 1518208850
    nsecs: 234935045
  frame_id: "swarmone/odom"
child_frame_id: "swarmone/base_link"
pose: 
  pose: 
    position: 
      x: 0.105098146629
      y: 13.9863643424
      z: 0.0
    orientation: 
      x: 0.0
      y: 0.0
      z: 0.747970767701
      w: 0.663731670681
  covariance: [387160338325.42316, -21106867405.15119, 0.0, 0.0, 0.0, -8.851440572977892e-15, -21106867405.1512, 1152113069.887803, 0.0, 0.0, 0.0, -8.996325383370602e-17, 0.0, 0.0, 5.71674451382517e-07, -2.759190244479405e-20, -3.4964651967975504e-13, 0.0, 0.0, 0.0, -2.759190244479405e-20, 4.547361549209474e-07, 4.9196479935889097e-26, 0.0, 0.0, 0.0, -3.496465196797551e-13, 4.9200057574286884e-26, 4.5473615492066195e-07, 0.0, -8.85144057297789e-15, -8.996325383370611e-17, 0.0, 0.0, 0.0, 1.0023580320595857e-06]
twist: 
  twist: 
    linear: 
      x: 0.24490000973
      y: 0.0
      z: 0.0
    angular: 
      x: 0.0
      y: 0.0
      z: -0.0300893426439
  covariance: [9.999995985904898e-10, 0.0, 0.0, 0.0, 0.0, 0.0, 0.0, 2876484.7042460586, 0.0, 0.0, 0.0, 0.0, 0.0, 0.0, 5.00219273882249e-07, -3.582813969896979e-24, 4.282900403786185e-25, 0.0, 0.0, 0.0, -3.582813969896979e-24, 3.3338439238447374e-07, 4.581690957856235e-31, 0.0, 0.0, 0.0, 4.282900403786185e-25, 4.581368753928643e-31, 3.3338439238447374e-07, 0.0, 0.0, 0.0, 0.0, 0.0, 0.0, 9.970219128566903e-10]
---
header: 
  seq: 9522
  stamp: 
    secs: 1518208850
    nsecs: 334397316
  frame_id: "swarmone/odom"
child_frame_id: "swarmone/base_link"
pose: 
  pose: 
    position: 
      x: 0.101361694523
      y: 14.0175713348
      z: 0.0
    orientation: 
      x: 0.0
      y: 0.0
      z: 0.710353793132
      w: 0.703844790123
  covariance: [387362186046.4326, -21100262245.894547, 0.0, 0.0, 0.0, -1.234698769500694e-14, -21100262245.894558, 1150800500.0198119, 0.0, 0.0, 0.0, -6.93095970629871e-16, 0.0, 0.0, 5.892900901221064e-07, 6.310374389995793e-23, -5.163539348527367e-13, 0.0, 0.0, 0.0, 6.310374389995868e-23, 4.6922683215941364e-07, -4.259557079573784e-26, 0.0, 0.0, 0.0, -5.163539348527367e-13, -4.2595599296564387e-26, 4.6922683215876433e-07, 0.0, -1.2346987695006941e-14, -6.930959706298712e-16, 0.0, 0.0, 0.0, 1.1024938352819845e-06]
twist: 
  twist: 
    linear: 
      x: 0.322600025943
      y: 0.0
      z: 0.0
    angular: 
      x: 0.0
      y: 0.0
      z: -0.0596207655329
  covariance: [9.999995978380464e-10, 0.0, 0.0, 0.0, 0.0, 0.0, 0.0, 2877386.326784012, 0.0, 0.0, 0.0, 0.0, 0.0, 0.0, 5.163555564489782e-07, -6.166658817809298e-24, 5.705988792248053e-26, 0.0, 0.0, 0.0, -6.1666588178093005e-24, 3.4071903020832063e-07, 1.0650830393236167e-31, 0.0, 0.0, 0.0, 5.705988792248054e-26, 1.064819788058072e-31, 3.4071903020832063e-07, 0.0, 0.0, 0.0, 0.0, 0.0, 0.0, 9.972911813067845e-10]
---
header: 
  seq: 9523
  stamp: 
    secs: 1518208850
    nsecs: 435299397
  frame_id: "swarmone/odom"
child_frame_id: "swarmone/base_link"
pose: 
  pose: 
    position: 
      x: 0.101027274662
      y: 14.0542920784
      z: 0.0
    orientation: 
      x: 0.0
      y: 0.0
      z: 0.597195459242
      w: 0.802095744572
  covariance: [387568495700.70776, -21104915668.11247, 0.0, 0.0, 0.0, -1.288843877435594e-14, -21104915668.112476, 1150697956.8458343, 0.0, 0.0, 0.0, 1.7946303138807445e-15, 0.0, 0.0, 5.63653690872699e-07, -1.3922212277659539e-21, -5.194818907465203e-13, 0.0, 0.0, 0.0, -1.3922212277659537e-21, 4.4828133370797174e-07, -1.1616521209952789e-26, 0.0, 0.0, 0.0, -5.194818907465203e-13, -1.1616521793176302e-26, 4.4828133370735314e-07, 0.0, -1.2888438774355938e-14, 1.7946303138807445e-15, 0.0, 0.0, 0.0, 9.594426878233628e-07]
twist: 
  twist: 
    linear: 
      x: 0.348200022624
      y: 0.0
      z: 0.0
    angular: 
      x: 0.0
      y: 0.0
      z: -0.0797511517121
  covariance: [9.999996035766727e-10, 0.0, 0.0, 0.0, 0.0, 0.0, 0.0, 2878301.1936531095, 0.0, 0.0, 0.0, 0.0, 0.0, 0.0, 4.929694117996814e-07, -4.79722323182114e-24, -1.433948789386356e-24, 0.0, 0.0, 0.0, -4.79722323182114e-24, 3.301913590835289e-07, -2.1613641330295944e-30, 0.0, 0.0, 0.0, -1.4339487893863554e-24, -2.162138156363349e-30, 3.301913590835289e-07, 0.0, 0.0, 0.0, 0.0, 0.0, 0.0, 9.96889395251798e-10]
---
header: 
  seq: 9524
  stamp: 
    secs: 1518208850
    nsecs: 534792185
  frame_id: "swarmone/odom"
child_frame_id: "swarmone/base_link"
pose: 
  pose: 
    position: 
      x: 0.109242230758
      y: 14.081745694
      z: 0.0
    orientation: 
      x: 0.0
      y: 0.0
      z: 0.651833939682
      w: 0.758361731022
  covariance: [387763474804.6995, -21139383058.10266, 0.0, 0.0, 0.0, -7.956179518114187e-15, -21139383058.10267, 1153865908.2621043, 0.0, 0.0, 0.0, 1.858890607198671e-15, 0.0, 0.0, 5.609128661821324e-07, 2.3694077281767415e-20, -2.906539932195658e-13, 0.0, 0.0, 0.0, 2.3694077281767436e-20, 4.460954520641492e-07, 2.543450881962845e-25, 0.0, 0.0, 0.0, -2.9065399321956575e-13, 2.5434467868230874e-25, 4.460954520639568e-07, 0.0, -7.956179518114185e-15, 1.858890607198671e-15, 0.0, 0.0, 0.0, 9.451375730749185e-07]
twist: 
  twist: 
    linear: 
      x: 0.28619997654
      y: 0.0
      z: 0.0
    angular: 
      x: 0.0
      y: 0.0
      z: -0.0198421282991
  covariance: [9.999995979613906e-10, 0.0, 0.0, 0.0, 0.0, 0.0, 0.0, 2879203.4724994637, 0.0, 0.0, 0.0, 0.0, 0.0, 0.0, 4.905056918291709e-07, -2.7070481873114693e-24, -4.1208000293303433e-25, 0.0, 0.0, 0.0, -2.70704818731147e-24, 3.291192967201403e-07, -3.7376248199274575e-31, 0.0, 0.0, 0.0, -4.120800029330344e-25, -3.734085678669461e-31, 3.291192967201403e-07, 0.0, 0.0, 0.0, 0.0, 0.0, 0.0, 9.968425624991085e-10]
---
header: 
  seq: 9525
  stamp: 
    secs: 1518208850
    nsecs: 635378361
  frame_id: "swarmone/odom"
child_frame_id: "swarmone/base_link"
pose: 
  pose: 
    position: 
      x: 0.113461843579
      y: 14.1095048253
      z: 0.0
    orientation: 
      x: 0.0
      y: 0.0
      z: 0.613114995706
      w: 0.789993672152
  covariance: [387966981629.3528, -21160378572.308582, 0.0, 0.0, 0.0, -1.6789970021374842e-14, -21160378572.30859, 1155546776.232219, 0.0, 0.0, 0.0, 3.848307032400176e-15, 0.0, 0.0, 7.599458997146761e-07, 4.399157150896529e-19, -3.7378755946321527e-13, 0.0, 0.0, 0.0, 4.399157150896529e-19, 6.362974843682588e-07, 6.97587250251079e-25, 0.0, 0.0, 0.0, -3.7378755946321537e-13, 6.975800650834605e-25, 6.362974843676767e-07, 0.0, -1.6789970021374842e-14, 3.848307032400176e-15, 0.0, 0.0, 0.0, 2.833412719563041e-06]
twist: 
  twist: 
    linear: 
      x: 0.250500008583
      y: 0.0
      z: 0.0
    angular: 
      x: 0.0
      y: 0.0
      z: -0.000105692832646
  covariance: [9.99999602331609e-10, 0.0, 0.0, 0.0, 0.0, 0.0, 0.0, 2880115.8587067337, 0.0, 0.0, 0.0, 0.0, 0.0, 0.0, 6.895933877412958e-07, -1.5406099584679035e-23, -3.947400802449801e-24, 0.0, 0.0, 0.0, -1.5406099584679035e-23, 4.460728907981352e-07, -1.062601342247261e-29, 0.0, 0.0, 0.0, -3.947400802449802e-24, -1.0625243091800579e-29, 4.460728907981352e-07, 0.0, 0.0, 0.0, 0.0, 0.0, 0.0, 9.989430712522082e-10]
---
header: 
  seq: 9526
  stamp: 
    secs: 1518208850
    nsecs: 735015869
  frame_id: "swarmone/odom"
child_frame_id: "swarmone/base_link"
pose: 
  pose: 
    position: 
      x: 0.118804630523
      y: 14.1303703417
      z: 0.0
    orientation: 
      x: 0.0
      y: 0.0
      z: 0.681638748101
      w: 0.73168887998
  covariance: [388164588738.1035, -21191061494.437473, 0.0, 0.0, 0.0, -1.2865922231804062e-14, -21191061494.43748, 1158299525.0140254, 0.0, 0.0, 0.0, 2.7434116482913737e-15, 0.0, 0.0, 5.690338152303707e-07, 5.250813665140416e-23, -2.3519303527595667e-13, 0.0, 0.0, 0.0, 5.2508136651404214e-23, 4.5260148107247276e-07, 3.3428676941560887e-28, 0.0, 0.0, 0.0, -2.351930352759566e-13, 3.3428648951490114e-28, 4.5260148107234444e-07, 0.0, -1.2865922231804062e-14, 2.7434116482913745e-15, 0.0, 0.0, 0.0, 9.88052917313517e-07]
twist: 
  twist: 
    linear: 
      x: 0.317599945488
      y: 0.0
      z: 0.0
    angular: 
      x: 0.0
      y: 0.0
      z: -0.0498489506476
  covariance: [9.99999598545837e-10, 0.0, 0.0, 0.0, 0.0, 0.0, 0.0, 2881019.8298550146, 0.0, 0.0, 0.0, 0.0, 0.0, 0.0, 4.978257702505327e-07, -2.378972517751315e-24, -1.7111592243426959e-25, 0.0, 0.0, 0.0, -2.3789725177513157e-24, 3.3232323022160967e-07, -1.6278948599299977e-31, 0.0, 0.0, 0.0, -1.7111592243426959e-25, -1.628729124820306e-31, 3.3232323022160967e-07, 0.0, 0.0, 0.0, 0.0, 0.0, 0.0, 9.969790129491184e-10]
---
header: 
  seq: 9527
  stamp: 
    secs: 1518208850
    nsecs: 834986210
  frame_id: "swarmone/odom"
child_frame_id: "swarmone/base_link"
pose: 
  pose: 
    position: 
      x: 0.121162049999
      y: 14.1635857177
      z: 0.0
    orientation: 
      x: 0.0
      y: 0.0
      z: 0.644217850948
      w: 0.764842049393
  covariance: [388368829445.7708, -21203864044.545082, 0.0, 0.0, 0.0, -1.980217446736897e-14, -21203864044.54509, 1159088056.2486713, 0.0, 0.0, 0.0, 2.859818585619912e-15, 0.0, 0.0, 7.393600168284815e-07, -3.1352343477791065e-20, -4.887451698394751e-13, 0.0, 0.0, 0.0, -3.1352343477791065e-20, 6.131519208579796e-07, -3.425690864187046e-26, 0.0, 0.0, 0.0, -4.887451698394752e-13, -3.425721673276929e-26, 6.131519208570631e-07, 0.0, -1.980217446736897e-14, 2.8598185856199116e-15, 0.0, 0.0, 0.0, 2.504395080401387e-06]
twist: 
  twist: 
    linear: 
      x: 0.343100002185
      y: 0.0
      z: 0.0
    angular: 
      x: 0.0
      y: 0.0
      z: -0.0898804493112
  covariance: [9.999995998819127e-10, 0.0, 0.0, 0.0, 0.0, 0.0, 0.0, 2881927.0107377814, 0.0, 0.0, 0.0, 0.0, 0.0, 0.0, 6.669148812152564e-07, -1.771597098810485e-23, -3.056112461067978e-24, 0.0, 0.0, 0.0, -1.7715970988104846e-23, 4.2871987333672906e-07, -9.685219755368111e-30, 0.0, 0.0, 0.0, -3.056112461067978e-24, -9.68398114681174e-30, 4.2871987333672906e-07, 0.0, 0.0, 0.0, 0.0, 0.0, 0.0, 9.988044927540396e-10]
---
header: 
  seq: 9528
  stamp: 
    secs: 1518208850
    nsecs: 935057163
  frame_id: "swarmone/odom"
child_frame_id: "swarmone/base_link"
pose: 
  pose: 
    position: 
      x: 0.126826172556
      y: 14.1964340799
      z: 0.0
    orientation: 
      x: 0.0
      y: 0.0
      z: 0.670587324751
      w: 0.741830600531
  covariance: [388570892898.7897, -21226787546.505, 0.0, 0.0, 0.0, -1.8753763190905936e-14, -21226787546.505005, 1160984849.807862, 0.0, 0.0, 0.0, 2.8737248082117904e-15, 0.0, 0.0, 5.609128870216549e-07, 2.724115981503144e-20, -4.121681492071332e-13, 0.0, 0.0, 0.0, 2.724115981503142e-20, 4.4609551925535407e-07, 4.239815765597324e-25, 0.0, 0.0, 0.0, -4.121681492071331e-13, 4.239823039892049e-25, 4.4609551925496687e-07, 0.0, -1.8753763190905936e-14, 2.8737248082117896e-15, 0.0, 0.0, 0.0, 9.451375730759292e-07]
twist: 
  twist: 
    linear: 
      x: 0.292700012153
      y: 0.0
      z: 0.0
    angular: 
      x: 0.0
      y: 0.0
      z: -0.0298105539391
