header: 
  seq: 7523
  stamp: 
    secs: 1518208650
    nsecs: 434912443
  frame_id: "swarmone/odom"
child_frame_id: "swarmone/base_link"
pose: 
  pose: 
    position: 
      x: 0.34363569405
      y: 10.4941214871
      z: 0.0
    orientation: 
      x: 0.0
      y: 0.0
      z: 0.685288899995
      w: 0.728271325499
  covariance: [119254949561.95271, -8331386799.166048, 0.0, 0.0, 0.0, -2.6769627475533387e-16, -8331386799.166043, 585543874.1088092, 0.0, 0.0, 0.0, 1.7226193447203254e-17, 0.0, 0.0, 5.636536512551588e-07, -5.463214711893201e-22, -1.4066291411201947e-14, 0.0, 0.0, 0.0, -5.463214711893201e-22, 4.4828133648241434e-07, -1.7459199902452375e-29, 0.0, 0.0, 0.0, -1.4066291411201948e-14, -1.7763958588070723e-29, 4.482813364824138e-07, 0.0, -2.6769627475533387e-16, 1.722619344720325e-17, 0.0, 0.0, 0.0, 9.594426878214884e-07]
twist: 
  twist: 
    linear: 
      x: 4.40012810042e-09
      y: 0.0
      z: 0.0
    angular: 
      x: 0.0
      y: 0.0
      z: 0.000124424127703
  covariance: [9.999995990835409e-10, 0.0, 0.0, 0.0, 0.0, 0.0, 0.0, 1418964.8274018737, 0.0, 0.0, 0.0, 0.0, 0.0, 0.0, 4.929693315686498e-07, -1.3517786351967494e-25, -8.22862851282651e-27, 0.0, 0.0, 0.0, -1.3517786351967494e-25, 3.301907993960887e-07, -3.726463967951699e-34, 0.0, 0.0, 0.0, -8.228628512826513e-27, -3.238437632702248e-34, 3.301907993960887e-07, 0.0, 0.0, 0.0, 0.0, 0.0, 0.0, 9.968893952517439e-10]
---
header: 
  seq: 7524
  stamp: 
    secs: 1518208650
    nsecs: 534663439
  frame_id: "swarmone/odom"
child_frame_id: "swarmone/base_link"
pose: 
  pose: 
    position: 
      x: 0.343671956692
      y: 10.4947172193
      z: 0.0
    orientation: 
      x: 0.0
      y: 0.0
      z: 0.685288840013
      w: 0.728271381941
  covariance: [119334274937.9459, -8336620314.241994, 0.0, 0.0, 0.0, -2.834965421553239e-16, -8336620314.241989, 585887089.8460501, 0.0, 0.0, 0.0, 1.7256754431431268e-17, 0.0, 0.0, 5.609128754703519e-07, -4.382289805075376e-22, -1.526809094358902e-14, 0.0, 0.0, 0.0, -4.382289805075375e-22, 4.4609548256561935e-07, -1.4499893446566835e-29, 0.0, 0.0, 0.0, -1.5268090943589018e-14, -1.5976620412009048e-29, 4.4609548256561877e-07, 0.0, -2.834965421553239e-16, 1.7256754431431268e-17, 0.0, 0.0, 0.0, 9.451375730753521e-07]
twist: 
  twist: 
    linear: 
      x: 4.80012198219e-09
      y: 0.0
      z: 0.0
    angular: 
      x: 0.0
      y: 0.0
      z: 9.47230777361e-05
  covariance: [9.99999599002075e-10, 0.0, 0.0, 0.0, 0.0, 0.0, 0.0, 1419529.376215105, 0.0, 0.0, 0.0, 0.0, 0.0, 0.0, 4.90505710587448e-07, -1.4329878064696802e-25, -8.722784497788781e-27, 0.0, 0.0, 0.0, -1.432987806469679e-25, 3.2911942669711193e-07, -3.411149761061317e-34, 0.0, 0.0, 0.0, -8.72278449778878e-27, -4.383274758496183e-34, 3.2911942669711193e-07, 0.0, 0.0, 0.0, 0.0, 0.0, 0.0, 9.968425624991216e-10]
---
header: 
  seq: 7525
  stamp: 
    secs: 1518208650
    nsecs: 634384394
  frame_id: "swarmone/odom"
child_frame_id: "swarmone/base_link"
pose: 
  pose: 
    position: 
      x: 0.343711217971
      y: 10.4953621954
      z: 0.0
    orientation: 
      x: 0.0
      y: 0.0
      z: 0.681638993669
      w: 0.731688651211
  covariance: [119413618565.81062, -8341854971.470166, 0.0, 0.0, 0.0, -3.084310738547999e-16, -8341854971.470162, 586230378.4388261, 0.0, 0.0, 0.0, 2.0849028746185264e-17, 0.0, 0.0, 5.636536494643695e-07, -7.512182419305212e-22, -1.661502283026888e-14, 0.0, 0.0, 0.0, -7.512182419305212e-22, 4.482813306571396e-07, -2.909902120384483e-29, 0.0, 0.0, 0.0, -1.661502283026888e-14, -2.811019263957493e-29, 4.482813306571389e-07, 0.0, -3.084310738547999e-16, 2.084902874618526e-17, 0.0, 0.0, 0.0, 9.594426878214022e-07]
twist: 
  twist: 
    linear: 
      x: 5.19999407075e-09
      y: 0.0
      z: 0.0
    angular: 
      x: 0.0
      y: 0.0
      z: 0.000124424127682
  covariance: [9.999995988812712e-10, 0.0, 0.0, 0.0, 0.0, 0.0, 0.0, 1420093.904664324, 0.0, 0.0, 0.0, 0.0, 0.0, 0.0, 4.929693279364418e-07, -1.5955730559426278e-25, -1.1314842639938666e-26, 0.0, 0.0, 0.0, -1.5955730559426273e-25, 3.301907739499505e-07, -5.015371859641016e-34, 0.0, 0.0, 0.0, -1.1314842639938663e-26, -5.495576033659561e-34, 3.301907739499505e-07, 0.0, 0.0, 0.0, 0.0, 0.0, 0.0, 9.968893952517416e-10]
---
header: 
  seq: 7526
  stamp: 
    secs: 1518208650
    nsecs: 735129118
  frame_id: "swarmone/odom"
child_frame_id: "swarmone/base_link"
pose: 
  pose: 
    position: 
      x: 0.343757867324
      y: 10.4960200383
      z: 0.0
    orientation: 
      x: 0.0
      y: 0.0
      z: 0.68528883941
      w: 0.728271382508
  covariance: [119493766754.83331, -8347544997.06881, 0.0, 0.0, 0.0, -3.101008934440769e-16, -8347544997.068806, 586634334.5328761, 0.0, 0.0, 0.0, 1.9924919374647383e-17, 0.0, 0.0, 5.609129107758773e-07, -4.795058412686849e-22, -1.6704288497772356e-14, 0.0, 0.0, 0.0, -4.79505841268685e-22, 4.4609559490841473e-07, -1.8710188625645633e-29, 0.0, 0.0, 0.0, -1.670428849777236e-14, -1.7773728191090445e-29, 4.460955949084142e-07, 0.0, -3.101008934440769e-16, 1.9924919374647386e-17, 0.0, 0.0, 0.0, 9.451375730770002e-07]
twist: 
  twist: 
    linear: 
      x: 5.19974199288e-09
      y: 0.0
      z: 0.0
    angular: 
      x: 0.0
      y: 0.0
      z: 9.47230782011e-05
  covariance: [9.999996029574488e-10, 0.0, 0.0, 0.0, 0.0, 0.0, 0.0, 1420664.380719176, 0.0, 0.0, 0.0, 0.0, 0.0, 0.0, 4.905057818828774e-07, -1.567782768747791e-25, -9.543484749409493e-27, 0.0, 0.0, 0.0, -1.5677827687477921e-25, 3.291199207089899e-07, -4.860034723042063e-34, 0.0, 0.0, 0.0, -9.543484749409495e-27, -5.027134733074795e-34, 3.291199207089899e-07, 0.0, 0.0, 0.0, 0.0, 0.0, 0.0, 9.968425624991708e-10]
---
header: 
  seq: 7527
  stamp: 
    secs: 1518208650
    nsecs: 834964752
  frame_id: "swarmone/odom"
child_frame_id: "swarmone/base_link"
pose: 
  pose: 
    position: 
      x: 0.343791138543
      y: 10.4965665966
      z: 0.0
    orientation: 
      x: 0.0
      y: 0.0
      z: 0.67797252951
      w: 0.735087239197
  covariance: [119573286455.92467, -8352791473.997036, 0.0, 0.0, 0.0, -6.209323526001629e-16, -8352791473.99703, 586978416.3517783, 0.0, 0.0, 0.0, 4.854413582844298e-17, 0.0, 0.0, 7.655808615331838e-07, -2.3621776865894675e-21, -1.497018972408977e-14, 0.0, 0.0, 0.0, -2.3621776865894675e-21, 6.428025156170357e-07, -1.5171361165379964e-28, 0.0, 0.0, 0.0, -1.4970189724089772e-14, -1.4998701461319398e-28, 6.428025156170348e-07, 0.0, -6.209323526001629e-16, 4.854413582844298e-17, 0.0, 0.0, 0.0, 2.9335485227846083e-06]
twist: 
  twist: 
    linear: 
      x: 4.39714469697e-09
      y: 0.0
      z: 0.0
    angular: 
      x: 0.0
      y: 0.0
      z: 4.08364670988e-05
  covariance: [9.999995993420286e-10, 0.0, 0.0, 0.0, 0.0, 0.0, 0.0, 1421229.8596685964, 0.0, 0.0, 0.0, 0.0, 0.0, 0.0, 6.958949945991352e-07, -6.6051385267806645e-25, -5.348917518676714e-26, 0.0, 0.0, 0.0, -6.605138526780666e-25, 4.511465987424287e-07, -6.535737372426993e-33, 0.0, 0.0, 0.0, -5.348917518676715e-26, -5.9955695688691374e-33, 4.511465987424287e-07, 0.0, 0.0, 0.0, 0.0, 0.0, 0.0, 9.989790878121952e-10]
---
header: 
  seq: 7528
  stamp: 
    secs: 1518208650
    nsecs: 934886694
  frame_id: "swarmone/odom"
child_frame_id: "swarmone/base_link"
pose: 
  pose: 
    position: 
      x: 0.343791178091
      y: 10.496567085
      z: 0.0
    orientation: 
      x: 0.0
      y: 0.0
      z: 0.688921681061
      w: 0.724835786481
  covariance: [119652804455.64989, -8358836405.742681, 0.0, 0.0, 0.0, -1.8871933417835055e-19, -8358836405.742677, 587436004.8078068, 0.0, 0.0, 0.0, 9.611867749042274e-21, 0.0, 0.0, 5.69033825058957e-07, -4.9488981364293205e-25, -1.481169280148961e-17, 0.0, 0.0, 0.0, -4.94889813642932e-25, 4.5260164405981513e-07, -7.942807421732215e-32, 0.0, 0.0, 0.0, -1.4811692801489604e-17, 7.937939659162039e-32, 4.5260164405981513e-07, 0.0, -1.8871933417835055e-19, 9.611867749042274e-21, 0.0, 0.0, 0.0, 9.880529173139959e-07]
twist: 
  twist: 
    linear: 
      x: 5.24244917835e-12
      y: 0.0
      z: 0.0
    angular: 
      x: 0.0
      y: 0.0
      z: 0.00012083942162
  covariance: [9.999995996886266e-10, 0.0, 0.0, 0.0, 0.0, 0.0, 0.0, 1421795.9777026959, 0.0, 0.0, 0.0, 0.0, 0.0, 0.0, 4.978257902706113e-07, -1.4894938667292971e-28, -7.568317726864075e-30, 0.0, 0.0, 0.0, -1.489493866729297e-28, 3.3232337180862726e-07, -7.254618909518617e-35, 0.0, 0.0, 0.0, -7.568317726864072e-30, 7.254556818979695e-35, 3.3232337180862726e-07, 0.0, 0.0, 0.0, 0.0, 0.0, 0.0, 9.969790129491315e-10]
---
header: 
  seq: 7529
  stamp: 
    secs: 1518208651
    nsecs:  34785748
  frame_id: "swarmone/odom"
child_frame_id: "swarmone/base_link"
pose: 
  pose: 
    position: 
      x: 0.343841831331
      y: 10.4975633582
      z: 0.0
    orientation: 
      x: 0.0
      y: 0.0
      z: 0.681639001256
      w: 0.731688644142
  covariance: [119732503885.73405, -8363694676.733894, 0.0, 0.0, 0.0, -4.920327886885264e-16, -8363694676.73389, 587723998.6150466, 0.0, 0.0, 0.0, 3.15951829632231e-17, 0.0, 0.0, 5.690338241563126e-07, -1.2031392575044815e-21, -2.5838874801564277e-14, 0.0, 0.0, 0.0, -1.2031392575044815e-21, 4.5260164064701393e-07, -7.287424265168227e-29, 0.0, 0.0, 0.0, -2.5838874801564277e-14, -7.13958687589002e-29, 4.5260164064701235e-07, 0.0, -4.920327886885265e-16, 3.15951829632231e-17, 0.0, 0.0, 0.0, 9.880529173139035e-07]
twist: 
  twist: 
    linear: 
      x: 7.99852688596e-09
      y: 0.0
      z: 0.0
    angular: 
      x: 0.0
      y: 0.0
      z: 0.000120839421727
  covariance: [9.999995995963916e-10, 0.0, 0.0, 0.0, 0.0, 0.0, 0.0, 1422362.116324917, 0.0, 0.0, 0.0, 0.0, 0.0, 0.0, 4.978257883145975e-07, -2.5981356597680944e-25, -1.842431979241494e-26, 0.0, 0.0, 0.0, -2.5981356597680935e-25, 3.323233545744315e-07, -1.4022257343587845e-33, 0.0, 0.0, 0.0, -1.8424319792414945e-26, -1.530817222210082e-33, 3.323233545744315e-07, 0.0, 0.0, 0.0, 0.0, 0.0, 0.0, 9.969790129491306e-10]
---
header: 
  seq: 7530
  stamp: 
    secs: 1518208651
    nsecs: 134884357
  frame_id: "swarmone/odom"
child_frame_id: "swarmone/base_link"
pose: 
  pose: 
    position: 
      x: 0.343873717189
      y: 10.4980130088
      z: 0.0
    orientation: 
      x: 0.0
      y: 0.0
      z: 0.685288910415
      w: 0.728271315694
  covariance: [119812307858.42064, -8369360011.898388, 0.0, 0.0, 0.0, -2.2404957220410936e-16, -8369360011.898383, 588126183.9068846, 0.0, 0.0, 0.0, 1.4381036818466317e-17, 0.0, 0.0, 5.716744667056296e-07, -4.749988390184297e-22, -1.1704570696243193e-14, 0.0, 0.0, 0.0, -4.749988390184298e-22, 4.547365337103189e-07, -1.296932098495895e-29, 0.0, 0.0, 0.0, -1.1704570696243194e-14, -1.2990493376619778e-29, 4.547365337103186e-07, 0.0, -2.2404957220410936e-16, 1.4381036818466317e-17, 0.0, 0.0, 0.0, 1.0023580320603375e-06]
twist: 
  twist: 
    linear: 
      x: 3.60066642995e-09
      y: 0.0
      z: 0.0
    angular: 
      x: 0.0
      y: 0.0
      z: 0.000119123426398
  covariance: [9.999996003946352e-10, 0.0, 0.0, 0.0, 0.0, 0.0, 0.0, 1422929.5365710962, 0.0, 0.0, 0.0, 0.0, 0.0, 0.0, 5.002193051742375e-07, -1.204343408906869e-25, -7.331037214175347e-27, 0.0, 0.0, 0.0, -1.2043434089068687e-25, 3.333846148623624e-07, -2.417042327870373e-34, 0.0, 0.0, 0.0, -7.331037214175348e-27, -2.9015578211470615e-34, 3.333846148623624e-07, 0.0, 0.0, 0.0, 0.0, 0.0, 0.0, 9.970219128567104e-10]
---
header: 
  seq: 7531
  stamp: 
    secs: 1518208651
    nsecs: 234676361
  frame_id: "swarmone/odom"
child_frame_id: "swarmone/base_link"
pose: 
  pose: 
    position: 
      x: 0.343916055659
      y: 10.4987085566
      z: 0.0
    orientation: 
      x: 0.0
      y: 0.0
      z: 0.685288907548
      w: 0.728271318391
  covariance: [119891962180.55678, -8374614723.852654, 0.0, 0.0, 0.0, -3.4582166498234097e-16, -8374614723.852652, 588470761.3333586, 0.0, 0.0, 0.0, 2.105055160931368e-17, 0.0, 0.0, 5.690338204643765e-07, -7.227728890180335e-22, -1.806934041872678e-14, 0.0, 0.0, 0.0, -7.227728890180333e-22, 4.5260162882655624e-07, -2.950535570444717e-29, 0.0, 0.0, 0.0, -1.806934041872678e-14, -2.9684476936309406e-29, 4.526016288265556e-07, 0.0, -3.4582166498234097e-16, 2.1050551609313684e-17, 0.0, 0.0, 0.0, 9.880529173137248e-07]
twist: 
  twist: 
    linear: 
      x: 5.59959152657e-09
      y: 0.0
      z: 0.0
    angular: 
      x: 0.0
      y: 0.0
      z: 0.00012083942166
  covariance: [9.999995991668704e-10, 0.0, 0.0, 0.0, 0.0, 0.0, 0.0, 1423495.368979585, 0.0, 0.0, 0.0, 0.0, 0.0, 0.0, 4.978257807974433e-07, -1.8181141091285693e-25, -1.1067096761129885e-26, 0.0, 0.0, 0.0, -1.8181141091285697e-25, 3.3232330149183636e-07, -6.13090520431103e-34, 0.0, 0.0, 0.0, -1.106709676112989e-26, -6.128327939587475e-34, 3.3232330149183636e-07, 0.0, 0.0, 0.0, 0.0, 0.0, 0.0, 9.969790129491255e-10]
---
header: 
  seq: 7532
  stamp: 
    secs: 1518208651
    nsecs: 335349321
  frame_id: "swarmone/odom"
child_frame_id: "swarmone/base_link"
pose: 
  pose: 
    position: 
      x: 0.343949913981
      y: 10.4992648053
      z: 0.0
    orientation: 
      x: 0.0
      y: 0.0
      z: 0.688921615057
      w: 0.724835849215
  covariance: [119972362576.66713, -8379918456.194147, 0.0, 0.0, 0.0, -2.650135991591555e-16, -8379918456.194144, 588818540.906203, 0.0, 0.0, 0.0, 1.438593030072692e-17, 0.0, 0.0, 5.609129082527594e-07, -3.388574846008517e-22, -1.4125787868604092e-14, 0.0, 0.0, 0.0, -3.3885748460085167e-22, 4.4609558693972475e-07, -1.0755031507302341e-29, 0.0, 0.0, 0.0, -1.412578786860409e-14, -1.1047599583127278e-29, 4.460955869397242e-07, 0.0, -2.6501359915915546e-16, 1.438593030072692e-17, 0.0, 0.0, 0.0, 9.45137573076883e-07]
twist: 
  twist: 
    linear: 
      x: 4.40038181414e-09
      y: 0.0
      z: 0.0
    angular: 
      x: 0.0
      y: 0.0
      z: 9.47230781622e-05
  covariance: [9.999996026744277e-10, 0.0, 0.0, 0.0, 0.0, 0.0, 0.0, 1424066.3484921108, 0.0, 0.0, 0.0, 0.0, 0.0, 0.0, 4.905057767899827e-07, -1.3265481377031334e-25, -6.744357967220806e-27, 0.0, 0.0, 0.0, -1.3265481377031334e-25, 3.2911988546468765e-07, -2.521212181502203e-34, 0.0, 0.0, 0.0, -6.744357967220806e-27, -3.0788564812747157e-34, 3.2911988546468765e-07, 0.0, 0.0, 0.0, 0.0, 0.0, 0.0, 9.968425624991673e-10]
---
header: 
  seq: 7533
  stamp: 
    secs: 1518208651
    nsecs: 434999466
  frame_id: "swarmone/odom"
child_frame_id: "swarmone/base_link"
pose: 
  pose: 
    position: 
      x: 0.343985195475
      y: 10.4999587387
      z: 0.0
    orientation: 
      x: 0.0
      y: 0.0
      z: 0.681639065623
      w: 0.731688584178
  covariance: [120052033028.25346, -8384774438.09821, 0.0, 0.0, 0.0, -3.4190880686370143e-16, -8384774438.098208, 589106377.2401063, 0.0, 0.0, 0.0, 2.2044095691851006e-17, 0.0, 0.0, 5.71674451425599e-07, -1.0698612181400386e-21, -1.812109667857867e-14, 0.0, 0.0, 0.0, -1.0698612181400385e-21, 4.54736517093932e-07, -4.5377385624820633e-29, 0.0, 0.0, 0.0, -1.8121096678578666e-14, -4.514744167912341e-29, 4.5473651709393127e-07, 0.0, -3.4190880686370143e-16, 2.204409569185101e-17, 0.0, 0.0, 0.0, 1.0023580320595868e-06]
twist: 
  twist: 
    linear: 
      x: 5.59920926811e-09
      y: 0.0
      z: 0.0
    angular: 
      x: 0.0
      y: 0.0
      z: 0.000148904282581
  covariance: [9.999995985962407e-10, 0.0, 0.0, 0.0, 0.0, 0.0, 0.0, 1424631.6773206773, 0.0, 0.0, 0.0, 0.0, 0.0, 0.0, 5.002192739693336e-07, -1.8632886158163556e-25, -1.3213434023341483e-26, 0.0, 0.0, 0.0, -1.8632886158163554e-25, 3.33384392935915e-07, -6.9193134571730924e-34, 0.0, 0.0, 0.0, -1.321343402334149e-26, -8.201812249256195e-34, 3.33384392935915e-07, 0.0, 0.0, 0.0, 0.0, 0.0, 0.0, 9.970219128566905e-10]
---
header: 
  seq: 7534
  stamp: 
    secs: 1518208651
    nsecs: 534550667
  frame_id: "swarmone/odom"
child_frame_id: "swarmone/base_link"
pose: 
  pose: 
    position: 
      x: 0.344013230982
      y: 10.5003540932
      z: 0.0
    orientation: 
      x: 0.0
      y: 0.0
      z: 0.685288903466
      w: 0.728271322232
  covariance: [120131569704.45462, -8390420261.517768, 0.0, 0.0, 0.0, -1.9523251020703411e-16, -8390420261.517765, 589507139.3995881, 0.0, 0.0, 0.0, 1.2550250627878895e-17, 0.0, 0.0, 5.663604150876802e-07, -4.0443000089150966e-22, -1.0257082270571956e-14, 0.0, 0.0, 0.0, -4.044300008915098e-22, 4.504499475811567e-07, -9.32232938304419e-30, 0.0, 0.0, 0.0, -1.0257082270571957e-14, -9.810073443959954e-30, 4.504499475811566e-07, 0.0, -1.9523251020703411e-16, 1.2550250627878895e-17, 0.0, 0.0, 0.0, 9.7374780256722e-07]
twist: 
  twist: 
    linear: 
      x: 3.20092808162e-09
      y: 0.0
      z: 0.0
    angular: 
      x: 0.0
      y: 0.0
      z: 0.00012260557806
  covariance: [9.999995981973017e-10, 0.0, 0.0, 0.0, 0.0, 0.0, 0.0, 1425196.5942032186, 0.0, 0.0, 0.0, 0.0, 0.0, 0.0, 4.95409224766363e-07, -1.0088153060305867e-25, -6.1408843424649595e-27, 0.0, 0.0, 0.0, -1.0088153060305867e-25, 3.3125863530638287e-07, -1.7797948251446962e-34, 0.0, 0.0, 0.0, -6.140884342464958e-27, -1.4563992277762963e-34, 3.3125863530638287e-07, 0.0, 0.0, 0.0, 0.0, 0.0, 0.0, 9.969348590145102e-10]
---
header: 
  seq: 7535
  stamp: 
    secs: 1518208651
    nsecs: 635247469
  frame_id: "swarmone/odom"
child_frame_id: "swarmone/base_link"
pose: 
  pose: 
    position: 
      x: 0.344059420494
      y: 10.5011128665
      z: 0.0
    orientation: 
      x: 0.0
      y: 0.0
      z: 0.677972056304
      w: 0.735087675635
  covariance: [120212117551.27855, -8395733515.239235, 0.0, 0.0, 0.0, -3.735120701931293e-16, -8395733515.239235, 589855535.8020641, 0.0, 0.0, 0.0, 2.7785776322417363e-17, 0.0, 0.0, 5.716744868676035e-07, -1.0574214903208208e-21, -1.9619210499330926e-14, 0.0, 0.0, 0.0, -1.057421490320821e-21, 4.5473659885309463e-07, -4.811488256750474e-29, 0.0, 0.0, 0.0, -1.961921049933093e-14, -4.969251697604909e-29, 4.5473659885309373e-07, 0.0, -3.7351207019312937e-16, 2.7785776322417363e-17, 0.0, 0.0, 0.0, 1.0023580320613262e-06]
twist: 
  twist: 
    linear: 
      x: 5.99907217132e-09
      y: 0.0
      z: 0.0
    angular: 
      x: 0.0
      y: 0.0
      z: 0.000119123426753
  covariance: [9.99999602768498e-10, 0.0, 0.0, 0.0, 0.0, 0.0, 0.0, 1425768.1638647066, 0.0, 0.0, 0.0, 0.0, 0.0, 0.0, 5.002193463436056e-07, -2.0158420449561189e-25, -1.6322679557787717e-26, 0.0, 0.0, 0.0, -2.0158420449561184e-25, 3.3338490754485717e-07, -1.157872349470871e-33, 0.0, 0.0, 0.0, -1.6322679557787714e-26, -1.0457636880347564e-33, 3.3338490754485717e-07, 0.0, 0.0, 0.0, 0.0, 0.0, 0.0, 9.970219128567369e-10]
---
header: 
  seq: 7536
  stamp: 
    secs: 1518208651
    nsecs: 735169172
  frame_id: "swarmone/odom"
child_frame_id: "swarmone/base_link"
pose: 
  pose: 
    position: 
      x: 0.344091583478
      y: 10.5015101027
      z: 0.0
    orientation: 
      x: 0.0
      y: 0.0
      z: 0.688923160344
      w: 0.724834380491
  covariance: [120291974899.82526, -8401802282.495163, 0.0, 0.0, 0.0, -1.013062365263692e-15, -8401802282.495164, 590314782.7740182, 0.0, 0.0, 0.0, 5.350683802164459e-17, 0.0, 0.0, 8.815580818440075e-07, -1.842170653981576e-21, -7.65462563155345e-15, 0.0, 0.0, 0.0, -1.8421706539815767e-21, 7.954223880048746e-07, -1.1962888254892672e-28, 0.0, 0.0, 0.0, -7.654625631553451e-15, -1.184814913651271e-28, 7.954223880048742e-07, 0.0, -1.0130623652636922e-15, 5.35068380216446e-17, 0.0, 0.0, 0.0, 7.110642028655662e-06]
twist: 
  twist: 
    linear: 
      x: 3.20704055673e-09
      y: 0.0
      z: 0.0
    angular: 
      x: 0.0
      y: 0.0
      z: 1.68642463463e-05
  covariance: [9.999995996871565e-10, 0.0, 0.0, 0.0, 0.0, 0.0, 0.0, 1426335.4849906077, 0.0, 0.0, 0.0, 0.0, 0.0, 0.0, 8.353385492810114e-07, -7.792487536238924e-25, -3.960759987907596e-26, 0.0, 0.0, 0.0, -7.792487536238925e-25, 6.02885026821611e-07, -6.260511559120416e-33, 0.0, 0.0, 0.0, -3.9607599879075976e-26, -6.118881564772757e-33, 6.02885026821611e-07, 0.0, 0.0, 0.0, 0.0, 0.0, 0.0, 9.995783936307522e-10]
---
header: 
  seq: 7537
  stamp: 
    secs: 1518208651
    nsecs: 835018635
  frame_id: "swarmone/odom"
child_frame_id: "swarmone/base_link"
pose: 
  pose: 
    position: 
      x: 0.344144708687
      y: 10.5025544146
      z: 0.0
    orientation: 
      x: 0.0
      y: 0.0
      z: 0.677971993139
      w: 0.735087733892
  covariance: [120371974708.58417, -8406677982.769657, 0.0, 0.0, 0.0, -1.5827146696215751e-15, -8406677982.769657, 590603768.4695393, 0.0, 0.0, 0.0, 9.081007157447957e-17, 0.0, 0.0, 5.690338226279214e-07, -1.079489325796672e-21, -2.7098643359569832e-14, 0.0, 0.0, 0.0, -1.079489325796672e-21, 4.5260160356071597e-07, -6.869472561058484e-29, 0.0, 0.0, 0.0, -2.7098643359569838e-14, -6.895035064674074e-29, 4.526016035607142e-07, 0.0, -1.5827146696215751e-15, 9.081007157447958e-17, 0.0, 0.0, 0.0, 9.88052917313991e-07]
twist: 
  twist: 
    linear: 
      x: 8.39238364914e-09
      y: 0.0
      z: 0.0
    angular: 
      x: 0.0
      y: 0.0
      z: 9.06295661611e-05
  covariance: [9.999995993991579e-10, 0.0, 0.0, 0.0, 0.0, 0.0, 0.0, 1426902.5462689654, 0.0, 0.0, 0.0, 0.0, 0.0, 0.0, 4.978257854305038e-07, -2.7377697652969008e-25, -2.2125034691986262e-26, 0.0, 0.0, 0.0, -2.7377697652969008e-25, 3.323233433984218e-07, -1.9871847109544033e-33, 0.0, 0.0, 0.0, -2.2125034691986262e-26, -2.0204284083992845e-33, 3.323233433984218e-07, 0.0, 0.0, 0.0, 0.0, 0.0, 0.0, 9.969790129491282e-10]
---
header: 
  seq: 7538
  stamp: 
    secs: 1518208651
    nsecs: 934503794
  frame_id: "swarmone/odom"
child_frame_id: "swarmone/base_link"
pose: 
  pose: 
    position: 
      x: 0.344172656094
      y: 10.5028995703
      z: 0.0
    orientation: 
      x: 0.0
      y: 0.0
      z: 0.681638995933
      w: 0.731688649101
  covariance: [120451567405.67227, -8412727880.657656, 0.0, 0.0, 0.0, -1.697416850197724e-16, -8412727880.657657, 591061667.6382301, 0.0, 0.0, 0.0, 1.2611814066828224e-17, 0.0, 0.0, 5.663604127639743e-07, -4.114994668723995e-22, -8.966727316285731e-15, 0.0, 0.0, 0.0, -4.1149946687239943e-22, 4.504499400299717e-07, -7.715368283527823e-30, 0.0, 0.0, 0.0, -8.966727316285733e-15, -9.302439584113171e-30, 4.504499400299715e-07, 0.0, -1.6974168501977237e-16, 1.2611814066828226e-17, 0.0, 0.0, 0.0, 9.737478025671083e-07]
twist: 
  twist: 
    linear: 
      x: 2.79987315971e-09
      y: 0.0
      z: 0.0
    angular: 
      x: 0.0
      y: 0.0
      z: 0.000122605577929
  covariance: [9.999995979305665e-10, 0.0, 0.0, 0.0, 0.0, 0.0, 0.0, 1427467.6880633847, 0.0, 0.0, 0.0, 0.0, 0.0, 0.0, 4.954092200463119e-07, -8.813148716073372e-26, -6.2499017194895046e-27, 0.0, 0.0, 0.0, -8.813148716073377e-26, 3.3125860215159097e-07, -1.1376682462142726e-34, 0.0, 0.0, 0.0, -6.249901719489507e-27, -2.5790231376173032e-34, 3.3125860215159097e-07, 0.0, 0.0, 0.0, 0.0, 0.0, 0.0, 9.96934859014507e-10]
---
header: 
  seq: 7539
  stamp: 
    secs: 1518208652
    nsecs:  35330057
  frame_id: "swarmone/odom"
child_frame_id: "swarmone/base_link"
pose: 
  pose: 
    position: 
      x: 0.344194226206
      y: 10.5032037492
      z: 0.0
    orientation: 
      x: 0.0
      y: 0.0
      z: 0.685288910419
      w: 0.72827131569
  covariance: [120532337308.56203, -8418461150.825983, 0.0, 0.0, 0.0, -1.497520150680787e-16, -8418461150.825983, 591468630.5524528, 0.0, 0.0, 0.0, 9.607212163876203e-18, 0.0, 0.0, 5.716744911999085e-07, -3.1902919870935087e-22, -7.861242306779536e-15, 0.0, 0.0, 0.0, -3.1902919870935096e-22, 4.547366130787031e-07, -5.574232010413633e-30, 0.0, 0.0, 0.0, -7.861242306779536e-15, -6.136342292949303e-30, 4.547366130787029e-07, 0.0, -1.4975201506807872e-16, 9.607212163876204e-18, 0.0, 0.0, 0.0, 1.0023580320615386e-06]
twist: 
  twist: 
    linear: 
      x: 2.40104534605e-09
      y: 0.0
      z: 0.0
    angular: 
      x: 0.0
      y: 0.0
      z: 0.000119123426828
  covariance: [9.999996032785446e-10, 0.0, 0.0, 0.0, 0.0, 0.0, 0.0, 1428040.6004547183, 0.0, 0.0, 0.0, 0.0, 0.0, 0.0, 5.002193551901205e-07, -8.088761225053686e-26, -4.923754932544346e-27, 0.0, 0.0, 0.0, -8.088761225053685e-26, 3.3338497044177635e-07, -1.1274643329332855e-34, 0.0, 0.0, 0.0, -4.923754932544347e-27, -1.7723847153048116e-34, 3.3338497044177635e-07, 0.0, 0.0, 0.0, 0.0, 0.0, 0.0, 9.970219128567424e-10]
---
header: 
  seq: 7540
  stamp: 
    secs: 1518208652
    nsecs: 134748697
  frame_id: "swarmone/odom"
child_frame_id: "swarmone/base_link"
pose: 
  pose: 
    position: 
      x: 0.344236250209
      y: 10.5038941309
      z: 0.0
    orientation: 
      x: 0.0
      y: 0.0
      z: 0.685288911021
      w: 0.728271315123
  covariance: [120612074507.88774, -8423720700.685551, 0.0, 0.0, 0.0, -3.4785541599349254e-16, -8423720700.685551, 591813489.8722203, 0.0, 0.0, 0.0, 2.1174349011651145e-17, 0.0, 0.0, 5.716744434924985e-07, -7.337193123259881e-22, -1.8081196775046186e-14, 0.0, 0.0, 0.0, -7.337193123259882e-22, 4.547364584935538e-07, -3.052979064206814e-29, 0.0, 0.0, 0.0, -1.8081196775046183e-14, -3.141617093300659e-29, 4.547364584935531e-07, 0.0, -3.4785541599349264e-16, 2.1174349011651148e-17, 0.0, 0.0, 0.0, 1.002358032059199e-06]
twist: 
  twist: 
    linear: 
      x: 5.60012423413e-09
      y: 0.0
      z: 0.0
    angular: 
      x: 0.0
      y: 0.0
      z: 0.000119123425991
  covariance: [9.999995976615548e-10, 0.0, 0.0, 0.0, 0.0, 0.0, 0.0, 1428605.6645623473, 0.0, 0.0, 0.0, 0.0, 0.0, 0.0, 5.00219257774501e-07, -1.860483896332715e-25, -1.1325007076183494e-26, 0.0, 0.0, 0.0, -1.860483896332715e-25, 3.3338427788580566e-07, -5.961053163691429e-34, 0.0, 0.0, 0.0, -1.1325007076183494e-26, -7.4032122475827685e-34, 3.3338427788580566e-07, 0.0, 0.0, 0.0, 0.0, 0.0, 0.0, 9.9702191285668e-10]
---
header: 
  seq: 7541
  stamp: 
    secs: 1518208652
    nsecs: 234743834
  frame_id: "swarmone/odom"
child_frame_id: "swarmone/base_link"
pose: 
  pose: 
    position: 
      x: 0.344281798409
      y: 10.5046423885
      z: 0.0
    orientation: 
      x: 0.0
      y: 0.0
      z: 0.681639004134
      w: 0.731688641461
  covariance: [120692316592.79729, -8429013487.208313, 0.0, 0.0, 0.0, -3.7467827237080635e-16, -8429013487.208312, 592160526.1133014, 0.0, 0.0, 0.0, 2.5314573526107194e-17, 0.0, 0.0, 5.716744631948423e-07, -9.204040184104825e-22, -1.948341868144972e-14, 0.0, 0.0, 0.0, -9.204040184104825e-22, 4.547365222499546e-07, -4.12536276105203e-29, 0.0, 0.0, 0.0, -1.948341868144972e-14, -4.2479817114454845e-29, 4.547365222499537e-07, 0.0, -3.7467827237080635e-16, 2.5314573526107194e-17, 0.0, 0.0, 0.0, 1.0023580320601655e-06]
twist: 
  twist: 
    linear: 
      x: 5.99945737187e-09
      y: 0.0
      z: 0.0
    angular: 
      x: 0.0
      y: 0.0
      z: 0.000119123426335
  covariance: [9.999995999811326e-10, 0.0, 0.0, 0.0, 0.0, 0.0, 0.0, 1429174.1556324398, 0.0, 0.0, 0.0, 0.0, 0.0, 0.0, 5.00219298006355e-07, -2.0034482752151119e-25, -1.4207325347206078e-26, 0.0, 0.0, 0.0, -2.0034482752151119e-25, 3.3338456392315206e-07, -9.495042980592e-34, 0.0, 0.0, 0.0, -1.420732534720608e-26, -7.569173001234757e-34, 3.3338456392315206e-07, 0.0, 0.0, 0.0, 0.0, 0.0, 0.0, 9.970219128567058e-10]
---
header: 
  seq: 7542
  stamp: 
    secs: 1518208652
    nsecs: 334718227
  frame_id: "swarmone/odom"
child_frame_id: "swarmone/base_link"
pose: 
  pose: 
    position: 
      x: 0.344320645118
      y: 10.5051902134
      z: 0.0
    orientation: 
      x: 0.0
      y: 0.0
      z: 0.688922148261
      w: 0.72483534243
  covariance: [120772531858.59021, -8434706804.130851, 0.0, 0.0, 0.0, -6.256642561340146e-16, -8434706804.13085, 592564611.6092601, 0.0, 0.0, 0.0, 3.3646986769945614e-17, 0.0, 0.0, 7.647921185709985e-07, -1.4831737847290632e-21, -1.50136142014543e-14, 0.0, 0.0, 0.0, -1.4831737847290632e-21, 6.418875891224248e-07, -9.453053902993394e-29, 0.0, 0.0, 0.0, -1.5013614201454303e-14, -9.481542998209502e-29, 6.418875891224239e-07, 0.0, -6.256642561340146e-16, 3.364698676994562e-17, 0.0, 0.0, 0.0, 2.9192434080387253e-06]
twist: 
  twist: 
    linear: 
      x: 4.40052104998e-09
      y: 0.0
      z: 0.0
    angular: 
      x: 0.0
      y: 0.0
      z: 4.10362351709e-05
  covariance: [9.999995998981378e-10, 0.0, 0.0, 0.0, 0.0, 0.0, 0.0, 1429742.679526453, 0.0, 0.0, 0.0, 0.0, 0.0, 0.0, 6.950104763218191e-07, -6.600577307472448e-25, -3.3551565341744786e-26, 0.0, 0.0, 0.0, -6.6005773074724455e-25, 4.5042749228162633e-07, -3.599755525805101e-33, 0.0, 0.0, 0.0, -3.355156534174477e-26, -3.773300040682337e-33, 4.5042749228162633e-07, 0.0, 0.0, 0.0, 0.0, 0.0, 0.0, 9.98974093608923e-10]
---
header: 
  seq: 7543
  stamp: 
    secs: 1518208652
    nsecs: 434727192
  frame_id: "swarmone/odom"
child_frame_id: "swarmone/base_link"
pose: 
  pose: 
    position: 
      x: 0.344353647653
      y: 10.505839258
      z: 0.0
    orientation: 
      x: 0.0
      y: 0.0
      z: 0.681638936018
      w: 0.731688704918
  covariance: [120852915264.3428, -8439605551.792592, 0.0, 0.0, 0.0, -5.228033416688243e-16, -8439605551.792591, 592854950.9800631, 0.0, 0.0, 0.0, 3.073693729905934e-17, 0.0, 0.0, 5.63653659767988e-07, -5.649660731041502e-22, -1.666247501972314e-14, 0.0, 0.0, 0.0, -5.649660731041501e-22, 4.4828133161714005e-07, -2.2226867020155408e-29, 0.0, 0.0, 0.0, -1.6662475019723142e-14, -2.0921144127482735e-29, 4.482813316171394e-07, 0.0, -5.228033416688244e-16, 3.073693729905934e-17, 0.0, 0.0, 0.0, 9.594426878219381e-07]
twist: 
  twist: 
    linear: 
      x: 5.19972794336e-09
      y: 0.0
      z: 0.0
    angular: 
      x: 0.0
      y: 0.0
      z: 9.33180958489e-05
  covariance: [9.999996000369542e-10, 0.0, 0.0, 0.0, 0.0, 0.0, 0.0, 1430311.5508444654, 0.0, 0.0, 0.0, 0.0, 0.0, 0.0, 4.929693489250319e-07, -1.6032250512467135e-25, -1.1363277277544608e-26, 0.0, 0.0, 0.0, -1.6032250512467128e-25, 3.3019092380417285e-07, -5.561212866400474e-34, 0.0, 0.0, 0.0, -1.1363277277544609e-26, -5.727431146548128e-34, 3.3019092380417285e-07, 0.0, 0.0, 0.0, 0.0, 0.0, 0.0, 9.968893952517553e-10]
---
header: 
  seq: 7544
  stamp: 
    secs: 1518208652
    nsecs: 534661293
  frame_id: "swarmone/odom"
child_frame_id: "swarmone/base_link"
pose: 
  pose: 
    position: 
      x: 0.344396019974
      y: 10.5064367855
      z: 0.0
    orientation: 
      x: 0.0
      y: 0.0
      z: 0.685288906941
      w: 0.728271318963
  covariance: [120933183418.13814, -8445302688.762698, 0.0, 0.0, 0.0, -2.925178304092013e-16, -8445302688.762697, 593259312.3919376, 0.0, 0.0, 0.0, 1.8766165125275874e-17, 0.0, 0.0, 5.690338253606931e-07, -6.204315300945505e-22, -1.5511528691929335e-14, 0.0, 0.0, 0.0, -6.204315300945505e-22, 4.5260164461264744e-07, -2.3653310134463343e-29, 0.0, 0.0, 0.0, -1.5511528691929342e-14, -2.3372149288221353e-29, 4.526016446126468e-07, 0.0, -2.925178304092013e-16, 1.876616512527588e-17, 0.0, 0.0, 0.0, 9.880529173139611e-07]
twist: 
  twist: 
    linear: 
      x: 4.80025590457e-09
      y: 0.0
      z: 0.0
    angular: 
      x: 0.0
      y: 0.0
      z: 0.000120839421706
  covariance: [9.999995997368082e-10, 0.0, 0.0, 0.0, 0.0, 0.0, 0.0, 1430880.147031747, 0.0, 0.0, 0.0, 0.0, 0.0, 0.0, 4.978257907649893e-07, -1.5607023377015017e-25, -9.50026283724985e-27, 0.0, 0.0, 0.0, -1.5607023377015017e-25, 3.3232337184024594e-07, -4.838686693605205e-34, 0.0, 0.0, 0.0, -9.50026283724985e-27, -4.036730868089941e-34, 3.3232337184024594e-07, 0.0, 0.0, 0.0, 0.0, 0.0, 0.0, 9.96979012949132e-10]
---
header: 
  seq: 7545
  stamp: 
    secs: 1518208652
    nsecs: 634525061
  frame_id: "swarmone/odom"
child_frame_id: "swarmone/base_link"
pose: 
  pose: 
    position: 
      x: 0.344438418316
      y: 10.5071333168
      z: 0.0
    orientation: 
      x: 0.0
      y: 0.0
      z: 0.685288842617
      w: 0.72827137949
  covariance: [121013490550.39276, -8450599307.337727, 0.0, 0.0, 0.0, -3.377439504524476e-16, -8450599307.337725, 593606572.7772615, 0.0, 0.0, 0.0, 2.0558852467801608e-17, 0.0, 0.0, 5.636536545257074e-07, -5.220284846130056e-22, -1.7916846618935963e-14, 0.0, 0.0, 0.0, -5.220284846130056e-22, 4.482813145788678e-07, -2.1567573110405472e-29, 0.0, 0.0, 0.0, -1.791684661893597e-14, -2.1302592372031184e-29, 4.48281314578867e-07, 0.0, -3.3774395045244754e-16, 2.0558852467801605e-17, 0.0, 0.0, 0.0, 9.594426878216423e-07]
twist: 
  twist: 
    linear: 
      x: 5.59921133937e-09
      y: 0.0
      z: 0.0
    angular: 
      x: 0.0
      y: 0.0
      z: 9.33180959056e-05
  covariance: [9.999995994549127e-10, 0.0, 0.0, 0.0, 0.0, 0.0, 0.0, 1431448.4935540373, 0.0, 0.0, 0.0, 0.0, 0.0, 0.0, 4.929693381895821e-07, -1.7217810013822378e-25, -1.0480706455999478e-26, 0.0, 0.0, 0.0, -1.7217810013822382e-25, 3.3019084552581853e-07, -6.145918689489797e-34, 0.0, 0.0, 0.0, -1.0480706455999481e-26, -4.701222079015273e-34, 3.3019084552581853e-07, 0.0, 0.0, 0.0, 0.0, 0.0, 0.0, 9.968893952517484e-10]
---
header: 
  seq: 7546
  stamp: 
    secs: 1518208652
    nsecs: 734352350
  frame_id: "swarmone/odom"
child_frame_id: "swarmone/base_link"
pose: 
  pose: 
    position: 
      x: 0.344462612074
      y: 10.5075307667
      z: 0.0
    orientation: 
      x: 0.0
      y: 0.0
      z: 0.6816396147
      w: 0.731688072659
  covariance: [121093810913.19066, -8455896908.2078705, 0.0, 0.0, 0.0, -5.289818416582055e-16, -8455896908.207868, 593953908.6662767, 0.0, 0.0, 0.0, 3.6872992228032375e-17, 0.0, 0.0, 7.933059181808771e-07, -1.72128720618761e-21, -1.0414296796312617e-14, 0.0, 0.0, 0.0, -1.7212872061876103e-21, 6.759217296842225e-07, -8.702592242240478e-29, 0.0, 0.0, 0.0, -1.0414296796312617e-14, -8.642810955717911e-29, 6.759217296842221e-07, 0.0, -5.289818416582056e-16, 3.6872992228032375e-17, 0.0, 0.0, 0.0, 3.5057531126293515e-06]
twist: 
  twist: 
    linear: 
      x: 3.20119383258e-09
      y: 0.0
      z: 0.0
    angular: 
      x: 0.0
      y: 0.0
      z: 3.41806832316e-05
  covariance: [9.999995993085413e-10, 0.0, 0.0, 0.0, 0.0, 0.0, 0.0, 1432016.782868531, 0.0, 0.0, 0.0, 0.0, 0.0, 0.0, 7.27506148459606e-07, -5.5925966786766245e-25, -3.9662127323741995e-26, 0.0, 0.0, 0.0, -5.592596678676627e-25, 4.784461502145852e-07, -3.553360497751784e-33, 0.0, 0.0, 0.0, -3.966212732374201e-26, -4.114634146215566e-33, 4.784461502145852e-07, 0.0, 0.0, 0.0, 0.0, 0.0, 0.0, 9.99145482491961e-10]
---
header: 
  seq: 7547
  stamp: 
    secs: 1518208652
    nsecs: 835265875
  frame_id: "swarmone/odom"
child_frame_id: "swarmone/base_link"
pose: 
  pose: 
    position: 
      x: 0.344505811888
      y: 10.5081399656
      z: 0.0
    orientation: 
      x: 0.0
      y: 0.0
      z: 0.681638993057
      w: 0.73168865178
  covariance: [121174995078.63611, -8461658791.845846, 0.0, 0.0, 0.0, -5.455397740957323e-16, -8461658791.845842, 594362846.5319506, 0.0, 0.0, 0.0, 3.868604008262513e-17, 0.0, 0.0, 5.636536913854175e-07, -7.015357288350776e-22, -1.5518028359253083e-14, 0.0, 0.0, 0.0, -7.015357288350776e-22, 4.4828146508813e-07, -2.4713646018132604e-29, 0.0, 0.0, 0.0, -1.551802835925308e-14, -2.5184605504554005e-29, 4.4828146508812934e-07, 0.0, -5.455397740957323e-16, 3.868604008262514e-17, 0.0, 0.0, 0.0, 9.594426878234471e-07]
twist: 
  twist: 
    linear: 
      x: 4.7990991927e-09
      y: 0.0
      z: 0.0
    angular: 
      x: 0.0
      y: 0.0
      z: 0.000124424128322
  covariance: [9.999996036222693e-10, 0.0, 0.0, 0.0, 0.0, 0.0, 0.0, 1432591.4086732278, 0.0, 0.0, 0.0, 0.0, 0.0, 0.0, 4.929694129753202e-07, -1.494004044195686e-25, -1.059469814619927e-26, 0.0, 0.0, 0.0, -1.494004044195686e-25, 3.301913714144914e-07, -5.444435740992709e-34, 0.0, 0.0, 0.0, -1.0594698146199267e-26, -4.9624998498471255e-34, 3.301913714144914e-07, 0.0, 0.0, 0.0, 0.0, 0.0, 0.0, 9.96889395251799e-10]
---
header: 
  seq: 7548
  stamp: 
    secs: 1518208652
    nsecs: 935347080
  frame_id: "swarmone/odom"
child_frame_id: "swarmone/base_link"
pose: 
  pose: 
    position: 
      x: 0.344537688984
      y: 10.5085895023
      z: 0.0
    orientation: 
      x: 0.0
      y: 0.0
      z: 0.688921678211
      w: 0.72483578919
  covariance: [121255552626.77722, -8467376149.711634, 0.0, 0.0, 0.0, -2.1768303879537914e-16, -8467376149.71163, 594768620.5116886, 0.0, 0.0, 0.0, 1.2508610006887139e-17, 0.0, 0.0, 5.663604336078284e-07, -3.8225643922730876e-22, -1.1601224641153202e-14, 0.0, 0.0, 0.0, -3.822564392273088e-22, 4.504500071198529e-07, -9.983743115417046e-30, 0.0, 0.0, 0.0, -1.1601224641153204e-14, -1.0469433184207192e-29, 4.504500071198525e-07, 0.0, -2.1768303879537911e-16, 1.2508610006887139e-17, 0.0, 0.0, 0.0, 9.737478025681053e-07]
twist: 
  twist: 
    linear: 
      x: 3.60128821902e-09
      y: 0.0
      z: 0.0
    angular: 
      x: 0.0
      y: 0.0
      z: 0.000122605578346
  covariance: [9.999996003251344e-10, 0.0, 0.0, 0.0, 0.0, 0.0, 0.0, 1433161.4468563448, 0.0, 0.0, 0.0, 0.0, 0.0, 0.0, 4.954092623732786e-07, -1.141616973030858e-25, -5.804132239892594e-27, 0.0, 0.0, 0.0, -1.141616973030858e-25, 3.3125889921580954e-07, -2.1823550498635384e-34, 0.0, 0.0, 0.0, -5.8041322398925924e-27, -1.4600303579254754e-34, 3.3125889921580954e-07, 0.0, 0.0, 0.0, 0.0, 0.0, 0.0, 9.969348590145354e-10]
---
header: 
  seq: 7549
  stamp: 
    secs: 1518208653
    nsecs:  34845352
  frame_id: "swarmone/odom"
child_frame_id: "swarmone/base_link"
pose: 
  pose: 
    position: 
      x: 0.344585423339
      y: 10.5095283962
      z: 0.0
    orientation: 
      x: 0.0
      y: 0.0
      z: 0.685288932467
      w: 0.728271294944
  covariance: [121335781004.17276, -8472264932.958214, 0.0, 0.0, 0.0, -4.950144074850231e-16, -8472264932.95821, 595058347.2735677, 0.0, 0.0, 0.0, 2.8595777450920034e-17, 0.0, 0.0, 5.868628059811921e-07, -1.1069143153888311e-21, -2.5127533015401457e-14, 0.0, 0.0, 0.0, -1.1069143153888311e-21, 4.6720399648154293e-07, -6.65275352912837e-29, 0.0, 0.0, 0.0, -2.512753301540145e-14, -6.722475055694363e-29, 4.672039964815414e-07, 0.0, -4.950144074850232e-16, 2.8595777450920034e-17, 0.0, 0.0, 0.0, 1.088188720535942e-06]
twist: 
  twist: 
    linear: 
      x: 7.59929434657e-09
      y: 0.0
      z: 0.0
    angular: 
      x: 0.0
      y: 0.0
      z: 0.000109770561811
  covariance: [9.99999597983552e-10, 0.0, 0.0, 0.0, 0.0, 0.0, 0.0, 1433728.3146695266, 0.0, 0.0, 0.0, 0.0, 0.0, 0.0, 5.141144638624171e-07, -2.934574013033207e-25, -1.786339624952909e-26, 0.0, 0.0, 0.0, -2.934574013033207e-25, 3.396811266885169e-07, -1.5292561070933058e-33, 0.0, 0.0, 0.0, -1.7863396249529093e-26, -1.3693545027746675e-33, 3.396811266885169e-07, 0.0, 0.0, 0.0, 0.0, 0.0, 0.0, 9.97255734579654e-10]
---
header: 
  seq: 7550
  stamp: 
    secs: 1518208653
    nsecs: 134710073
  frame_id: "swarmone/odom"
child_frame_id: "swarmone/base_link"
pose: 
  pose: 
    position: 
      x: 0.344627797574
      y: 10.5102245114
      z: 0.0
    orientation: 
      x: 0.0
      y: 0.0
      z: 0.681639468164
      w: 0.731688209172
  covariance: [121416302498.52602, -8477575358.900835, 0.0, 0.0, 0.0, -8.012147212981498e-16, -8477575358.900832, 595406498.2441419, 0.0, 0.0, 0.0, 5.554776931172742e-17, 0.0, 0.0, 7.639980474028887e-07, -2.6162404264506838e-21, -1.9103626397951517e-14, 0.0, 0.0, 0.0, -2.6162404264506838e-21, 6.409679511874052e-07, -2.1299618314002057e-28, 0.0, 0.0, 0.0, -1.9103626397951523e-14, -2.1055736043794968e-28, 6.409679511874037e-07, 0.0, -8.012147212981498e-16, 5.554776931172742e-17, 0.0, 0.0, 0.0, 2.904938293292428e-06]
twist: 
  twist: 
    linear: 
      x: 5.5991960287e-09
      y: 0.0
      z: 0.0
    angular: 
      x: 0.0
      y: 0.0
      z: 4.12379672746e-05
  covariance: [9.999995994587643e-10, 0.0, 0.0, 0.0, 0.0, 0.0, 0.0, 1434297.4205267215, 0.0, 0.0, 0.0, 0.0, 0.0, 0.0, 6.941207911552385e-07, -8.341599152769001e-25, -5.915786651797275e-26, 0.0, 0.0, 0.0, -8.341599152769001e-25, 4.497064153658246e-07, -8.557921155580797e-33, 0.0, 0.0, 0.0, -5.915786651797274e-26, -8.904087976235976e-33, 4.497064153658246e-07, 0.0, 0.0, 0.0, 0.0, 0.0, 0.0, 9.989690503031303e-10]
---
header: 
  seq: 7551
  stamp: 
    secs: 1518208653
    nsecs: 234472036
  frame_id: "swarmone/odom"
child_frame_id: "swarmone/base_link"
pose: 
  pose: 
    position: 
      x: 0.344666509658
      y: 10.5107704217
      z: 0.0
    orientation: 
      x: 0.0
      y: 0.0
      z: 0.681638993057
      w: 0.73168865178
  covariance: [121496730788.72221, -8483283222.335174, 0.0, 0.0, 0.0, -4.3968639424078726e-16, -8483283222.335171, 595811575.679152, 0.0, 0.0, 0.0, 3.117977681277414e-17, 0.0, 0.0, 5.636536510389127e-07, -6.359564123298523e-22, -1.4066984869078302e-14, 0.0, 0.0, 0.0, -6.359564123298524e-22, 4.4828133604352486e-07, -1.940411148900039e-29, 0.0, 0.0, 0.0, -1.4066984869078305e-14, -2.1599938983559278e-29, 4.482813360435244e-07, 0.0, -4.396863942407872e-16, 3.117977681277414e-17, 0.0, 0.0, 0.0, 9.594426878215254e-07]
twist: 
  twist: 
    linear: 
      x: 4.40076664519e-09
      y: 0.0
      z: 0.0
    angular: 
      x: 0.0
      y: 0.0
      z: 0.000124424127624
  covariance: [9.999995990466766e-10, 0.0, 0.0, 0.0, 0.0, 0.0, 0.0, 1434866.091137073, 0.0, 0.0, 0.0, 0.0, 0.0, 0.0, 4.929693312476966e-07, -1.3534746828524054e-25, -9.598137564213286e-27, 0.0, 0.0, 0.0, -1.3534746828524064e-25, 3.3019080051067607e-07, -4.267233633778832e-34, 0.0, 0.0, 0.0, -9.598137564213292e-27, -3.78064363848256e-34, 3.3019080051067607e-07, 0.0, 0.0, 0.0, 0.0, 0.0, 0.0, 9.968893952517433e-10]
---
header: 
  seq: 7552
  stamp: 
    secs: 1518208653
    nsecs: 335213900
  frame_id: "swarmone/odom"
child_frame_id: "swarmone/base_link"
pose: 
  pose: 
    position: 
      x: 0.344716713534
      y: 10.511478374
      z: 0.0
    orientation: 
      x: 0.0
      y: 0.0
      z: 0.681639471042
      w: 0.731688206491
  covariance: [121577992286.76572, -8489050279.893693, 0.0, 0.0, 0.0, -7.964826410221789e-16, -8489050279.893691, 596220858.478219, 0.0, 0.0, 0.0, 5.648237051333925e-17, 0.0, 0.0, 7.64792126381648e-07, -2.649709920756397e-21, -1.9252962657347073e-14, 0.0, 0.0, 0.0, -2.649709920756397e-21, 6.418876251205388e-07, -2.1782954021346505e-28, 0.0, 0.0, 0.0, -1.925296265734708e-14, -2.15954980891002e-28, 6.418876251205372e-07, 0.0, -7.964826410221789e-16, 5.648237051333925e-17, 0.0, 0.0, 0.0, 2.919243408039995e-06]
twist: 
  twist: 
    linear: 
      x: 5.59973554679e-09
      y: 0.0
      z: 0.0
    angular: 
      x: 0.0
      y: 0.0
      z: 4.10362353295e-05
  covariance: [9.999996029461728e-10, 0.0, 0.0, 0.0, 0.0, 0.0, 0.0, 1435440.4999623962, 0.0, 0.0, 0.0, 0.0, 0.0, 0.0, 6.950104960173572e-07, -8.45410843913601e-25, -5.995206139386924e-26, 0.0, 0.0, 0.0, -8.45410843913601e-25, 4.5042774780706196e-07, -8.603651061969333e-33, 0.0, 0.0, 0.0, -5.995206139386925e-26, -8.988948440630195e-33, 4.5042774780706196e-07, 0.0, 0.0, 0.0, 0.0, 0.0, 0.0, 9.989740936089271e-10]
---
header: 
  seq: 7553
  stamp: 
    secs: 1518208653
    nsecs: 434756279
  frame_id: "swarmone/odom"
child_frame_id: "swarmone/base_link"
pose: 
  pose: 
    position: 
      x: 0.344762253771
      y: 10.5121206181
      z: 0.0
    orientation: 
      x: 0.0
      y: 0.0
      z: 0.685288899993
      w: 0.7282713255
  covariance: [121658328933.38239, -8494751593.580371, 0.0, 0.0, 0.0, -5.201260520480629e-16, -8494751593.580368, 596625467.8180077, 0.0, 0.0, 0.0, 3.481193155882334e-17, 0.0, 0.0, 5.636536432433238e-07, -6.440689808069769e-22, -1.6585458032914324e-14, 0.0, 0.0, 0.0, -6.440689808069769e-22, 4.482813112118786e-07, -2.4459555432646716e-29, 0.0, 0.0, 0.0, -1.658545803291433e-14, -2.4502324975339755e-29, 4.4828131121187786e-07, 0.0, -5.20126052048063e-16, 3.481193155882334e-17, 0.0, 0.0, 0.0, 9.594426878211576e-07]
twist: 
  twist: 
    linear: 
      x: 5.19998838433e-09
      y: 0.0
      z: 0.0
    angular: 
      x: 0.0
      y: 0.0
      z: 0.000124424127487
  covariance: [9.999995981622046e-10, 0.0, 0.0, 0.0, 0.0, 0.0, 0.0, 1436008.2201365554, 0.0, 0.0, 0.0, 0.0, 0.0, 0.0, 4.929693154620076e-07, -1.5968746354710892e-25, -9.723361432918142e-27, 0.0, 0.0, 0.0, -1.5968746354710897e-25, 3.3019069045805597e-07, -4.463143957087928e-34, 0.0, 0.0, 0.0, -9.723361432918147e-27, -4.942892988482238e-34, 3.3019069045805597e-07, 0.0, 0.0, 0.0, 0.0, 0.0, 0.0, 9.968893952517327e-10]
---
header: 
  seq: 7554
  stamp: 
    secs: 1518208653
    nsecs: 534578323
  frame_id: "swarmone/odom"
child_frame_id: "swarmone/base_link"
pose: 
  pose: 
    position: 
      x: 0.344801573478
      y: 10.5127665726
      z: 0.0
    orientation: 
      x: 0.0
      y: 0.0
      z: 0.685289272176
      w: 0.728270975284
  covariance: [121738987022.61751, -8500070730.55351, 0.0, 0.0, 0.0, -6.407404684167401e-16, -8500070730.553509, 596974169.2598355, 0.0, 0.0, 0.0, 3.900266715980785e-17, 0.0, 0.0, 7.383845858355701e-07, -1.835702320270181e-21, -1.820587364677565e-14, 0.0, 0.0, 0.0, -1.835702320270181e-21, 6.120786770672836e-07, -1.279158389329825e-28, 0.0, 0.0, 0.0, -1.8205873646775647e-14, -1.2757821386279928e-28, 6.120786770672823e-07, 0.0, -6.407404684167401e-16, 3.900266715980785e-17, 0.0, 0.0, 0.0, 2.490089965655025e-06]
twist: 
  twist: 
    linear: 
      x: 5.1999945825e-09
      y: 0.0
      z: 0.0
    angular: 
      x: 0.0
      y: 0.0
      z: 4.80944341772e-05
  covariance: [9.999995992874866e-10, 0.0, 0.0, 0.0, 0.0, 0.0, 0.0, 1436577.6856265368, 0.0, 0.0, 0.0, 0.0, 0.0, 0.0, 6.65853444306241e-07, -6.637056696233674e-25, -4.0400587821886584e-26, 0.0, 0.0, 0.0, -6.637056696233675e-25, 4.279406528653069e-07, -4.917328658958689e-33, 0.0, 0.0, 0.0, -4.040058782188657e-26, -4.6565380346846125e-33, 4.279406528653069e-07, 0.0, 0.0, 0.0, 0.0, 0.0, 0.0, 9.987976385449408e-10]
---
header: 
  seq: 7555
  stamp: 
    secs: 1518208653
    nsecs: 635280848
  frame_id: "swarmone/odom"
child_frame_id: "swarmone/base_link"
pose: 
  pose: 
    position: 
      x: 0.344841608803
      y: 10.5134242052
      z: 0.0
    orientation: 
      x: 0.0
      y: 0.0
      z: 0.677972045788
      w: 0.735087685334
  covariance: [121820399847.31644, -8505439592.305743, 0.0, 0.0, 0.0, -4.793818962210822e-16, -8505439592.305742, 597326129.571773, 0.0, 0.0, 0.0, 3.336893519807714e-17, 0.0, 0.0, 5.636536840327711e-07, -8.6528285668393e-22, -1.6775575825003433e-14, 0.0, 0.0, 0.0, -8.652828566839301e-22, 4.482814413516924e-07, -3.22328058075227e-29, 0.0, 0.0, 0.0, -1.6775575825003436e-14, -3.2378740596903655e-29, 4.482814413516919e-07, 0.0, -4.793818962210821e-16, 3.3368935198077144e-17, 0.0, 0.0, 0.0, 9.594426878230734e-07]
twist: 
  twist: 
    linear: 
      x: 5.19884642801e-09
      y: 0.0
      z: 0.0
    angular: 
      x: 0.0
      y: 0.0
      z: 0.000124424128215
  covariance: [9.999996027914733e-10, 0.0, 0.0, 0.0, 0.0, 0.0, 0.0, 1437152.3266142325, 0.0, 0.0, 0.0, 0.0, 0.0, 0.0, 4.929693980416475e-07, -1.6121310505347203e-25, -1.304925393486164e-26, 0.0, 0.0, 0.0, -1.6121310505347207e-25, 3.301912655657569e-07, -7.328227887893666e-34, 0.0, 0.0, 0.0, -1.3049253934861638e-26, -6.834363637061964e-34, 3.301912655657569e-07, 0.0, 0.0, 0.0, 0.0, 0.0, 0.0, 9.968893952517886e-10]
---
header: 
  seq: 7556
  stamp: 
    secs: 1518208653
    nsecs: 735240221
  frame_id: "swarmone/odom"
child_frame_id: "swarmone/base_link"
pose: 
  pose: 
    position: 
      x: 0.34487339135
      y: 10.5138270791
      z: 0.0
    orientation: 
      x: 0.0
      y: 0.0
      z: 0.872355578567
      w: 0.488871910159
  covariance: [121901138353.83517, -8511571381.85506, 0.0, 0.0, 0.0, -1.790402697361336e-16, -8511571381.855058, 597789856.5290821, 0.0, 0.0, 0.0, -6.542618174200627e-17, 0.0, 0.0, 5.716744619746355e-07, 2.750746376915705e-21, -1.0525803018687372e-14, 0.0, 0.0, 0.0, 2.7507463769157055e-21, 4.547364709502201e-07, 6.415308778571926e-29, 0.0, 0.0, 0.0, -1.052580301868737e-14, 7.104222512233108e-29, 4.547364709502198e-07, 0.0, -1.7904026973613357e-16, -6.542618174200628e-17, 0.0, 0.0, 0.0, 1.0023580320601048e-06]
twist: 
  twist: 
    linear: 
      x: 0.0809999708438
      y: 0.0
      z: 0.0
    angular: 
      x: 0.0
      y: 0.0
      z: -0.00988087655878
  covariance: [9.99999599838005e-10, 0.0, 0.0, 0.0, 0.0, 0.0, 0.0, 1437722.878473456, 0.0, 0.0, 0.0, 0.0, 0.0, 0.0, 5.002192955114235e-07, -9.254592605613331e-26, 5.663864326241216e-26, 0.0, 0.0, 0.0, -9.254592605613326e-26, 3.333845461172196e-07, 1.5400497511721795e-33, 0.0, 0.0, 0.0, 5.663864326241215e-26, 1.7962989668022828e-33, 3.333845461172196e-07, 0.0, 0.0, 0.0, 0.0, 0.0, 0.0, 9.970219128567042e-10]
---
header: 
  seq: 7557
  stamp: 
    secs: 1518208653
    nsecs: 835251808
  frame_id: "swarmone/odom"
child_frame_id: "swarmone/base_link"
pose: 
  pose: 
    position: 
      x: 0.329116919288
      y: 10.5395852974
      z: 0.0
    orientation: 
      x: 0.0
      y: 0.0
      z: 0.613117436337
      w: 0.789991777969
  covariance: [121970303087.8432, -8492864901.657853, 0.0, 0.0, 0.0, -1.2876588899294706e-14, -8492864901.657852, 594788733.9886773, 0.0, 0.0, 0.0, -4.364608657901647e-16, 0.0, 0.0, 5.742829368987052e-07, -2.393641884468476e-19, -6.821489927965554e-13, 0.0, 0.0, 0.0, -2.3936418844684755e-19, 4.568549326847819e-07, -4.425464013724302e-25, 0.0, 0.0, 0.0, -6.821489927965552e-13, -4.425507728466158e-25, 4.568549326836887e-07, 0.0, -1.2876588899294706e-14, -4.3646086579016414e-16, 0.0, 0.0, 0.0, 1.0166631468062941e-06]
twist: 
  twist: 
    linear: 
      x: 0.218100121894
      y: 0.0
      z: 0.0
    angular: 
      x: 0.0
      y: 0.0
      z: -0.0795301779581
  covariance: [9.999996000469317e-10, 0.0, 0.0, 0.0, 0.0, 0.0, 0.0, 1438293.8794655167, 0.0, 0.0, 0.0, 0.0, 0.0, 0.0, 5.025900941085787e-07, -6.964640216935581e-24, -1.783331155529348e-24, 0.0, 0.0, 0.0, -6.96464021693558e-24, 3.344423659827505e-07, -3.6742823251624246e-30, 0.0, 0.0, 0.0, -1.7833311555293483e-24, -3.674471528235012e-30, 3.344423659827505e-07, 0.0, 0.0, 0.0, 0.0, 0.0, 0.0, 9.970636114131215e-10]
---
header: 
  seq: 7558
  stamp: 
    secs: 1518208653
    nsecs: 935217381
  frame_id: "swarmone/odom"
child_frame_id: "swarmone/base_link"
pose: 
  pose: 
    position: 
      x: 0.333361529501
      y: 10.5561577669
      z: 0.0
    orientation: 
      x: 0.0
      y: 0.0
      z: 0.677971994707
      w: 0.735087732447
  covariance: [122048857689.47003, -8505708722.824675, 0.0, 0.0, 0.0, -5.0214488359842134e-15, -8505708722.824674, 596214339.6369066, 0.0, 0.0, 0.0, 8.98679843010037e-16, 0.0, 0.0, 5.844066747838641e-07, 1.4042776089337112e-20, -1.6449500132439817e-13, 0.0, 0.0, 0.0, 1.4042776089337103e-20, 4.651658353183111e-07, 7.598216170623353e-26, 0.0, 0.0, 0.0, -1.6449500132439815e-13, 7.598433277860121e-26, 4.651658353182459e-07, 0.0, -5.021448835984214e-15, 8.986798430100371e-16, 0.0, 0.0, 0.0, 1.0738836057906245e-06]
twist: 
  twist: 
    linear: 
      x: 0.17219998078
      y: 0.0
      z: 0.0
    angular: 
      x: 0.0
      y: 0.0
      z: -0.0796941284173
  covariance: [9.999995998628346e-10, 0.0, 0.0, 0.0, 0.0, 0.0, 0.0, 1438864.7688039776, 0.0, 0.0, 0.0, 0.0, 0.0, 0.0, 5.118525339225722e-07, -1.883201081818519e-24, -1.5298771317303564e-25, 0.0, 0.0, 0.0, -1.8832010818185185e-24, 3.3864016078506785e-07, -8.784306779351327e-32, 0.0, 0.0, 0.0, -1.5298771317303564e-25, -8.782780605713142e-32, 3.3864016078506785e-07, 0.0, 0.0, 0.0, 0.0, 0.0, 0.0, 9.972193478632833e-10]
---
header: 
  seq: 7559
  stamp: 
    secs: 1518208654
    nsecs:  34986019
  frame_id: "swarmone/odom"
child_frame_id: "swarmone/base_link"
pose: 
  pose: 
    position: 
      x: 0.334759878079
      y: 10.5734301303
      z: 0.0
    orientation: 
      x: 0.0
      y: 0.0
      z: 0.692537345281
      w: 0.721382024583
  covariance: [122129567346.9997, -8511836465.271161, 0.0, 0.0, 0.0, -5.936179492485954e-15, -8511836465.27116, 596677525.986204, 0.0, 0.0, 0.0, 3.6670838368159027e-16, 0.0, 0.0, 5.663604227194093e-07, -1.3093164507223347e-21, -2.256168174804695e-13, 0.0, 0.0, 0.0, -1.3093164507223307e-21, 4.504500374296787e-07, 2.5186783162383543e-26, 0.0, 0.0, 0.0, -2.2561681748046957e-13, 2.5186036769345784e-26, 4.504500374295612e-07, 0.0, -5.936179492485954e-15, 3.667083836815902e-16, 0.0, 0.0, 0.0, 9.737478025675867e-07]
twist: 
  twist: 
    linear: 
      x: 0.125100020087
      y: 0.0
      z: 0.0
    angular: 
      x: 0.0
      y: 0.0
      z: -0.00978544034564
  covariance: [9.999995990730175e-10, 0.0, 0.0, 0.0, 0.0, 0.0, 0.0, 1439434.684081491, 0.0, 0.0, 0.0, 0.0, 0.0, 0.0, 4.954092402692608e-07, -2.22419633537388e-24, -9.090786515905175e-26, 0.0, 0.0, 0.0, -2.2241963353738805e-24, 3.3125874424320525e-07, -6.473088379463547e-32, 0.0, 0.0, 0.0, -9.090786515905178e-26, -6.47064071610786e-32, 3.3125874424320525e-07, 0.0, 0.0, 0.0, 0.0, 0.0, 0.0, 9.969348590145207e-10]
---
header: 
  seq: 7560
  stamp: 
    secs: 1518208654
    nsecs: 135350466
  frame_id: "swarmone/odom"
child_frame_id: "swarmone/base_link"
pose: 
  pose: 
    position: 
      x: 0.335328949334
      y: 10.5874380622
      z: 0.0
    orientation: 
      x: 0.0
      y: 0.0
      z: 0.874789065813
      w: 0.484503963177
  covariance: [122210998063.29745, -8516380366.776689, 0.0, 0.0, 0.0, -4.447360974976749e-15, -8516380366.776688, 596912569.2657614, 0.0, 0.0, 0.0, -1.2739214667247258e-15, 0.0, 0.0, 5.716744756948203e-07, 7.136651495400598e-20, -2.0049104714696797e-13, 0.0, 0.0, 0.0, 7.136651495400596e-20, 4.5473654292311584e-07, 3.4385514613628117e-26, 0.0, 0.0, 0.0, -2.0049104714696792e-13, 3.440648168339903e-26, 4.54736542923022e-07, 0.0, -4.447360974976747e-15, -1.2739214667247258e-15, 0.0, 0.0, 0.0, 1.002358032060778e-06]
twist: 
  twist: 
    linear: 
      x: 0.142300004808
      y: 0.0
      z: 0.0
    angular: 
      x: 0.0
      y: 0.0
      z: 0.0499702190547
  covariance: [9.999996014530715e-10, 0.0, 0.0, 0.0, 0.0, 0.0, 0.0, 1440008.1546563385, 0.0, 0.0, 0.0, 0.0, 0.0, 0.0, 5.002193235281638e-07, -1.7538252064086853e-24, 1.0964507358428802e-24, 0.0, 0.0, 0.0, -1.753825206408685e-24, 3.3338474533200837e-07, 5.7997883547608565e-31, 0.0, 0.0, 0.0, 1.0964507358428797e-24, 5.808778992691971e-31, 3.3338474533200837e-07, 0.0, 0.0, 0.0, 0.0, 0.0, 0.0, 9.970219128567224e-10]
---
header: 
  seq: 7561
  stamp: 
    secs: 1518208654
    nsecs: 235265732
  frame_id: "swarmone/odom"
child_frame_id: "swarmone/base_link"
pose: 
  pose: 
    position: 
      x: 0.31434844637
      y: 10.6209778561
      z: 0.0
    orientation: 
      x: 0.0
      y: 0.0
      z: 0.601199292037
      w: 0.799099124799
  covariance: [122279811321.83562, -8497288114.432613, 0.0, 0.0, 0.0, -1.602535794466699e-14, -8497288114.432613, 593865702.2708675, 0.0, 0.0, 0.0, -5.047447802421441e-16, 0.0, 0.0, 5.716744604850467e-07, -3.9962466782573604e-19, -8.440216321246418e-13, 0.0, 0.0, 0.0, -3.9962466782573604e-19, 4.5473676285662646e-07, -2.5969919579243324e-25, 0.0, 0.0, 0.0, -8.44021632124642e-13, -2.5970034991835406e-25, 4.547367628549631e-07, 0.0, -1.602535794466699e-14, -5.047447802421439e-16, 0.0, 0.0, 0.0, 1.0023580320600323e-06]
twist: 
  twist: 
    linear: 
      x: 0.238600164562
      y: 0.0
      z: 0.0
    angular: 
      x: 0.0
      y: 0.0
      z: -0.0295532870329
  covariance: [9.999995996613658e-10, 0.0, 0.0, 0.0, 0.0, 0.0, 0.0, 1440579.20993961, 0.0, 0.0, 0.0, 0.0, 0.0, 0.0, 5.00219292460167e-07, -8.361951866908673e-24, -2.409866678150944e-24, 0.0, 0.0, 0.0, -8.36195186690867e-24, 3.333845244912315e-07, -6.033448791060749e-30, 0.0, 0.0, 0.0, -2.409866678150944e-24, -6.033450179225625e-30, 3.333845244912315e-07, 0.0, 0.0, 0.0, 0.0, 0.0, 0.0, 9.970219128567023e-10]
---
header: 
  seq: 7562
  stamp: 
    secs: 1518208654
    nsecs: 334951878
  frame_id: "swarmone/odom"
child_frame_id: "swarmone/base_link"
pose: 
  pose: 
    position: 
      x: 0.319164176893
      y: 10.6376774019
      z: 0.0
    orientation: 
      x: 0.0
      y: 0.0
      z: 0.620985791039
      w: 0.783821821161
  covariance: [122357669099.50671, -8511267032.72481, 0.0, 0.0, 0.0, -8.03407479351194e-15, -8511267032.724811, 595453162.0784619, 0.0, 0.0, 0.0, 2.0373682394788053e-15, 0.0, 0.0, 7.655808600059326e-07, 2.0138604528401785e-20, -1.5011677772623142e-13, 0.0, 0.0, 0.0, 2.0138604528401797e-20, 6.428023023240762e-07, 2.6369522793045796e-26, 0.0, 0.0, 0.0, -1.5011677772623142e-13, 2.6367754256236957e-26, 6.428023023239799e-07, 0.0, -8.03407479351194e-15, 2.0373682394788053e-15, 0.0, 0.0, 0.0, 2.9335485227843593e-06]
twist: 
  twist: 
    linear: 
      x: 0.195999965502
      y: 0.0
      z: 0.0
    angular: 
      x: 0.0
      y: 0.0
      z: -0.0599489544006
  covariance: [9.999995987412209e-10, 0.0, 0.0, 0.0, 0.0, 0.0, 0.0, 1441149.1061451046, 0.0, 0.0, 0.0, 0.0, 0.0, 0.0, 6.958949907446456e-07, -6.4711009860744215e-24, -1.5205525189621566e-24, 0.0, 0.0, 0.0, -6.471100986074423e-24, 4.511465486278939e-07, -1.715872008211298e-30, 0.0, 0.0, 0.0, -1.5205525189621564e-24, -1.716333844060629e-30, 4.511465486278939e-07, 0.0, 0.0, 0.0, 0.0, 0.0, 0.0, 9.989790878121946e-10]
---
header: 
  seq: 7563
  stamp: 
    secs: 1518208654
    nsecs: 434763908
  frame_id: "swarmone/odom"
child_frame_id: "swarmone/base_link"
pose: 
  pose: 
    position: 
      x: 0.32253425708
      y: 10.6520189204
      z: 0.0
    orientation: 
      x: 0.0
      y: 0.0
      z: 0.61705950873
      w: 0.786916490287
  covariance: [122436691809.28722, -8523347706.111643, 0.0, 0.0, 0.0, -8.560497705763775e-15, -8523347706.111644, 596767234.7614126, 0.0, 0.0, 0.0, 2.0278560769082724e-15, 0.0, 0.0, 5.636536528128696e-07, -9.73740779279267e-21, -1.271534118691908e-13, 0.0, 0.0, 0.0, -9.737407792792677e-21, 4.482814012276746e-07, 7.395142577196602e-26, 0.0, 0.0, 0.0, -1.2715341186919082e-13, 7.395687002388493e-26, 4.4828140122763745e-07, 0.0, -8.560497705763772e-15, 2.0278560769082716e-15, 0.0, 0.0, 0.0, 9.5944268782161e-07]
twist: 
  twist: 
    linear: 
      x: 0.137799984526
      y: 0.0
      z: 0.0
    angular: 
      x: 0.0
      y: 0.0
      z: -0.00978225785456
  covariance: [9.999995992478113e-10, 0.0, 0.0, 0.0, 0.0, 0.0, 0.0, 1441719.8725903232, 0.0, 0.0, 0.0, 0.0, 0.0, 0.0, 4.929693348408927e-07, -1.1993864340398972e-24, -2.944449010948362e-25, 0.0, 0.0, 0.0, -1.1993864340398968e-24, 3.3019082561656407e-07, -1.290238215643093e-31, 0.0, 0.0, 0.0, -2.944449010948361e-25, -1.2934520419576947e-31, 3.3019082561656407e-07, 0.0, 0.0, 0.0, 0.0, 0.0, 0.0, 9.968893952517458e-10]
---
header: 
  seq: 7564
  stamp: 
    secs: 1518208654
    nsecs: 534755230
  frame_id: "swarmone/odom"
child_frame_id: "swarmone/base_link"
pose: 
  pose: 
    position: 
      x: 0.324745899394
      y: 10.6610363071
      z: 0.0
    orientation: 
      x: 0.0
      y: 0.0
      z: 0.841471718912
      w: 0.540301162566
  covariance: [122515706814.63115, -8535842932.949714, 0.0, 0.0, 0.0, -2.168465925800897e-15, -8535842932.949717, 598140827.6373558, 0.0, 0.0, 0.0, 2.0972222025235212e-17, 0.0, 0.0, 5.716744630606847e-07, 7.492616966900471e-20, -6.227549981118769e-14, 0.0, 0.0, 0.0, 7.492616966900471e-20, 4.5473690111999756e-07, 1.3395465275969405e-26, 0.0, 0.0, 0.0, -6.227549981118771e-14, 1.336044792828189e-26, 4.5473690111998845e-07, 0.0, -2.1684659258008972e-15, 2.097222202523536e-17, 0.0, 0.0, 0.0, 1.002358032060158e-06]
twist: 
  twist: 
    linear: 
      x: 0.153799957662
      y: 0.0
      z: 0.0
    angular: 
      x: 0.0
      y: 0.0
      z: 0.0104764936752
  covariance: [9.999995999658605e-10, 0.0, 0.0, 0.0, 0.0, 0.0, 0.0, 1442291.8153825079, 0.0, 0.0, 0.0, 0.0, 0.0, 0.0, 5.002192977290123e-07, -5.85747206895537e-25, 2.667965326175314e-25, 0.0, 0.0, 0.0, -5.857472068955366e-25, 3.333845618837208e-07, 4.5934013433237977e-32, 0.0, 0.0, 0.0, 2.6679653261753137e-25, 4.638423945445425e-32, 3.333845618837208e-07, 0.0, 0.0, 0.0, 0.0, 0.0, 0.0, 9.970219128567056e-10]
---
header: 
  seq: 7565
  stamp: 
    secs: 1518208654
    nsecs: 634723186
  frame_id: "swarmone/odom"
child_frame_id: "swarmone/base_link"
pose: 
  pose: 
    position: 
      x: 0.310290606329
      y: 10.6926389607
      z: 0.0
    orientation: 
      x: 0.0
      y: 0.0
      z: 0.581035977347
      w: 0.813877873534
  covariance: [122589711060.65274, -8521532446.214297, 0.0, 0.0, 0.0, -1.407254072216152e-14, -8521532446.2143, 595744677.8023983, 0.0, 0.0, 0.0, 6.02254793097464e-16, 0.0, 0.0, 5.768598300590185e-07, -4.2528344480462723e-19, -7.093085472846487e-13, 0.0, 0.0, 0.0, -4.252834448046272e-19, 4.5895690624572974e-07, -6.473026864704754e-25, 0.0, 0.0, 0.0, -7.093085472846486e-13, -6.473070151043972e-25, 4.5895690624454045e-07, 0.0, -1.407254072216152e-14, 6.022547930974644e-16, 0.0, 0.0, 0.0, 1.030968261552323e-06]
twist: 
