header: 
  seq: 6186
  stamp: 
    secs: 1518208516
    nsecs: 735196114
  frame_id: "swarmone/odom"
child_frame_id: "swarmone/base_link"
pose: 
  pose: 
    position: 
      x: 0.348060325734
      y: 6.97165614344
      z: 0.0
    orientation: 
      x: 0.0
      y: 0.0
      z: 0.651834011918
      w: 0.758361668933
  covariance: [44915987192.59664, -2964492911.9016676, 0.0, 0.0, 0.0, -4.519288588024388e-16, -2964492911.901673, 198606320.65635422, 0.0, 0.0, 0.0, 7.022841451687658e-17, 0.0, 0.0, 5.636536572110833e-07, -2.337474420355028e-21, -2.4338687686687272e-14, 0.0, 0.0, 0.0, -2.337474420355028e-21, 4.4828135428094635e-07, -1.3033706665302807e-28, 0.0, 0.0, 0.0, -2.4338687686687275e-14, -1.304240965308864e-28, 4.48281354280945e-07, 0.0, -4.519288588024388e-16, 7.022841451687658e-17, 0.0, 0.0, 0.0, 9.59442687821769e-07]
twist: 
  twist: 
    linear: 
      x: 7.60077062401e-09
      y: 0.0
      z: 0.0
    angular: 
      x: 0.0
      y: 0.0
      z: 0.000124424127861
  covariance: [9.99999599759729e-10, 0.0, 0.0, 0.0, 0.0, 0.0, 0.0, 788883.6331877686, 0.0, 0.0, 0.0, 0.0, 0.0, 0.0, 4.929693436266097e-07, -2.316621220518798e-25, -3.52012354686999e-26, 0.0, 0.0, 0.0, -2.3166212205187982e-25, 3.301908834220921e-07, -2.5277311627106062e-33, 0.0, 0.0, 0.0, -3.5201235468699904e-26, -2.592564176468583e-33, 3.301908834220921e-07, 0.0, 0.0, 0.0, 0.0, 0.0, 0.0, 9.96889395251752e-10]
---
header: 
  seq: 6187
  stamp: 
    secs: 1518208516
    nsecs: 835067511
  frame_id: "swarmone/odom"
child_frame_id: "swarmone/base_link"
pose: 
  pose: 
    position: 
      x: 0.34824756222
      y: 6.97288837438
      z: 0.0
    orientation: 
      x: 0.0
      y: 0.0
      z: 0.651834019783
      w: 0.758361662173
  covariance: [44951983970.42333, -2968453248.183958, 0.0, 0.0, 0.0, -6.033458969594681e-16, -2968453248.183963, 198978746.8307393, 0.0, 0.0, 0.0, 9.16781800917286e-17, 0.0, 0.0, 5.690338231997402e-07, -3.193906956361491e-21, -3.229408188492404e-14, 0.0, 0.0, 0.0, -3.1939069563614907e-21, 4.526016363928163e-07, -2.378692039224717e-28, 0.0, 0.0, 0.0, -3.229408188492403e-14, -2.407963180333925e-28, 4.526016363928139e-07, 0.0, -6.033458969594682e-16, 9.16781800917286e-17, 0.0, 0.0, 0.0, 9.880529173138565e-07]
twist: 
  twist: 
    linear: 
      x: 9.99998621409e-09
      y: 0.0
      z: 0.0
    angular: 
      x: 0.0
      y: 0.0
      z: 0.000120839421716
  covariance: [9.999995994855035e-10, 0.0, 0.0, 0.0, 0.0, 0.0, 0.0, 789265.8101821814, 0.0, 0.0, 0.0, 0.0, 0.0, 0.0, 4.97825786364401e-07, -3.2183619713779467e-25, -4.890292190851075e-26, 0.0, 0.0, 0.0, -3.2183619713779476e-25, 3.323233407519339e-07, -4.7748741485572494e-33, 0.0, 0.0, 0.0, -4.890292190851074e-26, -4.903260949845021e-33, 3.323233407519339e-07, 0.0, 0.0, 0.0, 0.0, 0.0, 0.0, 9.96979012949129e-10]
---
header: 
  seq: 6188
  stamp: 
    secs: 1518208516
    nsecs: 934693813
  frame_id: "swarmone/odom"
child_frame_id: "swarmone/base_link"
pose: 
  pose: 
    position: 
      x: 0.348433879158
      y: 6.9741145538
      z: 0.0
    orientation: 
      x: 0.0
      y: 0.0
      z: 0.651834016167
      w: 0.758361665281
  covariance: [44987915460.96816, -2972407058.1545753, 0.0, 0.0, 0.0, -6.018559005557114e-16, -2972407058.154579, 199350697.12250865, 0.0, 0.0, 0.0, 9.145176732715184e-17, 0.0, 0.0, 5.66360417723093e-07, -3.1257801379552434e-21, -3.2069876625253646e-14, 0.0, 0.0, 0.0, -3.1257801379552438e-21, 4.504499548010033e-07, -2.29735272063452e-28, 0.0, 0.0, 0.0, -3.206987662525364e-14, -2.32599737455997e-28, 4.5044995480100084e-07, 0.0, -6.018559005557114e-16, 9.145176732715184e-17, 0.0, 0.0, 0.0, 9.737478025673457e-07]
twist: 
  twist: 
    linear: 
      x: 9.99972632476e-09
      y: 0.0
      z: 0.0
    angular: 
      x: 0.0
      y: 0.0
      z: 0.000122605578063
  covariance: [9.999995985001912e-10, 0.0, 0.0, 0.0, 0.0, 0.0, 0.0, 789647.1722345307, 0.0, 0.0, 0.0, 0.0, 0.0, 0.0, 4.954092301171533e-07, -3.1241150097956015e-25, -4.747084282703476e-26, 0.0, 0.0, 0.0, -3.1241150097956006e-25, 3.3125867284259483e-07, -4.621251814120647e-33, 0.0, 0.0, 0.0, -4.747084282703475e-26, -4.589674747229721e-33, 3.3125867284259483e-07, 0.0, 0.0, 0.0, 0.0, 0.0, 0.0, 9.96934859014514e-10]
---
header: 
  seq: 6189
  stamp: 
    secs: 1518208517
    nsecs:  34622908
  frame_id: "swarmone/odom"
child_frame_id: "swarmone/base_link"
pose: 
  pose: 
    position: 
      x: 0.34860622692
      y: 6.97524879993
      z: 0.0
    orientation: 
      x: 0.0
      y: 0.0
      z: 0.651834321013
      w: 0.758361403256
  covariance: [45023979297.274124, -2976376090.4520736, 0.0, 0.0, 0.0, -1.283784060408856e-15, -2976376090.4520774, 199724217.75236833, 0.0, 0.0, 0.0, 1.9507065125025906e-16, 0.0, 0.0, 7.639980480651084e-07, -6.851315952479955e-21, -3.140814527082697e-14, 0.0, 0.0, 0.0, -6.851315952479952e-21, 6.409679116548713e-07, -9.107220004740535e-28, 0.0, 0.0, 0.0, -3.1408145270826956e-14, -9.128826888418986e-28, 6.409679116548671e-07, 0.0, -1.283784060408856e-15, 1.9507065125025906e-16, 0.0, 0.0, 0.0, 2.9049382932925324e-06]
twist: 
  twist: 
    linear: 
      x: 9.20025046425e-09
      y: 0.0
      z: 0.0
    angular: 
      x: 0.0
      y: 0.0
      z: 3.09284754867e-05
  covariance: [9.999995997167572e-10, 0.0, 0.0, 0.0, 0.0, 0.0, 0.0, 790029.816737934, 0.0, 0.0, 0.0, 0.0, 0.0, 0.0, 6.941207928203767e-07, -1.3592796760976866e-24, -2.0654201551652861e-25, 0.0, 0.0, 0.0, -1.3592796760976868e-24, 4.497064367782464e-07, -4.9300884898587926e-32, 0.0, 0.0, 0.0, -2.065420155165286e-25, -4.918590532842362e-32, 4.497064367782464e-07, 0.0, 0.0, 0.0, 0.0, 0.0, 0.0, 9.989690503031305e-10]
---
header: 
  seq: 6190
  stamp: 
    secs: 1518208517
    nsecs: 134827852
  frame_id: "swarmone/odom"
child_frame_id: "swarmone/base_link"
pose: 
  pose: 
    position: 
      x: 0.348787165172
      y: 6.97643962653
      z: 0.0
    orientation: 
      x: 0.0
      y: 0.0
      z: 0.655617652956
      w: 0.755093036077
  covariance: [45060165981.73653, -2980359261.868276, 0.0, 0.0, 0.0, -9.498413574276354e-16, -2980359261.8682804, 200099206.213588, 0.0, 0.0, 0.0, 1.4050019727799825e-16, 0.0, 0.0, 5.609128918052142e-07, -2.7098671858743276e-21, -3.0673466230361695e-14, 0.0, 0.0, 0.0, -2.7098671858743276e-21, 4.460955659796034e-07, -1.8798090002546075e-28, 0.0, 0.0, 0.0, -3.0673466230361695e-14, -1.90627549813977e-28, 4.460955659796013e-07, 0.0, -9.498413574276354e-16, 1.4050019727799828e-16, 0.0, 0.0, 0.0, 9.451375730761629e-07]
twist: 
  twist: 
    linear: 
      x: 9.59946432413e-09
      y: 0.0
      z: 0.0
    angular: 
      x: 0.0
      y: 0.0
      z: 0.000126297437054
  covariance: [9.999996008191958e-10, 0.0, 0.0, 0.0, 0.0, 0.0, 0.0, 790413.6416231032, 0.0, 0.0, 0.0, 0.0, 0.0, 0.0, 4.90505743695398e-07, -2.8612809814778608e-25, -4.055971678662651e-26, 0.0, 0.0, 0.0, -2.861280981477861e-25, 3.2911965952937146e-07, -3.913965544097079e-33, 0.0, 0.0, 0.0, -4.055971678662653e-26, -4.046755740014455e-33, 3.2911965952937146e-07, 0.0, 0.0, 0.0, 0.0, 0.0, 0.0, 9.968425624991441e-10]
---
header: 
  seq: 6191
  stamp: 
    secs: 1518208517
    nsecs: 234502554
  frame_id: "swarmone/odom"
child_frame_id: "swarmone/base_link"
pose: 
  pose: 
    position: 
      x: 0.348940379148
      y: 6.97752062704
      z: 0.0
    orientation: 
      x: 0.0
      y: 0.0
      z: 0.655618150459
      w: 0.755092604115
  covariance: [45096237248.66739, -2984146147.2005343, 0.0, 0.0, 0.0, -1.2266616801349459e-15, -2984146147.200538, 200448049.77312565, 0.0, 0.0, 0.0, 1.738597146821581e-16, 0.0, 0.0, 7.647921154859312e-07, -8.173400905428506e-21, -2.9936027999325535e-14, 0.0, 0.0, 0.0, -8.173400905428508e-21, 6.418875733860096e-07, -1.0406061693334855e-27, 0.0, 0.0, 0.0, -2.9936027999325535e-14, -1.0399290887437347e-27, 6.418875733860058e-07, 0.0, -1.2266616801349459e-15, 1.738597146821581e-16, 0.0, 0.0, 0.0, 2.919243408038222e-06]
twist: 
  twist: 
    linear: 
      x: 8.80050948435e-09
      y: 0.0
      z: 0.0
    angular: 
      x: 0.0
      y: 0.0
      z: 4.1036235113e-05
  covariance: [9.999995986951353e-10, 0.0, 0.0, 0.0, 0.0, 0.0, 0.0, 790795.5587795652, 0.0, 0.0, 0.0, 0.0, 0.0, 0.0, 6.950104685402744e-07, -1.3047623101118352e-24, -1.8492898327695529e-25, 0.0, 0.0, 0.0, -1.3047623101118356e-24, 4.504273912466439e-07, -4.319214217110263e-32, 0.0, 0.0, 0.0, -1.8492898327695529e-25, -4.1266705031451346e-32, 4.504273912466439e-07, 0.0, 0.0, 0.0, 0.0, 0.0, 0.0, 9.989740936089217e-10]
---
header: 
  seq: 6192
  stamp: 
    secs: 1518208517
    nsecs: 335121870
  frame_id: "swarmone/odom"
child_frame_id: "swarmone/base_link"
pose: 
  pose: 
    position: 
      x: 0.349110699716
      y: 6.97872233441
      z: 0.0
    orientation: 
      x: 0.0
      y: 0.0
      z: 0.655618175662
      w: 0.755092582231
  covariance: [45132673846.3646, -2987971950.173917, 0.0, 0.0, 0.0, -1.78362403563041e-15, -2987971950.1739206, 200800589.89135072, 0.0, 0.0, 0.0, 2.527992441975686e-16, 0.0, 0.0, 7.702044378709783e-07, -9.241601059674617e-21, -3.272651830664907e-14, 0.0, 0.0, 0.0, -9.241601059674619e-21, 6.481954566958814e-07, -1.3145299426927258e-27, 0.0, 0.0, 0.0, -3.272651830664908e-14, -1.3177707298112688e-27, 6.481954566958768e-07, 0.0, -1.7836240356304103e-15, 2.527992441975686e-16, 0.0, 0.0, 0.0, 3.019379211262666e-06]
twist: 
  twist: 
    linear: 
      x: 9.60036990183e-09
      y: 0.0
      z: 0.0
    angular: 
      x: 0.0
      y: 0.0
      z: 3.96775444053e-05
  covariance: [9.999996024631116e-10, 0.0, 0.0, 0.0, 0.0, 0.0, 0.0, 791181.2201144106, 0.0, 0.0, 0.0, 0.0, 0.0, 0.0, 7.010962469769716e-07, -1.481994697018696e-24, -2.100487982907816e-25, 0.0, 0.0, 0.0, -1.4819946970186953e-24, 4.5542256246733694e-07, -5.386972276981421e-32, 0.0, 0.0, 0.0, -2.1004879829078147e-25, -5.362131974278241e-32, 4.5542256246733694e-07, 0.0, 0.0, 0.0, 0.0, 0.0, 0.0, 9.990080608972098e-10]
---
header: 
  seq: 6193
  stamp: 
    secs: 1518208517
    nsecs: 434693813
  frame_id: "swarmone/odom"
child_frame_id: "swarmone/base_link"
pose: 
  pose: 
    position: 
      x: 0.34928455189
      y: 6.97994895985
      z: 0.0
    orientation: 
      x: 0.0
      y: 0.0
      z: 0.655617602464
      w: 0.755093079918
  covariance: [45168754398.80726, -2991760949.59293, 0.0, 0.0, 0.0, -1.025148155557312e-15, -2991760949.5929327, 201149849.93569303, 0.0, 0.0, 0.0, 1.4529720838802217e-16, 0.0, 0.0, 5.690338129628025e-07, -2.23052034893128e-21, -3.219684947315761e-14, 0.0, 0.0, 0.0, -2.2305203489312815e-21, 4.5260157138736886e-07, -1.6613896168186441e-28, 0.0, 0.0, 0.0, -3.219684947315762e-14, -1.6713920488732585e-28, 4.526015713873665e-07, 0.0, -1.0251481555573121e-15, 1.452972083880222e-16, 0.0, 0.0, 0.0, 9.880529173134123e-07]
twist: 
  twist: 
    linear: 
      x: 9.99970688892e-09
      y: 0.0
      z: 0.0
    angular: 
      x: 0.0
      y: 0.0
      z: 9.06295660697e-05
  covariance: [9.999995982815411e-10, 0.0, 0.0, 0.0, 0.0, 0.0, 0.0, 791562.9904172447, 0.0, 0.0, 0.0, 0.0, 0.0, 0.0, 4.97825765642543e-07, -3.2194663000153855e-25, -4.5630798865568325e-26, 0.0, 0.0, 0.0, -3.219466300015386e-25, 3.323231979942139e-07, -4.64360934488618e-33, 0.0, 0.0, 0.0, -4.5630798865568313e-26, -4.450055677869669e-33, 3.323231979942139e-07, 0.0, 0.0, 0.0, 0.0, 0.0, 0.0, 9.969790129491155e-10]
---
header: 
  seq: 6194
  stamp: 
    secs: 1518208517
    nsecs: 534988642
  frame_id: "swarmone/odom"
child_frame_id: "swarmone/base_link"
pose: 
  pose: 
    position: 
      x: 0.349453797324
      y: 6.98114306909
      z: 0.0
    orientation: 
      x: 0.0
      y: 0.0
      z: 0.655618085649
      w: 0.755092660387
  covariance: [45205120260.180145, -2995580524.257516, 0.0, 0.0, 0.0, -1.252806615146391e-15, -2995580524.2575192, 201502041.55191353, 0.0, 0.0, 0.0, 1.7756535390357716e-16, 0.0, 0.0, 7.496285869798813e-07, -8.323303514512734e-21, -3.343545418266486e-14, 0.0, 0.0, 0.0, -8.323303514512734e-21, 6.245785764774905e-07, -1.1138761764922108e-27, 0.0, 0.0, 0.0, -3.343545418266486e-14, -1.1091680777706192e-27, 6.24578576477486e-07, 0.0, -1.2528066151463912e-15, 1.7756535390357716e-16, 0.0, 0.0, 0.0, 2.661751342609179e-06]
twist: 
  twist: 
    linear: 
      x: 9.60071894207e-09
      y: 0.0
      z: 0.0
    angular: 
      x: 0.0
      y: 0.0
      z: 4.49985487691e-05
  covariance: [9.999996011764296e-10, 0.0, 0.0, 0.0, 0.0, 0.0, 0.0, 791947.6564774599, 0.0, 0.0, 0.0, 0.0, 0.0, 0.0, 6.781606090672105e-07, -1.3092843220719698e-24, -1.8556993796754897e-25, 0.0, 0.0, 0.0, -1.3092843220719703e-24, 4.3715279975022175e-07, -4.259924495701417e-32, 0.0, 0.0, 0.0, -1.8556993796754904e-25, -4.2840342223939356e-32, 4.3715279975022175e-07, 0.0, 0.0, 0.0, 0.0, 0.0, 0.0, 9.988750357209674e-10]
---
header: 
  seq: 6195
  stamp: 
    secs: 1518208517
    nsecs: 635367393
  frame_id: "swarmone/odom"
child_frame_id: "swarmone/base_link"
pose: 
  pose: 
    position: 
      x: 0.349644488382
      y: 6.98248850007
      z: 0.0
    orientation: 
      x: 0.0
      y: 0.0
      z: 0.655618164861
      w: 0.75509259161
  covariance: [45241540057.78941, -2999406328.4487176, 0.0, 0.0, 0.0, -1.9250249228327614e-15, -2999406328.448721, 201854919.02787033, 0.0, 0.0, 0.0, 2.728406527648051e-16, 0.0, 0.0, 7.67915676632475e-07, -1.0256395138823313e-20, -3.684388470051028e-14, 0.0, 0.0, 0.0, -1.0256395138823313e-20, 6.455195031989133e-07, -1.6277665691891718e-27, 0.0, 0.0, 0.0, -3.684388470051027e-14, -1.628682709130885e-27, 6.455195031989075e-07, 0.0, -1.9250249228327614e-15, 2.728406527648051e-16, 0.0, 0.0, 0.0, 2.9764638670239106e-06]
twist: 
  twist: 
    linear: 
      x: 1.07996001308e-08
      y: 0.0
      z: 0.0
    angular: 
      x: 0.0
      y: 0.0
      z: 4.02486649746e-05
  covariance: [9.999996015103182e-10, 0.0, 0.0, 0.0, 0.0, 0.0, 0.0, 792332.7691712792, 0.0, 0.0, 0.0, 0.0, 0.0, 0.0, 6.985180563817943e-07, -1.6417052891987865e-24, -2.326852003567491e-25, 0.0, 0.0, 0.0, -1.6417052891987865e-24, 4.532929933770207e-07, -6.65951646132395e-32, 0.0, 0.0, 0.0, -2.32685200356749e-25, -6.632983782952402e-32, 4.532929933770207e-07, 0.0, 0.0, 0.0, 0.0, 0.0, 0.0, 9.98993782874741e-10]
---
header: 
  seq: 6196
  stamp: 
    secs: 1518208517
    nsecs: 735279322
  frame_id: "swarmone/odom"
child_frame_id: "swarmone/base_link"
pose: 
  pose: 
    position: 
      x: 0.349826534545
      y: 6.98377293847
      z: 0.0
    orientation: 
      x: 0.0
      y: 0.0
      z: 0.655617594363
      w: 0.755093086952
  covariance: [45277813839.08848, -3003217374.5600433, 0.0, 0.0, 0.0, -1.0422207696892246e-15, -3003217374.5600457, 202206546.8639087, 0.0, 0.0, 0.0, 1.4771696254117621e-16, 0.0, 0.0, 5.609128813586679e-07, -2.1956583850171406e-21, -3.313323554301637e-14, 0.0, 0.0, 0.0, -2.1956583850171403e-21, 4.460955008868176e-07, -1.6615416204436406e-28, 0.0, 0.0, 0.0, -3.3133235543016365e-14, -1.6714791765385263e-28, 4.4609550088681505e-07, 0.0, -1.0422207696892246e-15, 1.4771696254117621e-16, 0.0, 0.0, 0.0, 9.451375730756773e-07]
twist: 
  twist: 
    linear: 
      x: 1.03997139199e-08
      y: 0.0
      z: 0.0
    angular: 
      x: 0.0
      y: 0.0
      z: 9.4723077679e-05
  covariance: [9.999995996485172e-10, 0.0, 0.0, 0.0, 0.0, 0.0, 0.0, 792716.2148126262, 0.0, 0.0, 0.0, 0.0, 0.0, 0.0, 4.905057226037645e-07, -3.091003821258741e-25, -4.381004881512107e-26, 0.0, 0.0, 0.0, -3.0910038212587407e-25, 3.291195135280582e-07, -4.3177061142001406e-33, 0.0, 0.0, 0.0, -4.381004881512106e-26, -4.446540448820008e-33, 3.291195135280582e-07, 0.0, 0.0, 0.0, 0.0, 0.0, 0.0, 9.968425624991294e-10]
---
header: 
  seq: 6197
  stamp: 
    secs: 1518208517
    nsecs: 835039377
  frame_id: "swarmone/odom"
child_frame_id: "swarmone/base_link"
pose: 
  pose: 
    position: 
      x: 0.350001050315
      y: 6.98500421832
      z: 0.0
    orientation: 
      x: 0.0
      y: 0.0
      z: 0.651834013184
      w: 0.758361667845
  covariance: [45314055726.5979, -3007025709.131612, 0.0, 0.0, 0.0, -5.88255041927974e-16, -3007025709.1316137, 202558038.32319245, 0.0, 0.0, 0.0, 8.739896341815562e-17, 0.0, 0.0, 5.636536508502349e-07, -3.0692262412188242e-21, -3.1963586287050966e-14, 0.0, 0.0, 0.0, -3.069226241218825e-21, 4.482813339408466e-07, -2.2484943117128676e-28, 0.0, 0.0, 0.0, -3.196358628705097e-14, -2.248093869752751e-28, 4.482813339408443e-07, 0.0, -5.882550419279741e-16, 8.739896341815562e-17, 0.0, 0.0, 0.0, 9.594426878214676e-07]
twist: 
  twist: 
    linear: 
      x: 9.99960762804e-09
      y: 0.0
      z: 0.0
    angular: 
      x: 0.0
      y: 0.0
      z: 0.000124424127706
  covariance: [9.999995990384887e-10, 0.0, 0.0, 0.0, 0.0, 0.0, 0.0, 793099.201001723, 0.0, 0.0, 0.0, 0.0, 0.0, 0.0, 4.929693307429516e-07, -3.0423131889510045e-25, -4.6227612350303783e-26, 0.0, 0.0, 0.0, -3.0423131889510054e-25, 3.301907935232022e-07, -4.627296154001805e-33, 0.0, 0.0, 0.0, -4.622761235030377e-26, -4.242295613662737e-33, 3.301907935232022e-07, 0.0, 0.0, 0.0, 0.0, 0.0, 0.0, 9.968893952517435e-10]
---
header: 
  seq: 6198
  stamp: 
    secs: 1518208517
    nsecs: 934998035
  frame_id: "swarmone/odom"
child_frame_id: "swarmone/base_link"
pose: 
  pose: 
    position: 
      x: 0.350166006714
      y: 6.98608982074
      z: 0.0
    orientation: 
      x: 0.0
      y: 0.0
      z: 0.651834489879
      w: 0.758361258111
  covariance: [45350339768.39334, -3011024395.519336, 0.0, 0.0, 0.0, -1.205037383143881e-15, -3011024395.5193386, 202935486.53197503, 0.0, 0.0, 0.0, 1.8310511486176216e-16, 0.0, 0.0, 7.60767418101546e-07, -8.602853416252285e-21, -3.0173238393471485e-14, 0.0, 0.0, 0.0, -8.602853416252284e-21, 6.372417016165317e-07, -1.0854125010316e-27, 0.0, 0.0, 0.0, -3.0173238393471485e-14, -1.0846590774474685e-27, 6.37241701616528e-07, 0.0, -1.205037383143881e-15, 1.8310511486176216e-16, 0.0, 0.0, 0.0, 2.8477178343081167e-06]
twist: 
  twist: 
    linear: 
      x: 8.80050085583e-09
      y: 0.0
      z: 0.0
    angular: 
      x: 0.0
      y: 0.0
      z: 4.20651277692e-05
  covariance: [9.999995998351418e-10, 0.0, 0.0, 0.0, 0.0, 0.0, 0.0, 793483.0733457583, 0.0, 0.0, 0.0, 0.0, 0.0, 0.0, 6.905095458038161e-07, -1.2763962137993617e-24, -1.9394781854425633e-25, 0.0, 0.0, 0.0, -1.2763962137993617e-24, 4.4680326597869246e-07, -4.298243260767809e-32, 0.0, 0.0, 0.0, -1.939478185442563e-25, -4.298231994234635e-32, 4.4680326597869246e-07, 0.0, 0.0, 0.0, 0.0, 0.0, 0.0, 9.989483712811248e-10]
---
header: 
  seq: 6199
  stamp: 
    secs: 1518208518
    nsecs:  35238028
  frame_id: "swarmone/odom"
child_frame_id: "swarmone/base_link"
pose: 
  pose: 
    position: 
      x: 0.350347086814
      y: 6.9872815457
      z: 0.0
    orientation: 
      x: 0.0
      y: 0.0
      z: 0.65183401255
      w: 0.75836166839
  covariance: [45386749338.581, -3015037556.368531, 0.0, 0.0, 0.0, -9.439897570376841e-16, -3015037556.368533, 203314439.14494038, 0.0, 0.0, 0.0, 1.4343799152864185e-16, 0.0, 0.0, 5.636536678907869e-07, -2.9604795351148857e-21, -3.083461641316558e-14, 0.0, 0.0, 0.0, -2.960479535114886e-21, 4.4828138875671916e-07, -2.0834397412697863e-28, 0.0, 0.0, 0.0, -3.0834616413165585e-14, -2.100634062702941e-28, 4.482813887567171e-07, 0.0, -9.43989757037684e-16, 1.4343799152864183e-16, 0.0, 0.0, 0.0, 9.594426878223202e-07]
twist: 
  twist: 
    linear: 
      x: 9.6002301421e-09
      y: 0.0
      z: 0.0
    angular: 
      x: 0.0
      y: 0.0
      z: 0.000124424127922
  covariance: [9.99999600958749e-10, 0.0, 0.0, 0.0, 0.0, 0.0, 0.0, 793868.1504705633, 0.0, 0.0, 0.0, 0.0, 0.0, 0.0, 4.929693653707295e-07, -2.94029026263833e-25, -4.4677629638037824e-26, 0.0, 0.0, 0.0, -2.9402902626383296e-25, 3.301910383612584e-07, -4.1020750108175516e-33, 0.0, 0.0, 0.0, -4.467762963803784e-26, -4.26194170920315e-33, 3.301910383612584e-07, 0.0, 0.0, 0.0, 0.0, 0.0, 0.0, 9.968893952517664e-10]
---
header: 
  seq: 6200
  stamp: 
    secs: 1518208518
    nsecs: 134522438
  frame_id: "swarmone/odom"
child_frame_id: "swarmone/base_link"
pose: 
  pose: 
    position: 
      x: 0.350532124488
      y: 6.98849931915
      z: 0.0
    orientation: 
      x: 0.0
      y: 0.0
      z: 0.655617667353
      w: 0.755093023577
  covariance: [45422834930.51134, -3019015655.1633162, 0.0, 0.0, 0.0, -6.062464129998147e-16, -3019015655.1633186, 203690217.91080102, 0.0, 0.0, 0.0, 8.792935860933344e-17, 0.0, 0.0, 5.716744388675805e-07, -3.02210018005949e-21, -3.2243364649460566e-14, 0.0, 0.0, 0.0, -3.022100180059491e-21, 4.5473644243312894e-07, -2.2659251527554477e-28, 0.0, 0.0, 0.0, -3.224336464946056e-14, -2.2840090978950506e-28, 4.547364424331264e-07, 0.0, -6.062464129998147e-16, 8.792935860933343e-17, 0.0, 0.0, 0.0, 1.0023580320589712e-06]
twist: 
  twist: 
    linear: 
      x: 9.99985703964e-09
      y: 0.0
      z: 0.0
    angular: 
      x: 0.0
      y: 0.0
      z: 0.000119123425919
  covariance: [9.999995971175931e-10, 0.0, 0.0, 0.0, 0.0, 0.0, 0.0, 794249.6794691276, 0.0, 0.0, 0.0, 0.0, 0.0, 0.0, 5.00219248327148e-07, -3.2908666138567325e-25, -4.664283839268074e-26, 0.0, 0.0, 0.0, -3.290866613856733e-25, 3.333842106493313e-07, -4.4778962384779936e-33, 0.0, 0.0, 0.0, -4.6642838392680744e-26, -4.638276525699828e-33, 3.333842106493313e-07, 0.0, 0.0, 0.0, 0.0, 0.0, 0.0, 9.970219128566742e-10]
---
header: 
  seq: 6201
  stamp: 
    secs: 1518208518
    nsecs: 235275745
  frame_id: "swarmone/odom"
child_frame_id: "swarmone/base_link"
pose: 
  pose: 
    position: 
      x: 0.350703009561
      y: 6.98970499833
      z: 0.0
    orientation: 
      x: 0.0
      y: 0.0
      z: 0.655617671587
      w: 0.755093019901
  covariance: [45459531774.83295, -3022874355.8724346, 0.0, 0.0, 0.0, -6.05153648759299e-16, -3022874355.8724375, 204046852.02566856, 0.0, 0.0, 0.0, 8.577078925917868e-17, 0.0, 0.0, 5.742829616001697e-07, -2.9985432125859107e-21, -3.15432870002023e-14, 0.0, 0.0, 0.0, -2.9985432125859107e-21, 4.5685488695989083e-07, -2.2190658486255286e-28, 0.0, 0.0, 0.0, -3.154328700020231e-14, -2.224441444255891e-28, 4.568548869598886e-07, 0.0, -6.05153648759299e-16, 8.57707892591787e-17, 0.0, 0.0, 0.0, 1.016663146807521e-06]
twist: 
  twist: 
    linear: 
      x: 9.5998564098e-09
      y: 0.0
      z: 0.0
    angular: 
      x: 0.0
      y: 0.0
      z: 0.000117455485349
  covariance: [9.99999602991284e-10, 0.0, 0.0, 0.0, 0.0, 0.0, 0.0, 794636.978075505, 0.0, 0.0, 0.0, 0.0, 0.0, 0.0, 5.025901446937178e-07, -3.2911312165001045e-25, -4.664652751477756e-26, 0.0, 0.0, 0.0, -3.2911312165001045e-25, 3.344427279162012e-07, -4.725535935555664e-33, 0.0, 0.0, 0.0, -4.6646527514777554e-26, -4.500872890597639e-33, 3.344427279162012e-07, 0.0, 0.0, 0.0, 0.0, 0.0, 0.0, 9.970636114131535e-10]
---
header: 
  seq: 6202
  stamp: 
    secs: 1518208518
    nsecs: 335290670
  frame_id: "swarmone/odom"
child_frame_id: "swarmone/base_link"
pose: 
  pose: 
    position: 
      x: 0.350864386662
      y: 6.99084359414
      z: 0.0
    orientation: 
      x: 0.0
      y: 0.0
      z: 0.655617657185
      w: 0.755093032405
  covariance: [45495983187.24733, -3026707835.609292, 0.0, 0.0, 0.0, -5.566905142808717e-16, -3026707835.6092944, 204401267.18735972, 0.0, 0.0, 0.0, 7.890191140039511e-17, 0.0, 0.0, 5.636536598650427e-07, -2.6448771475127538e-21, -2.9482501436524186e-14, 0.0, 0.0, 0.0, -2.644877147512753e-21, 4.482813629624573e-07, -1.797924404075973e-28, 0.0, 0.0, 0.0, -2.9482501436524173e-14, -1.7761912974164762e-28, 4.482813629624552e-07, 0.0, -5.566905142808716e-16, 7.890191140039511e-17, 0.0, 0.0, 0.0, 9.594426878218954e-07]
twist: 
  twist: 
    linear: 
      x: 9.19999061308e-09
      y: 0.0
      z: 0.0
    angular: 
      x: 0.0
      y: 0.0
      z: 0.0001244241279
  covariance: [9.999996000602834e-10, 0.0, 0.0, 0.0, 0.0, 0.0, 0.0, 795021.562823913, 0.0, 0.0, 0.0, 0.0, 0.0, 0.0, 4.929693490045286e-07, -2.8104414634098973e-25, -3.98335199551685e-26, 0.0, 0.0, 0.0, -2.8104414634098973e-25, 3.3019092099752563e-07, -3.625914317280172e-33, 0.0, 0.0, 0.0, -3.9833519955168495e-26, -3.595154881829116e-33, 3.3019092099752563e-07, 0.0, 0.0, 0.0, 0.0, 0.0, 0.0, 9.968893952517557e-10]
---
header: 
  seq: 6203
  stamp: 
    secs: 1518208518
    nsecs: 435379267
  frame_id: "swarmone/odom"
child_frame_id: "swarmone/base_link"
pose: 
  pose: 
    position: 
      x: 0.35102599284
      y: 6.99198380588
      z: 0.0
    orientation: 
      x: 0.0
      y: 0.0
      z: 0.655617969683
      w: 0.755092761076
  covariance: [45532484905.62259, -3030547191.6874256, 0.0, 0.0, 0.0, -6.005610572896832e-16, -3030547191.6874275, 204756337.42867422, 0.0, 0.0, 0.0, 8.511987900517364e-17, 0.0, 0.0, 5.892901097698482e-07, -6.329107678475681e-21, -3.0703216728318733e-14, 0.0, 0.0, 0.0, -6.32910767847568e-21, 4.692268950652037e-07, -4.765639644127451e-28, 0.0, 0.0, 0.0, -3.0703216728318733e-14, -4.697194170077653e-28, 4.6922689506520135e-07, 0.0, -6.005610572896831e-16, 8.511987900517363e-17, 0.0, 0.0, 0.0, 1.1024938352830318e-06]
twist: 
  twist: 
    linear: 
      x: 9.19985281012e-09
      y: 0.0
      z: 0.0
    angular: 
      x: 0.0
      y: 0.0
      z: 0.000216705387347
  covariance: [9.999996003546482e-10, 0.0, 0.0, 0.0, 0.0, 0.0, 0.0, 795406.5550630634, 0.0, 0.0, 0.0, 0.0, 0.0, 0.0, 5.163555973147607e-07, -3.6284065220439216e-25, -5.142682584850633e-26, 0.0, 0.0, 0.0, -3.6284065220439216e-25, 3.407193336078976e-07, -5.187629054349671e-33, 0.0, 0.0, 0.0, -5.1426825848506316e-26, -5.153028031169992e-33, 3.407193336078976e-07, 0.0, 0.0, 0.0, 0.0, 0.0, 0.0, 9.972911813068075e-10]
---
header: 
  seq: 6204
  stamp: 
    secs: 1518208518
    nsecs: 534797192
  frame_id: "swarmone/odom"
child_frame_id: "swarmone/base_link"
pose: 
  pose: 
    position: 
      x: 0.351178519522
      y: 6.99305996367
      z: 0.0
    orientation: 
      x: 0.0
      y: 0.0
      z: 0.655617660786
      w: 0.755093029278
  covariance: [45568765278.7816, -3034363830.2143593, 0.0, 0.0, 0.0, -5.499676795602651e-16, -3034363830.214361, 205109416.69938794, 0.0, 0.0, 0.0, 7.794889197067159e-17, 0.0, 0.0, 5.663604104087522e-07, -2.565389025383931e-21, -2.816440977411186e-14, 0.0, 0.0, 0.0, -2.5653890253839308e-21, 4.504499315261534e-07, -1.669006498732003e-28, 0.0, 0.0, 0.0, -2.8164409774111865e-14, -1.6633762137765807e-28, 4.504499315261516e-07, 0.0, -5.49967679560265e-16, 7.794889197067159e-17, 0.0, 0.0, 0.0, 9.737478025669982e-07]
twist: 
  twist: 
    linear: 
      x: 8.80054848787e-09
      y: 0.0
      z: 0.0
    angular: 
      x: 0.0
      y: 0.0
      z: 0.000122605578082
  covariance: [9.99999597658687e-10, 0.0, 0.0, 0.0, 0.0, 0.0, 0.0, 795789.0905784428, 0.0, 0.0, 0.0, 0.0, 0.0, 0.0, 4.954092152723419e-07, -2.747934450769666e-25, -3.894758137674146e-26, 0.0, 0.0, 0.0, -2.747934450769666e-25, 3.3125856882895595e-07, -3.297876033897894e-33, 0.0, 0.0, 0.0, -3.894758137674144e-26, -3.234151531618116e-33, 3.3125856882895595e-07, 0.0, 0.0, 0.0, 0.0, 0.0, 0.0, 9.96934859014504e-10]
---
header: 
  seq: 6205
  stamp: 
    secs: 1518208518
    nsecs: 634611845
  frame_id: "swarmone/odom"
child_frame_id: "swarmone/base_link"
pose: 
  pose: 
    position: 
      x: 0.351360094416
      y: 6.99434104968
      z: 0.0
    orientation: 
      x: 0.0
      y: 0.0
      z: 0.651834523058
      w: 0.758361229593
  covariance: [45605213710.802765, -3038198836.9152803, 0.0, 0.0, 0.0, -1.4804032276780374e-15, -3038198836.9152827, 205464311.00479475, 0.0, 0.0, 0.0, 2.228182724526017e-16, 0.0, 0.0, 7.67915670982162e-07, -1.0513721645461734e-20, -3.5280072985365294e-14, 0.0, 0.0, 0.0, -1.0513721645461734e-20, 6.455194764729763e-07, -1.5985677708568689e-27, 0.0, 0.0, 0.0, -3.5280072985365307e-14, -1.5978987389762909e-27, 6.45519476472971e-07, 0.0, -1.4804032276780374e-15, 2.228182724526017e-16, 0.0, 0.0, 0.0, 2.976463867022925e-06]
twist: 
  twist: 
    linear: 
      x: 1.03997227253e-08
      y: 0.0
      z: 0.0
    angular: 
      x: 0.0
      y: 0.0
      z: 4.02486649006e-05
  covariance: [9.999995992578187e-10, 0.0, 0.0, 0.0, 0.0, 0.0, 0.0, 796173.2759717153, 0.0, 0.0, 0.0, 0.0, 0.0, 0.0, 6.985180420434632e-07, -1.5696443467672547e-24, -2.3851368138430484e-25, 0.0, 0.0, 0.0, -1.5696443467672547e-24, 4.5329280297541795e-07, -6.532888992285106e-32, 0.0, 0.0, 0.0, -2.3851368138430493e-25, -6.617079571981266e-32, 4.5329280297541795e-07, 0.0, 0.0, 0.0, 0.0, 0.0, 0.0, 9.989937828747382e-10]
---
header: 
  seq: 6206
  stamp: 
    secs: 1518208518
    nsecs: 734427691
  frame_id: "swarmone/odom"
child_frame_id: "swarmone/base_link"
pose: 
  pose: 
    position: 
      x: 0.351547103534
      y: 6.99557183661
      z: 0.0
    orientation: 
      x: 0.0
      y: 0.0
      z: 0.655617601834
      w: 0.755093080465
  covariance: [45641632463.83189, -3042217215.155876, 0.0, 0.0, 0.0, -1.0179174782333102e-15, -3042217215.1558785, 205844642.52800345, 0.0, 0.0, 0.0, 1.505195814546488e-16, 0.0, 0.0, 5.690338214017142e-07, -2.235935070043761e-21, -3.227423823422628e-14, 0.0, 0.0, 0.0, -2.235935070043761e-21, 4.5260159860319693e-07, -1.6873488784669636e-28, 0.0, 0.0, 0.0, -3.227423823422627e-14, -1.6993726675749857e-28, 4.526015986031944e-07, 0.0, -1.0179174782333102e-15, 1.505195814546488e-16, 0.0, 0.0, 0.0, 9.880529173138197e-07]
twist: 
  twist: 
    linear: 
      x: 9.99918186098e-09
      y: 0.0
      z: 0.0
    angular: 
      x: 0.0
      y: 0.0
      z: 9.06295661813e-05
  covariance: [9.999995992631386e-10, 0.0, 0.0, 0.0, 0.0, 0.0, 0.0, 796557.5895860139, 0.0, 0.0, 0.0, 0.0, 0.0, 0.0, 4.978257828251087e-07, -3.227045714964423e-25, -4.5743913091516653e-26, 0.0, 0.0, 0.0, -3.227045714964423e-25, 3.323233192903782e-07, -4.743739438345035e-33, 0.0, 0.0, 0.0, -4.574391309151664e-26, -4.680091202727227e-33, 3.323233192903782e-07, 0.0, 0.0, 0.0, 0.0, 0.0, 0.0, 9.969790129491267e-10]
---
header: 
  seq: 6207
  stamp: 
    secs: 1518208518
    nsecs: 835413694
  frame_id: "swarmone/odom"
child_frame_id: "swarmone/base_link"
pose: 
  pose: 
    position: 
      x: 0.351704209807
      y: 6.99668029813
      z: 0.0
    orientation: 
      x: 0.0
      y: 0.0
      z: 0.655618964184
      w: 0.755091897587
  covariance: [45678556069.58184, -3046103389.213369, 0.0, 0.0, 0.0, -2.4350396485512758e-15, -3046103389.2133713, 206204508.68209141, 0.0, 0.0, 0.0, 3.4512813019098963e-16, 0.0, 0.0, 8.6639079615184e-07, -1.3233214244411953e-20, -2.2995315061826e-14, 0.0, 0.0, 0.0, -1.3233214244411956e-20, 7.731860045566309e-07, -2.2791759339913075e-27, 0.0, 0.0, 0.0, -2.2995315061826002e-14, -2.275929202871974e-27, 7.73186004556627e-07, 0.0, -2.4350396485512758e-15, 3.4512813019098963e-16, 0.0, 0.0, 0.0, 6.152199340665638e-06]
twist: 
  twist: 
    linear: 
      x: 8.80093556019e-09
      y: 0.0
      z: 0.0
    angular: 
      x: 0.0
      y: 0.0
      z: 1.94893707426e-05
  covariance: [9.999996039060851e-10, 0.0, 0.0, 0.0, 0.0, 0.0, 0.0, 796946.5344114163, 0.0, 0.0, 0.0, 0.0, 0.0, 0.0, 8.159770684815012e-07, -2.0730084427943697e-24, -2.9381482522882702e-25, 0.0, 0.0, 0.0, -2.07300844279437e-24, 5.759878812649558e-07, -1.1459973282435747e-31, 0.0, 0.0, 0.0, -2.9381482522882716e-25, -1.1598941395442068e-31, 5.759878812649558e-07, 0.0, 0.0, 0.0, 0.0, 0.0, 0.0, 9.99512765490499e-10]
---
header: 
  seq: 6208
  stamp: 
    secs: 1518208518
    nsecs: 934503317
  frame_id: "swarmone/odom"
child_frame_id: "swarmone/base_link"
pose: 
  pose: 
    position: 
      x: 0.351869511821
      y: 6.99784661485
      z: 0.0
    orientation: 
      x: 0.0
      y: 0.0
      z: 0.655617685989
      w: 0.755093007396
  covariance: [45714809592.81347, -3049919550.346617, 0.0, 0.0, 0.0, -1.626769084300069e-15, -3049919550.346619, 206557999.09703168, 0.0, 0.0, 0.0, 2.3056365533134626e-16, 0.0, 0.0, 5.844066466580612e-07, -3.1627300026400877e-21, -3.1506376391062836e-14, 0.0, 0.0, 0.0, -3.1627300026400874e-21, 4.651657758986997e-07, -2.385933338419076e-28, 0.0, 0.0, 0.0, -3.1506376391062836e-14, -2.4094318955605216e-28, 4.6516577589869725e-07, 0.0, -1.6267690843000687e-15, 2.305636553313463e-16, 0.0, 0.0, 0.0, 1.073883605789296e-06]
twist: 
  twist: 
    linear: 
      x: 9.60141402148e-09
      y: 0.0
      z: 0.0
    angular: 
      x: 0.0
      y: 0.0
      z: 0.000111226029363
  covariance: [9.999995963269993e-10, 0.0, 0.0, 0.0, 0.0, 0.0, 0.0, 797328.298422374, 0.0, 0.0, 0.0, 0.0, 0.0, 0.0, 5.118524759259351e-07, -3.5906929680373127e-25, -5.0892328486723015e-26, 0.0, 0.0, 0.0, -3.5906929680373136e-25, 3.3863974338008527e-07, -5.3076892820938675e-33, 0.0, 0.0, 0.0, -5.0892328486723015e-26, -5.372502692892322e-33, 3.3863974338008527e-07, 0.0, 0.0, 0.0, 0.0, 0.0, 0.0, 9.97219347863249e-10]
---
header: 
  seq: 6209
  stamp: 
    secs: 1518208519
    nsecs:  34319401
  frame_id: "swarmone/odom"
child_frame_id: "swarmone/base_link"
pose: 
  pose: 
    position: 
      x: 0.352058190728
      y: 6.99917785604
      z: 0.0
    orientation: 
      x: 0.0
      y: 0.0
      z: 0.659384861679
      w: 0.751805562754
  covariance: [45751352213.927505, -3053766754.520841, 0.0, 0.0, 0.0, -6.909649339232417e-16, -3053766754.520842, 206914477.161115, 0.0, 0.0, 0.0, 9.332611372996084e-17, 0.0, 0.0, 5.742829303287635e-07, -2.3298274810864094e-21, -3.5155048992656336e-14, 0.0, 0.0, 0.0, -2.3298274810864098e-21, 4.568547523691003e-07, -1.9181208226950724e-28, 0.0, 0.0, 0.0, -3.515504899265634e-14, -1.9297486565070623e-28, 4.5685475236909746e-07, 0.0, -6.909649339232417e-16, 9.332611372996084e-17, 0.0, 0.0, 0.0, 1.0166631468059697e-06]
twist: 
  twist: 
    linear: 
      x: 1.07994267071e-08
      y: 0.0
      z: 0.0
    angular: 
      x: 0.0
      y: 0.0
      z: 8.80916136358e-05
  covariance: [9.99999599263589e-10, 0.0, 0.0, 0.0, 0.0, 0.0, 0.0, 797712.9845253776, 0.0, 0.0, 0.0, 0.0, 0.0, 0.0, 5.025900806702964e-07, -3.673160998687746e-25, -4.831966281478529e-26, 0.0, 0.0, 0.0, -3.673160998687746e-25, 3.3444226994800107e-07, -5.500587076080204e-33, 0.0, 0.0, 0.0, -4.831966281478529e-26, -5.2442736211261216e-33, 3.3444226994800107e-07, 0.0, 0.0, 0.0, 0.0, 0.0, 0.0, 9.970636114131132e-10]
---
header: 
  seq: 6210
  stamp: 
    secs: 1518208519
    nsecs: 135153770
  frame_id: "swarmone/odom"
child_frame_id: "swarmone/base_link"
pose: 
  pose: 
    position: 
      x: 0.352210645125
      y: 7.00033677729
      z: 0.0
    orientation: 
      x: 0.0
      y: 0.0
      z: 0.65561766501
      w: 0.755093025611
  covariance: [45788341904.773964, -3057473241.6750655, 0.0, 0.0, 0.0, -5.724732743244933e-16, -3057473241.6750665, 207249535.95701897, 0.0, 0.0, 0.0, 7.915508641397894e-17, 0.0, 0.0, 5.690338560962369e-07, -2.7709696557262138e-21, -2.999775327065028e-14, 0.0, 0.0, 0.0, -2.7709696557262138e-21, 4.5260174271740777e-07, -1.9423860808634887e-28, 0.0, 0.0, 0.0, -2.999775327065028e-14, -1.9151276783139105e-28, 4.5260174271740565e-07, 0.0, -5.724732743244934e-16, 7.915508641397894e-17, 0.0, 0.0, 0.0, 9.880529173154517e-07]
twist: 
  twist: 
    linear: 
      x: 9.20025786111e-09
      y: 0.0
      z: 0.0
    angular: 
      x: 0.0
      y: 0.0
      z: 0.000120839422236
  covariance: [9.999996033104491e-10, 0.0, 0.0, 0.0, 0.0, 0.0, 0.0, 798101.7206630514, 0.0, 0.0, 0.0, 0.0, 0.0, 0.0, 4.978258533593646e-07, -2.994033642759597e-25, -4.2435414422057076e-26, 0.0, 0.0, 0.0, -2.994033642759595e-25, 3.3232381413405537e-07, -3.742859411637146e-33, 0.0, 0.0, 0.0, -4.2435414422057053e-26, -3.9990099220468584e-33, 3.3232381413405537e-07, 0.0, 0.0, 0.0, 0.0, 0.0, 0.0, 9.969790129491728e-10]
---
header: 
  seq: 6211
  stamp: 
    secs: 1518208519
    nsecs: 234667063
  frame_id: "swarmone/odom"
child_frame_id: "swarmone/base_link"
pose: 
  pose: 
    position: 
      x: 0.352384299387
      y: 7.00156199443
      z: 0.0
    orientation: 
      x: 0.0
      y: 0.0
      z: 0.655617667987
      w: 0.755093023027
  covariance: [45824820590.44684, -3061314834.7091765, 0.0, 0.0, 0.0, -6.13815146085205e-16, -3061314834.7091775, 207605703.04725054, 0.0, 0.0, 0.0, 8.699841772630378e-17, 0.0, 0.0, 5.716744467414793e-07, -3.0290327749836296e-21, -3.231867701772371e-14, 0.0, 0.0, 0.0, -3.02903277498363e-21, 4.547364679537325e-07, -2.276403603627162e-28, 0.0, 0.0, 0.0, -3.231867701772371e-14, -2.2946177388843436e-28, 4.547364679537301e-07, 0.0, -6.13815146085205e-16, 8.699841772630379e-17, 0.0, 0.0, 0.0, 1.002358032059358e-06]
twist: 
  twist: 
    linear: 
      x: 1.00002554779e-08
      y: 0.0
      z: 0.0
    angular: 
      x: 0.0
      y: 0.0
      z: 0.00011912342605
  covariance: [9.999995980442356e-10, 0.0, 0.0, 0.0, 0.0, 0.0, 0.0, 798485.4875905543, 0.0, 0.0, 0.0, 0.0, 0.0, 0.0, 5.00219264407745e-07, -3.2986196822419886e-25, -4.675266598181183e-26, 0.0, 0.0, 0.0, -3.298619682241989e-25, 3.3338432502337536e-07, -4.670671991857675e-33, 0.0, 0.0, 0.0, -4.6752665981811835e-26, -4.7664943180330855e-33, 3.3338432502337536e-07, 0.0, 0.0, 0.0, 0.0, 0.0, 0.0, 9.970219128566845e-10]
---
header: 
  seq: 6212
  stamp: 
    secs: 1518208519
    nsecs: 335382462
  frame_id: "swarmone/odom"
child_frame_id: "swarmone/base_link"
pose: 
  pose: 
    position: 
      x: 0.352576398951
      y: 7.00291733623
      z: 0.0
    orientation: 
      x: 0.0
      y: 0.0
      z: 0.651833960932
      w: 0.758361712757
  covariance: [45861763644.869064, -3065205951.2805552, 0.0, 0.0, 0.0, -6.734486845929773e-16, -3065205951.2805557, 207966575.48349774, 0.0, 0.0, 0.0, 1.0003354643289545e-16, 0.0, 0.0, 5.716744874936102e-07, -2.658336759060754e-21, -3.5323529654017575e-14, 0.0, 0.0, 0.0, -2.658336759060755e-21, 4.5473656711711405e-07, -2.188846308564914e-28, 0.0, 0.0, 0.0, -3.532352965401758e-14, -2.195756375891147e-28, 4.5473656711711114e-07, 0.0, -6.734486845929773e-16, 1.0003354643289545e-16, 0.0, 0.0, 0.0, 1.0023580320613575e-06]
twist: 
  twist: 
    linear: 
      x: 1.079932253e-08
      y: 0.0
      z: 0.0
    angular: 
      x: 0.0
      y: 0.0
      z: 8.93425701127e-05
  covariance: [9.999996028418528e-10, 0.0, 0.0, 0.0, 0.0, 0.0, 0.0, 798874.0156099478, 0.0, 0.0, 0.0, 0.0, 0.0, 0.0, 5.002193476240489e-07, -3.600062703389381e-25, -5.470270534662557e-26, 0.0, 0.0, 0.0, -3.6000627033893813e-25, 3.333849166930829e-07, -5.989394686246616e-33, 0.0, 0.0, 0.0, -5.470270534662557e-26, -5.9891628642431233e-33, 3.333849166930829e-07, 0.0, 0.0, 0.0, 0.0, 0.0, 0.0, 9.970219128567375e-10]
---
header: 
  seq: 6213
  stamp: 
    secs: 1518208519
    nsecs: 435223341
  frame_id: "swarmone/odom"
child_frame_id: "swarmone/base_link"
pose: 
  pose: 
    position: 
      x: 0.352740972207
      y: 7.00400042835
      z: 0.0
    orientation: 
      x: 0.0
      y: 0.0
      z: 0.655618099421
      w: 0.755092648429
  covariance: [45898355734.303154, -3069247519.6478467, 0.0, 0.0, 0.0, -1.1662491071074941e-15, -3069247519.647847, 208349956.75190762, 0.0, 0.0, 0.0, 1.671490986806404e-16, 0.0, 0.0, 7.53164833012431e-07, -7.730242732185716e-21, -3.039930440271659e-14, 0.0, 0.0, 0.0, -7.730242732185716e-21, 6.285680672022895e-07, -9.52014398782485e-28, 0.0, 0.0, 0.0, -3.03993044027166e-14, -9.520415067667667e-28, 6.285680672022858e-07, 0.0, -1.1662491071074943e-15, 1.671490986806404e-16, 0.0, 0.0, 0.0, 2.7189718015928826e-06]
twist: 
  twist: 
    linear: 
      x: 8.80049084301e-09
      y: 0.0
      z: 0.0
    angular: 
      x: 0.0
      y: 0.0
      z: 4.40532974681e-05
  covariance: [9.999995993630928e-10, 0.0, 0.0, 0.0, 0.0, 0.0, 0.0, 799259.2943888082, 0.0, 0.0, 0.0, 0.0, 0.0, 0.0, 6.820639600086292e-07, -1.220521897771964e-24, -1.7298387718277373e-25, 0.0, 0.0, 0.0, -1.2205218977719644e-24, 4.4015772253572683e-07, -3.7430500400658533e-32, 0.0, 0.0, 0.0, -1.7298387718277375e-25, -3.7000048197402557e-32, 4.4015772253572683e-07, 0.0, 0.0, 0.0, 0.0, 0.0, 0.0, 9.988986670127352e-10]
---
header: 
  seq: 6214
  stamp: 
    secs: 1518208519
    nsecs: 534815073
  frame_id: "swarmone/odom"
child_frame_id: "swarmone/base_link"
pose: 
  pose: 
    position: 
      x: 0.352907954567
      y: 7.00517858165
      z: 0.0
    orientation: 
      x: 0.0
      y: 0.0
      z: 0.655617657185
      w: 0.755093032406
  covariance: [45934933502.88387, -3073101352.929293, 0.0, 0.0, 0.0, -9.139229764430125e-16, -3073101352.929294, 208707606.2555502, 0.0, 0.0, 0.0, 1.2953308732522315e-16, 0.0, 0.0, 5.636536449915696e-07, -2.7478176941088765e-21, -3.063719524263597e-14, 0.0, 0.0, 0.0, -2.747817694108876e-21, 4.4828131572820973e-07, -1.9241999720794938e-28, 0.0, 0.0, 0.0, -3.063719524263597e-14, -1.934451947940537e-28, 4.4828131572820756e-07, 0.0, -9.139229764430125e-16, 1.2953308732522315e-16, 0.0, 0.0, 0.0, 9.594426878212349e-07]
twist: 
  twist: 
    linear: 
      x: 9.60096334032e-09
      y: 0.0
      z: 0.0
    angular: 
      x: 0.0
      y: 0.0
      z: 0.000124424127522
  covariance: [9.99999598361282e-10, 0.0, 0.0, 0.0, 0.0, 0.0, 0.0, 799643.7351175066, 0.0, 0.0, 0.0, 0.0, 0.0, 0.0, 4.92969318992844e-07, -2.9253876109262573e-25, -4.1462696295896295e-26, 0.0, 0.0, 0.0, -2.925387610926258e-25, 3.3019071472787163e-07, -3.802323359136384e-33, 0.0, 0.0, 0.0, -4.1462696295896295e-26, -3.93118062444639e-33, 3.3019071472787163e-07, 0.0, 0.0, 0.0, 0.0, 0.0, 0.0, 9.96889395251735e-10]
---
header: 
  seq: 6215
  stamp: 
    secs: 1518208519
    nsecs: 634555101
  frame_id: "swarmone/odom"
child_frame_id: "swarmone/base_link"
pose: 
  pose: 
    position: 
      x: 0.35310332541
      y: 7.00655700394
      z: 0.0
    orientation: 
      x: 0.0
      y: 0.0
      z: 0.651834024033
      w: 0.75836165852
  covariance: [45971589141.45578, -3076964025.02515, 0.0, 0.0, 0.0, -6.817318055734957e-16, -3076964025.0251503, 209066189.26032016, 0.0, 0.0, 0.0, 1.0133115461423394e-16, 0.0, 0.0, 5.716744544997658e-07, -3.6395699451293484e-21, -3.6276127240998604e-14, 0.0, 0.0, 0.0, -3.63956994512935e-21, 4.547364928954399e-07, -3.065391086044464e-28, 0.0, 0.0, 0.0, -3.6276127240998604e-14, -3.06200014468802e-28, 4.5473649289543684e-07, 0.0, -6.817318055734958e-16, 1.0133115461423393e-16, 0.0, 0.0, 0.0, 1.002358032059738e-06]
twist: 
  twist: 
    linear: 
      x: 1.11989350085e-08
      y: 0.0
      z: 0.0
    angular: 
      x: 0.0
      y: 0.0
      z: 0.000119123426191
  covariance: [9.99999598957982e-10, 0.0, 0.0, 0.0, 0.0, 0.0, 0.0, 800028.8718278145, 0.0, 0.0, 0.0, 0.0, 0.0, 0.0, 5.002192802478269e-07, -3.6970341992564946e-25, -5.6176265501585e-26, 0.0, 0.0, 0.0, -3.6970341992564955e-25, 3.333844375968093e-07, -6.0534525595284687e-33, 0.0, 0.0, 0.0, -5.617626550158501e-26, -6.118324581105785e-33, 3.333844375968093e-07, 0.0, 0.0, 0.0, 0.0, 0.0, 0.0, 9.970219128566943e-10]
---
header: 
  seq: 6216
  stamp: 
    secs: 1518208519
    nsecs: 735371351
  frame_id: "swarmone/odom"
child_frame_id: "swarmone/base_link"
pose: 
  pose: 
    position: 
      x: 0.35325596247
      y: 7.00756154238
      z: 0.0
    orientation: 
      x: 0.0
      y: 0.0
      z: 0.655617688966
      w: 0.755093004812
  covariance: [46008609739.76092, -3081054815.589286, 0.0, 0.0, 0.0, -5.281847478953812e-16, -3081054815.589286, 209454627.4870035, 0.0, 0.0, 0.0, 7.656214438753838e-17, 0.0, 0.0, 5.868628475160778e-07, -2.727381220040946e-21, -2.680400837060811e-14, 0.0, 0.0, 0.0, -2.7273812200409465e-21, 4.672041335109434e-07, -1.78105134123821e-28, 0.0, 0.0, 0.0, -2.680400837060811e-14, -1.7579561082194343e-28, 4.6720413351094156e-07, 0.0, -5.281847478953812e-16, 7.656214438753839e-17, 0.0, 0.0, 0.0, 1.088188720538133e-06]
twist: 
  twist: 
    linear: 
      x: 8.00068836182e-09
      y: 0.0
      z: 0.0
    angular: 
      x: 0.0
      y: 0.0
      z: 0.000109770562523
  covariance: [9.99999603239148e-10, 0.0, 0.0, 0.0, 0.0, 0.0, 0.0, 800418.289918894, 0.0, 0.0, 0.0, 0.0, 0.0, 0.0, 5.141145500300615e-07, -3.1051860763306794e-25, -4.401081272059302e-26, 0.0, 0.0, 0.0, -3.105186076330679e-25, 3.396817627169587e-07, -3.8268283724880544e-33, 0.0, 0.0, 0.0, -4.401081272059303e-26, -3.8877294844202566e-33, 3.396817627169587e-07, 0.0, 0.0, 0.0, 0.0, 0.0, 0.0, 9.972557345797036e-10]
---
header: 
  seq: 6217
  stamp: 
    secs: 1518208519
    nsecs: 834397316
  frame_id: "swarmone/odom"
child_frame_id: "swarmone/base_link"
pose: 
  pose: 
    position: 
      x: 0.353427909632
      y: 7.00877469963
      z: 0.0
    orientation: 
      x: 0.0
      y: 0.0
      z: 0.651834056582
      w: 0.758361630543
  covariance: [46045049666.938896, -3084895998.044573, 0.0, 0.0, 0.0, -6.831379402634735e-16, -3084895998.0445733, 209811451.82138363, 0.0, 0.0, 0.0, 1.0153266866128561e-16, 0.0, 0.0, 5.940600754579095e-07, -3.762161781054577e-21, -3.323009433680458e-14, 0.0, 0.0, 0.0, -3.762161781054578e-21, 4.7322632334180295e-07, -3.0947219139876327e-28, 0.0, 0.0, 0.0, -3.323009433680458e-14, -3.064658036753858e-28, 4.732263233418001e-07, 0.0, -6.831379402634736e-16, 1.015326686612856e-16, 0.0, 0.0, 0.0, 1.131104064773453e-06]
twist: 
  twist: 
    linear: 
      x: 9.99968663082e-09
      y: 0.0
      z: 0.0
    angular: 
      x: 0.0
      y: 0.0
      z: 0.00010562407391
  covariance: [9.999995960661535e-10, 0.0, 0.0, 0.0, 0.0, 0.0, 0.0, 800800.9157636188, 0.0, 0.0, 0.0, 0.0, 0.0, 0.0, 5.207762641798014e-07, -4.077181430923598e-25, -6.195301431039107e-26, 0.0, 0.0, 0.0, -4.077181430923597e-25, 3.427849021211312e-07, -6.731190455546943e-33, 0.0, 0.0, 0.0, -6.195301431039103e-26, -6.948359235471292e-33, 3.427849021211312e-07, 0.0, 0.0, 0.0, 0.0, 0.0, 0.0, 9.973593968223718e-10]
---
header: 
  seq: 6218
  stamp: 
    secs: 1518208519
    nsecs: 935256004
  frame_id: "swarmone/odom"
child_frame_id: "swarmone/base_link"
pose: 
  pose: 
    position: 
      x: 0.353603577742
      y: 7.00993078374
      z: 0.0
    orientation: 
      x: 0.0
      y: 0.0
      z: 0.648034069097
      w: 0.761611347926
  covariance: [46082133284.80724, -3088995072.3283386, 0.0, 0.0, 0.0, -5.763417714957687e-16, -3088995072.328339, 210200942.14946118, 0.0, 0.0, 0.0, 9.126617941124133e-17, 0.0, 0.0, 5.609129147983202e-07, -2.982612408320981e-21, -2.958420644087569e-14, 0.0, 0.0, 0.0, -2.982612408320981e-21, 4.4609563844400854e-07, -2.0462565511846802e-28, 0.0, 0.0, 0.0, -2.958420644087569e-14, -2.0309974977114967e-28, 4.460956384440064e-07, 0.0, -5.763417714957687e-16, 9.126617941124132e-17, 0.0, 0.0, 0.0, 9.451375730771918e-07]
twist: 
  twist: 
    linear: 
      x: 9.19834059962e-09
      y: 0.0
      z: 0.0
    angular: 
      x: 0.0
      y: 0.0
      z: 0.000126297437577
  covariance: [9.99999603406128e-10, 0.0, 0.0, 0.0, 0.0, 0.0, 0.0, 801190.7483838222, 0.0, 0.0, 0.0, 0.0, 0.0, 0.0, 4.905057900190535e-07, -2.746273182482084e-25, -4.4542919765970214e-26, 0.0, 0.0, 0.0, -2.7462731824820844e-25, 3.291199773604595e-07, -3.991474950779052e-33, 0.0, 0.0, 0.0, -4.4542919765970214e-26, -4.024728721401634e-33, 3.291199773604595e-07, 0.0, 0.0, 0.0, 0.0, 0.0, 0.0, 9.968425624991764e-10]
---
header: 
  seq: 6219
  stamp: 
    secs: 1518208520
    nsecs:  35301208
  frame_id: "swarmone/odom"
child_frame_id: "swarmone/base_link"
pose: 
  pose: 
    position: 
      x: 0.353691693563
      y: 7.01047405131
      z: 0.0
    orientation: 
      x: 0.0
      y: 0.0
      z: 0.648034075731
      w: 0.761611342281
  covariance: [46118883692.348595, -3093246279.79146, 0.0, 0.0, 0.0, -2.6165681212894145e-16, -3093246279.79146, 210613186.9880148, 0.0, 0.0, 0.0, 4.243979800183813e-17, 0.0, 0.0, 5.663604323541132e-07, -1.4721943183881894e-21, -1.4172232156437594e-14, 0.0, 0.0, 0.0, -1.4721943183881895e-21, 4.5045000157495756e-07, -4.793210822300894e-29, 0.0, 0.0, 0.0, -1.4172232156437592e-14, -4.829657676569258e-29, 4.504500015749571e-07, 0.0, -2.616568121289414e-16, 4.243979800183813e-17, 0.0, 0.0, 0.0, 9.73747802568045e-07]
twist: 
  twist: 
    linear: 
      x: 4.40077087445e-09
      y: 0.0
      z: 0.0
    angular: 
      x: 0.0
      y: 0.0
      z: 0.000122605578327
  covariance: [9.99999600181308e-10, 0.0, 0.0, 0.0, 0.0, 0.0, 0.0, 801577.5617448667, 0.0, 0.0, 0.0, 0.0, 0.0, 0.0, 4.954092598261394e-07, -1.3783902900438872e-25, -2.2357011157600398e-26, 0.0, 0.0, 0.0, -1.3783902900438872e-25, 3.312588813139705e-07, -8.73194527395672e-34, 0.0, 0.0, 0.0, -2.2357011157600404e-26, -1.0000983339259729e-33, 3.312588813139705e-07, 0.0, 0.0, 0.0, 0.0, 0.0, 0.0, 9.969348590145335e-10]
---
header: 
  seq: 6220
  stamp: 
    secs: 1518208520
    nsecs: 135106325
  frame_id: "swarmone/odom"
child_frame_id: "swarmone/base_link"
pose: 
  pose: 
    position: 
      x: 0.353827129828
      y: 7.01130908473
      z: 0.0
    orientation: 
      x: 0.0
      y: 0.0
      z: 0.655618141997
      w: 0.755092611462
  covariance: [46155569393.87293, -3097490559.3044233, 0.0, 0.0, 0.0, -9.448409679625062e-16, -3097490559.3044224, 211024920.56404984, 0.0, 0.0, 0.0, 1.3669523998621683e-16, 0.0, 0.0, 7.631985969544559e-07, -6.276012366571845e-21, -2.3214032592644657e-14, 0.0, 0.0, 0.0, -6.276012366571846e-21, 6.40043579134424e-07, -6.156211596384457e-28, 0.0, 0.0, 0.0, -2.3214032592644654e-14, -6.148741209188603e-28, 6.400435791344218e-07, 0.0, -9.448409679625062e-16, 1.3669523998621685e-16, 0.0, 0.0, 0.0, 2.8906331785462085e-06]
twist: 
  twist: 
    linear: 
      x: 6.8023149509e-09
      y: 0.0
      z: 0.0
    angular: 
      x: 0.0
      y: 0.0
      z: 4.1441692609e-05
  covariance: [9.999995992195263e-10, 0.0, 0.0, 0.0, 0.0, 0.0, 0.0, 801963.5708698146, 0.0, 0.0, 0.0, 0.0, 0.0, 0.0, 6.932259014878874e-07, -1.0004713238571766e-24, -1.4179179277254893e-25, 0.0, 0.0, 0.0, -1.000471323857177e-24, 4.489834601390849e-07, -2.3584204227164487e-32, 0.0, 0.0, 0.0, -1.4179179277254893e-25, -2.501180444628489e-32, 4.489834601390849e-07, 0.0, 0.0, 0.0, 0.0, 0.0, 0.0, 9.989639571670837e-10]
---
header: 
  seq: 6221
  stamp: 
    secs: 1518208520
    nsecs: 234733105
  frame_id: "swarmone/odom"
child_frame_id: "swarmone/base_link"
pose: 
  pose: 
    position: 
      x: 0.354008012763
      y: 7.01258531534
      z: 0.0
    orientation: 
      x: 0.0
      y: 0.0
      z: 0.65561816126
      w: 0.755092594736
  covariance: [46192324405.61847, -3101367625.7383404, 0.0, 0.0, 0.0, -1.882532161502615e-15, -3101367625.73834, 211385595.680109, 0.0, 0.0, 0.0, 2.668178440978345e-16, 0.0, 0.0, 7.671425841448131e-07, -9.765286260288073e-21, -3.524919286315718e-14, 0.0, 0.0, 0.0, -9.76528626028807e-21, 6.446184179228359e-07, -1.4786072838065583e-27, 0.0, 0.0, 0.0, -3.524919286315718e-14, -1.4778665799548135e-27, 6.446184179228305e-07, 0.0, -1.882532161502615e-15, 2.668178440978345e-16, 0.0, 0.0, 0.0, 2.9621587522765466e-06]
twist: 
  twist: 
    linear: 
      x: 1.03991871607e-08
      y: 0.0
      z: 0.0
    angular: 
      x: 0.0
      y: 0.0
      z: 4.0442709636e-05
  covariance: [9.99999598502619e-10, 0.0, 0.0, 0.0, 0.0, 0.0, 0.0, 802349.0138269574, 0.0, 0.0, 0.0, 0.0, 0.0, 0.0, 6.976487303220107e-07, -1.5621153727766448e-24, -2.2140461734611474e-25, 0.0, 0.0, 0.0, -1.5621153727766446e-24, 4.5257920772465276e-07, -6.005710466277393e-32, 0.0, 0.0, 0.0, -2.214046173461148e-25, -6.058721426459876e-32, 4.5257920772465276e-07, 0.0, 0.0, 0.0, 0.0, 0.0, 0.0, 9.989889317519481e-10]
---
header: 
  seq: 6222
  stamp: 
    secs: 1518208520
    nsecs: 334519863
  frame_id: "swarmone/odom"
child_frame_id: "swarmone/base_link"
pose: 
  pose: 
    position: 
      x: 0.354175615619
      y: 7.01376784797
      z: 0.0
    orientation: 
      x: 0.0
      y: 0.0
      z: 0.655617721994
      w: 0.755092976134
  covariance: [46229161957.08562, -3105253979.6495385, 0.0, 0.0, 0.0, -1.0653727911505013e-15, -3105253979.6495376, 211747245.5466517, 0.0, 0.0, 0.0, 1.50998506177176e-16, 0.0, 0.0, 6.077276905048585e-07, -3.718450432390954e-21, -3.2683177448406955e-14, 0.0, 0.0, 0.0, -3.718450432390952e-21, 4.848717479072551e-07, -3.0800514628267515e-28, 0.0, 0.0, 0.0, -3.2683177448406936e-14, -3.116197364160583e-28, 4.848717479072526e-07, 0.0, -1.0653727911505013e-15, 1.5099850617717602e-16, 0.0, 0.0, 0.0, 1.2169347532514042e-06]
twist: 
  twist: 
    linear: 
      x: 9.59941960643e-09
      y: 0.0
      z: 0.0
    angular: 
      x: 0.0
      y: 0.0
      z: 9.82048671031e-05
  covariance: [9.99999599146323e-10, 0.0, 0.0, 0.0, 0.0, 0.0, 0.0, 802735.199502128, 0.0, 0.0, 0.0, 0.0, 0.0, 0.0, 5.335665708082642e-07, -4.48711657252596e-25, -6.359770078021553e-26, 0.0, 0.0, 0.0, -4.487116572525959e-25, 3.489065519219026e-07, -7.436295751426966e-33, 0.0, 0.0, 0.0, -6.359770078021553e-26, -7.66596889834985e-33, 3.489065519219026e-07, 0.0, 0.0, 0.0, 0.0, 0.0, 0.0, 9.975448770932328e-10]
---
header: 
  seq: 6223
  stamp: 
    secs: 1518208520
    nsecs: 434483767
  frame_id: "swarmone/odom"
child_frame_id: "swarmone/base_link"
pose: 
  pose: 
    position: 
      x: 0.35432981636
      y: 7.01485579614
      z: 0.0
    orientation: 
      x: 0.0
      y: 0.0
      z: 0.651834056576
      w: 0.758361630548
  covariance: [46266088499.43051, -3109150363.370867, 0.0, 0.0, 0.0, -6.302306589539214e-16, -3109150363.3708663, 212109942.5424253, 0.0, 0.0, 0.0, 9.350833520602233e-17, 0.0, 0.0, 5.940601043849086e-07, -3.3422050035765397e-21, -2.952139673173807e-14, 0.0, 0.0, 0.0, -3.34220500357654e-21, 4.7322642076671283e-07, -2.441541846488228e-28, 0.0, 0.0, 0.0, -2.9521396731738084e-14, -2.4196004113694364e-28, 4.732264207667106e-07, 0.0, -6.302306589539214e-16, 9.350833520602233e-17, 0.0, 0.0, 0.0, 1.1311040647750358e-06]
twist: 
  twist: 
    linear: 
      x: 8.80046096413e-09
      y: 0.0
      z: 0.0
    angular: 
      x: 0.0
      y: 0.0
      z: 0.000105624074392
  covariance: [9.999995998562076e-10, 0.0, 0.0, 0.0, 0.0, 0.0, 0.0, 803122.1949778807, 0.0, 0.0, 0.0, 0.0, 0.0, 0.0, 5.20776324652608e-07, -3.622403819221802e-25, -5.504241812767366e-26, 0.0, 0.0, 0.0, -3.6224038192218046e-25, 3.427853568518759e-07, -5.2356700680111394e-33, 0.0, 0.0, 0.0, -5.504241812767366e-26, -5.549228265868793e-33, 3.427853568518759e-07, 0.0, 0.0, 0.0, 0.0, 0.0, 0.0, 9.973593968224049e-10]
---
header: 
  seq: 6224
  stamp: 
    secs: 1518208520
    nsecs: 535231113
  frame_id: "swarmone/odom"
child_frame_id: "swarmone/base_link"
pose: 
  pose: 
    position: 
      x: 0.354520350111
      y: 7.01610974366
      z: 0.0
    orientation: 
      x: 0.0
      y: 0.0
      z: 0.655617656561
      w: 0.755093032948
  covariance: [46303273732.2, -3113264545.92171, 0.0, 0.0, 0.0, -6.329512771850159e-16, -3113264545.92171, 212501687.99411544, 0.0, 0.0, 0.0, 9.210755516888836e-17, 0.0, 0.0, 5.636536855060404e-07, -2.8958894750725318e-21, -3.2280585373949034e-14, 0.0, 0.0, 0.0, -2.8958894750725318e-21, 4.4828144495379566e-07, -2.1396867507904618e-28, 0.0, 0.0, 0.0, -3.2280585373949034e-14, -2.145031333605061e-28, 4.4828144495379323e-07, 0.0, -6.329512771850159e-16, 9.210755516888836e-17, 0.0, 0.0, 0.0, 9.594426878231098e-07]
twist: 
  twist: 
    linear: 
      x: 9.99984814051e-09
      y: 0.0
      z: 0.0
    angular: 
      x: 0.0
      y: 0.0
      z: 0.000124424128331
  covariance: [9.999996029678303e-10, 0.0, 0.0, 0.0, 0.0, 0.0, 0.0, 803512.3492651236, 0.0, 0.0, 0.0, 0.0, 0.0, 0.0, 4.92969400938958e-07, -3.0774527621821287e-25, -4.361863237984119e-26, 0.0, 0.0, 0.0, -3.0774527621821296e-25, 3.3019128338527015e-07, -4.148869307503401e-33, 0.0, 0.0, 0.0, -4.361863237984119e-26, -4.308104559102584e-33, 3.3019128338527015e-07, 0.0, 0.0, 0.0, 0.0, 0.0, 0.0, 9.968893952517908e-10]
---
header: 
  seq: 6225
  stamp: 
    secs: 1518208520
    nsecs: 635019064
  frame_id: "swarmone/odom"
child_frame_id: "swarmone/base_link"
pose: 
  pose: 
    position: 
      x: 0.354687977019
      y: 7.01729242098
      z: 0.0
    orientation: 
      x: 0.0
      y: 0.0
      z: 0.651834020416
      w: 0.758361661629
  covariance: [46340182635.612976, -3117160318.506587, 0.0, 0.0, 0.0, -5.7899454895227e-16, -3117160318.506587, 212864566.26694408, 0.0, 0.0, 0.0, 8.60418653747107e-17, 0.0, 0.0, 5.690338203197256e-07, -3.0634002582505953e-21, -3.0975480712779023e-14, 0.0, 0.0, 0.0, -3.0634002582505953e-21, 4.5260162710210123e-07, -2.167867390210286e-28, 0.0, 0.0, 0.0, -3.097548071277903e-14, -2.1600949655495666e-28, 4.52601627102099e-07, 0.0, -5.789945489522699e-16, 8.604186537471069e-17, 0.0, 0.0, 0.0, 9.88052917313717e-07]
twist: 
  twist: 
    linear: 
      x: 9.59959945562e-09
      y: 0.0
      z: 0.0
    angular: 
      x: 0.0
      y: 0.0
      z: 0.000120839421665
  covariance: [9.999995991505779e-10, 0.0, 0.0, 0.0, 0.0, 0.0, 0.0, 803898.9127314506, 0.0, 0.0, 0.0, 0.0, 0.0, 0.0, 4.978257804995279e-07, -3.086953010872341e-25, -4.6906036850235665e-26, 0.0, 0.0, 0.0, -3.086953010872342e-25, 3.3232329931910945e-07, -4.2269341100204906e-33, 0.0, 0.0, 0.0, -4.6906036850235676e-26, -4.033409968748986e-33, 3.3232329931910945e-07, 0.0, 0.0, 0.0, 0.0, 0.0, 0.0, 9.969790129491253e-10]
---
header: 
  seq: 6226
  stamp: 
    secs: 1518208520
    nsecs: 734796524
  frame_id: "swarmone/odom"
child_frame_id: "swarmone/base_link"
pose: 
  pose: 
    position: 
      x: 0.354844960748
      y: 7.0183255657
      z: 0.0
    orientation: 
      x: 0.0
      y: 0.0
      z: 0.655617663756
      w: 0.7550930267
  covariance: [46377057059.64594, -3121241359.3516192, 0.0, 0.0, 0.0, -5.117794609237663e-16, -3121241359.3516192, 213253415.9834993, 0.0, 0.0, 0.0, 7.427838702439226e-17, 0.0, 0.0, 5.690338199604497e-07, -2.5039498647227675e-21, -2.7102172181590018e-14, 0.0, 0.0, 0.0, -2.5039498647227683e-21, 4.526016261401048e-07, -1.5814974847679602e-28, 0.0, 0.0, 0.0, -2.7102172181590024e-14, -1.567822907850676e-28, 4.5260162614010305e-07, 0.0, -5.117794609237663e-16, 7.427838702439227e-17, 0.0, 0.0, 0.0, 9.880529173137e-07]
twist: 
  twist: 
    linear: 
      x: 8.40025734736e-09
      y: 0.0
      z: 0.0
    angular: 
      x: 0.0
      y: 0.0
      z: 0.000120839421654
  covariance: [9.99999599108441e-10, 0.0, 0.0, 0.0, 0.0, 0.0, 0.0, 804285.5595026388, 0.0, 0.0, 0.0, 0.0, 0.0, 0.0, 4.978257797701276e-07, -2.704970792408882e-25, -3.8338802629539293e-26, 0.0, 0.0, 0.0, -2.7049707924088827e-25, 3.323232942114765e-07, -3.130060793929833e-33, 0.0, 0.0, 0.0, -3.833880262953931e-26, -3.226897498940931e-33, 3.323232942114765e-07, 0.0, 0.0, 0.0, 0.0, 0.0, 0.0, 9.969790129491248e-10]
---
header: 
  seq: 6227
  stamp: 
    secs: 1518208520
    nsecs: 834615469
  frame_id: "swarmone/odom"
child_frame_id: "swarmone/base_link"
pose: 
  pose: 
    position: 
      x: 0.355005700557
      y: 7.01945966492
      z: 0.0
    orientation: 
      x: 0.0
      y: 0.0
      z: 0.65561769319
      w: 0.755093001143
  covariance: [46414024607.66699, -3125144535.4219604, 0.0, 0.0, 0.0, -6.04373420923503e-16, -3125144535.4219604, 213617219.36878735, 0.0, 0.0, 0.0, 8.566021480676213e-17, 0.0, 0.0, 5.892901013410592e-07, -3.1567139737894627e-21, -3.062149652124857e-14, 0.0, 0.0, 0.0, -3.1567139737894627e-21, 4.6922673038583814e-07, -2.33984948114417e-28, 0.0, 0.0, 0.0, -3.062149652124856e-14, -2.3672840413570374e-28, 4.6922673038583576e-07, 0.0, -6.04373420923503e-16, 8.566021480676213e-17, 0.0, 0.0, 0.0, 1.102493835282583e-06]
twist: 
  twist: 
    linear: 
      x: 9.20026886966e-09
      y: 0.0
      z: 0.0
    angular: 
      x: 0.0
      y: 0.0
      z: 0.000108352693608
  covariance: [9.99999599275052e-10, 0.0, 0.0, 0.0, 0.0, 0.0, 0.0, 804672.491065171, 0.0, 0.0, 0.0, 0.0, 0.0, 0.0, 5.163555797865446e-07, -3.618801288706988e-25, -5.1290724694448196e-26, 0.0, 0.0, 0.0, -3.6188012887069875e-25, 3.407192034885372e-07, -5.28549113970276e-33, 0.0, 0.0, 0.0, -5.1290724694448174e-26, -5.188041180074138e-33, 3.407192034885372e-07, 0.0, 0.0, 0.0, 0.0, 0.0, 0.0, 9.972911813067976e-10]
---
header: 
  seq: 6228
  stamp: 
    secs: 1518208520
    nsecs: 934506416
  frame_id: "swarmone/odom"
child_frame_id: "swarmone/base_link"
pose: 
  pose: 
    position: 
      x: 0.35518066112
      y: 7.02069960274
      z: 0.0
    orientation: 
      x: 0.0
      y: 0.0
      z: 0.857299176291
      w: 0.514818533398
