header: 
  seq: 4510
  stamp: 
    secs: 1518208349
    nsecs: 134545565
  frame_id: "swarmone/odom"
child_frame_id: "swarmone/base_link"
pose: 
  pose: 
    position: 
      x: 0.108528973331
      y: 4.18371505394
      z: 0.0
    orientation: 
      x: 0.0
      y: 0.0
      z: 0.692537236403
      w: 0.721382129107
  covariance: [9317564300.931585, -246976862.4687184, 0.0, 0.0, 0.0, -6.075913111602613e-16, -246976862.46871796, 6547113.722789251, 0.0, 0.0, 0.0, 2.0821549376987507e-17, 0.0, 0.0, 5.690338104666981e-07, -8.636220729380431e-22, -3.2171321471720796e-14, 0.0, 0.0, 0.0, -8.636220729380431e-22, 4.526015966991722e-07, -6.489140736416093e-29, 0.0, 0.0, 0.0, -3.21713214717208e-14, -6.40461073647468e-29, 4.526015966991699e-07, 0.0, -6.075913111602614e-16, 2.082154937698751e-17, 0.0, 0.0, 0.0, 9.880529173132395e-07]
twist: 
  twist: 
    linear: 
      x: 9.99841234806e-09
      y: 0.0
      z: 0.0
    angular: 
      x: 0.0
      y: 0.0
      z: 0.000120839421493
  covariance: [9.999995980047398e-10, 0.0, 0.0, 0.0, 0.0, 0.0, 0.0, 305688.97474582, 0.0, 0.0, 0.0, 0.0, 0.0, 0.0, 4.978257604347812e-07, -3.2402299209366905e-25, -1.3226008911416793e-26, 0.0, 0.0, 0.0, -3.2402299209366905e-25, 3.3232315757037813e-07, -1.3285075276246745e-33, 0.0, 0.0, 0.0, -1.3226008911416796e-26, -1.328469314114573e-33, 3.3232315757037813e-07, 0.0, 0.0, 0.0, 0.0, 0.0, 0.0, 9.969790129491122e-10]
---
header: 
  seq: 4511
  stamp: 
    secs: 1518208349
    nsecs: 235009193
  frame_id: "swarmone/odom"
child_frame_id: "swarmone/base_link"
pose: 
  pose: 
    position: 
      x: 0.108555705194
      y: 4.18437003171
      z: 0.0
    orientation: 
      x: 0.0
      y: 0.0
      z: 0.703279915214
      w: 0.710913047324
  covariance: [9327943021.205315, -247325871.1774803, 0.0, 0.0, 0.0, -7.177142428148573e-16, -247325871.1774799, 6558315.359606669, 0.0, 0.0, 0.0, 1.0972655442195103e-17, 0.0, 0.0, 7.582858046188454e-07, -2.7217833265278723e-22, -1.7978049567589372e-14, 0.0, 0.0, 0.0, -2.7217833265278733e-22, 6.343958404260319e-07, -2.0347713982199459e-29, 0.0, 0.0, 0.0, -1.7978049567589372e-14, -2.0140082487687272e-29, 6.343958404260306e-07, 0.0, -7.177142428148573e-16, 1.0972655442195103e-17, 0.0, 0.0, 0.0, 2.804802490070609e-06]
twist: 
  twist: 
    linear: 
      x: 5.20277259122e-09
      y: 0.0
      z: 0.0
    angular: 
      x: 0.0
      y: 0.0
      z: 3.20307052642e-05
  covariance: [9.999996018465384e-10, 0.0, 0.0, 0.0, 0.0, 0.0, 0.0, 305893.3214438123, 0.0, 0.0, 0.0, 0.0, 0.0, 0.0, 6.877446654556925e-07, -7.558401571536742e-25, -8.150811822584918e-27, 0.0, 0.0, 0.0, -7.5584015715367435e-25, 4.4460587029457557e-07, -1.0880277803505587e-33, 0.0, 0.0, 0.0, -8.15081182258492e-27, -1.1719584606938022e-33, 4.4460587029457557e-07, 0.0, 0.0, 0.0, 0.0, 0.0, 0.0, 9.989323092950406e-10]
---
header: 
  seq: 4512
  stamp: 
    secs: 1518208349
    nsecs: 334459305
  frame_id: "swarmone/odom"
child_frame_id: "swarmone/base_link"
pose: 
  pose: 
    position: 
      x: 0.108568521907
      y: 4.18555624225
      z: 0.0
    orientation: 
      x: 0.0
      y: 0.0
      z: 0.696135406179
      w: 0.717910507141
  covariance: [9338234106.511711, -247517534.56766313, 0.0, 0.0, 0.0, -9.271101451305864e-16, -247517534.56766275, 6561254.694898398, 0.0, 0.0, 0.0, 1.7404755440177486e-17, 0.0, 0.0, 5.581374412636422e-07, -4.336047342685267e-22, -3.028654514636939e-14, 0.0, 0.0, 0.0, -4.336047342685267e-22, 4.438922408431057e-07, -2.9463225565991796e-29, 0.0, 0.0, 0.0, -3.028654514636939e-14, -2.997783161179902e-29, 4.438922408431036e-07, 0.0, -9.271101451305866e-16, 1.7404755440177486e-17, 0.0, 0.0, 0.0, 9.308324583287976e-07]
twist: 
  twist: 
    linear: 
      x: 9.59796733757e-09
      y: 0.0
      z: 0.0
    angular: 
      x: 0.0
      y: 0.0
      z: 9.6171012365e-05
  covariance: [9.99999597789356e-10, 0.0, 0.0, 0.0, 0.0, 0.0, 0.0, 306095.69628560066, 0.0, 0.0, 0.0, 0.0, 0.0, 0.0, 4.880180114198942e-07, -2.784297625630547e-25, -8.566526129079878e-27, 0.0, 0.0, 0.0, -2.7842976256305475e-25, 3.2804448535159034e-07, -7.731857342882416e-34, 0.0, 0.0, 0.0, -8.566526129079877e-27, -7.89814826768354e-34, 3.2804448535159034e-07, 0.0, 0.0, 0.0, 0.0, 0.0, 0.0, 9.967942979775924e-10]
---
header: 
  seq: 4513
  stamp: 
    secs: 1518208349
    nsecs: 434911966
  frame_id: "swarmone/odom"
child_frame_id: "swarmone/base_link"
pose: 
  pose: 
    position: 
      x: 0.108593371286
      y: 4.18636289358
      z: 0.0
    orientation: 
      x: 0.0
      y: 0.0
      z: 0.69613547412
      w: 0.717910441262
  covariance: [9348633825.532475, -247815238.1073476, 0.0, 0.0, 0.0, -3.8885277494511425e-16, -247815238.10734722, 6569727.395019721, 0.0, 0.0, 0.0, 1.1978964340600674e-17, 0.0, 0.0, 5.690338431251749e-07, -4.2139904913883026e-22, -2.079007803277036e-14, 0.0, 0.0, 0.0, -4.213990491388304e-22, 4.526017020941545e-07, -2.0309139240644536e-29, 0.0, 0.0, 0.0, -2.079007803277036e-14, -2.0347941821939824e-29, 4.526017020941535e-07, 0.0, -3.888527749451143e-16, 1.1978964340600677e-17, 0.0, 0.0, 0.0, 9.880529173148213e-07]
twist: 
  twist: 
    linear: 
      x: 6.40063595528e-09
      y: 0.0
      z: 0.0
    angular: 
      x: 0.0
      y: 0.0
      z: 0.000120839422021
  covariance: [9.999996018030535e-10, 0.0, 0.0, 0.0, 0.0, 0.0, 0.0, 306300.20184949867, 0.0, 0.0, 0.0, 0.0, 0.0, 0.0, 4.97825826938466e-07, -2.094644534958721e-25, -6.452772324814741e-27, 0.0, 0.0, 0.0, -2.0946445349587215e-25, 3.3232362734706765e-07, -4.5934538802551e-34, 0.0, 0.0, 0.0, -6.452772324814741e-27, -3.7138424536495036e-34, 3.3232362734706765e-07, 0.0, 0.0, 0.0, 0.0, 0.0, 0.0, 9.969790129491555e-10]
---
header: 
  seq: 4514
  stamp: 
    secs: 1518208349
    nsecs: 534568071
  frame_id: "swarmone/odom"
child_frame_id: "swarmone/base_link"
pose: 
  pose: 
    position: 
      x: 0.108625469368
      y: 4.18740480007
      z: 0.0
    orientation: 
      x: 0.0
      y: 0.0
      z: 0.692537232358
      w: 0.721382132991
  covariance: [9358960231.486, -248110863.57053143, 0.0, 0.0, 0.0, -5.111335768315742e-16, -248110863.57053104, 6578141.5705712065, 0.0, 0.0, 0.0, 1.9139846886876616e-17, 0.0, 0.0, 5.663604187684039e-07, -7.129370242583647e-22, -2.6945375764951643e-14, 0.0, 0.0, 0.0, -7.129370242583647e-22, 4.5044995953079767e-07, -4.4760714405824703e-29, 0.0, 0.0, 0.0, -2.6945375764951646e-14, -4.383986542035008e-29, 4.5044995953079587e-07, 0.0, -5.111335768315742e-16, 1.9139846886876613e-17, 0.0, 0.0, 0.0, 9.737478025673957e-07]
twist: 
  twist: 
    linear: 
      x: 8.3991993291e-09
      y: 0.0
      z: 0.0
    angular: 
      x: 0.0
      y: 0.0
      z: 0.000122605578081
  covariance: [9.999995986202602e-10, 0.0, 0.0, 0.0, 0.0, 0.0, 0.0, 306503.17574025237, 0.0, 0.0, 0.0, 0.0, 0.0, 0.0, 4.954092322399505e-07, -2.652828299224939e-25, -1.0828343352006733e-26, 0.0, 0.0, 0.0, -2.6528282992249395e-25, 3.3125868774332606e-07, -8.720930738167992e-34, 0.0, 0.0, 0.0, -1.0828343352006733e-26, -9.203725858553137e-34, 3.3125868774332606e-07, 0.0, 0.0, 0.0, 0.0, 0.0, 0.0, 9.969348590145151e-10]
---
header: 
  seq: 4515
  stamp: 
    secs: 1518208349
    nsecs: 635030746
  frame_id: "swarmone/odom"
child_frame_id: "swarmone/base_link"
pose: 
  pose: 
    position: 
      x: 0.108656333097
      y: 4.18816098431
      z: 0.0
    orientation: 
      x: 0.0
      y: 0.0
      z: 0.699716244812
      w: 0.714420868078
  covariance: [9369375718.99915, -248461187.62307388, 0.0, 0.0, 0.0, -3.628358427730782e-16, -248461187.62307343, 6589387.719031236, 0.0, 0.0, 0.0, 9.991881621371961e-18, 0.0, 0.0, 5.636536755727777e-07, -1.9275754900180098e-22, -1.9317546950674995e-14, 0.0, 0.0, 0.0, -1.92757549001801e-22, 4.482813820163178e-07, -8.559613349812686e-30, 0.0, 0.0, 0.0, -1.9317546950674992e-14, -8.507633654762843e-30, 4.4828138201631684e-07, 0.0, -3.6283584277307826e-16, 9.991881621371962e-18, 0.0, 0.0, 0.0, 9.594426878226367e-07]
twist: 
  twist: 
    linear: 
      x: 6.0015395275e-09
      y: 0.0
      z: 0.0
    angular: 
      x: 0.0
      y: 0.0
      z: 9.3318096185e-05
  covariance: [9.99999601842755e-10, 0.0, 0.0, 0.0, 0.0, 0.0, 0.0, 306707.883148633, 0.0, 0.0, 0.0, 0.0, 0.0, 0.0, 4.929693808109593e-07, -1.8593993788876648e-25, -3.8677950985563636e-27, 0.0, 0.0, 0.0, -1.8593993788876643e-25, 3.301911427547902e-07, -2.2765199553808465e-34, 0.0, 0.0, 0.0, -3.867795098556364e-27, -2.5154685891837563e-34, 3.301911427547902e-07, 0.0, 0.0, 0.0, 0.0, 0.0, 0.0, 9.968893952517772e-10]
---
header: 
  seq: 4516
  stamp: 
    secs: 1518208349
    nsecs: 734538317
  frame_id: "swarmone/odom"
child_frame_id: "swarmone/base_link"
pose: 
  pose: 
    position: 
      x: 0.108684122323
      y: 4.18949687192
      z: 0.0
    orientation: 
      x: 0.0
      y: 0.0
      z: 0.692537226083
      w: 0.721382139014
  covariance: [9379707690.053717, -248705328.36074618, 0.0, 0.0, 0.0, -6.370171286736251e-16, -248705328.3607457, 6595074.072524606, 0.0, 0.0, 0.0, 2.1704130915463888e-17, 0.0, 0.0, 5.609128667143349e-07, -8.79755524474618e-22, -3.4263469802047224e-14, 0.0, 0.0, 0.0, -8.797555244746182e-22, 4.4609548695716395e-07, -6.833255223473087e-29, 0.0, 0.0, 0.0, -3.426346980204722e-14, -6.89681272446652e-29, 4.460954869571613e-07, 0.0, -6.370171286736251e-16, 2.1704130915463888e-17, 0.0, 0.0, 0.0, 9.451375730749433e-07]
twist: 
  twist: 
    linear: 
      x: 1.07978084633e-08
      y: 0.0
      z: 0.0
    angular: 
      x: 0.0
      y: 0.0
      z: 0.000126297436712
  covariance: [9.999995980211138e-10, 0.0, 0.0, 0.0, 0.0, 0.0, 0.0, 306910.7342231082, 0.0, 0.0, 0.0, 0.0, 0.0, 0.0, 4.905056929056789e-07, -3.2190725472634544e-25, -1.3139146615761818e-26, 0.0, 0.0, 0.0, -3.219072547263455e-25, 3.2911930417929754e-07, -1.3993238977483288e-33, 0.0, 0.0, 0.0, -1.3139146615761824e-26, -1.3434759335999335e-33, 3.2911930417929754e-07, 0.0, 0.0, 0.0, 0.0, 0.0, 0.0, 9.968425624991092e-10]
---
header: 
  seq: 4517
  stamp: 
    secs: 1518208349
    nsecs: 835005283
  frame_id: "swarmone/odom"
child_frame_id: "swarmone/base_link"
pose: 
  pose: 
    position: 
      x: 0.108704687587
      y: 4.19000073474
      z: 0.0
    orientation: 
      x: 0.0
      y: 0.0
      z: 0.699716754773
      w: 0.714420368613
  covariance: [9390142091.971863, -249056282.48940706, 0.0, 0.0, 0.0, -5.580508666661727e-16, -249056282.4894066, 6606341.08975831, 0.0, 0.0, 0.0, 1.3188862962193586e-17, 0.0, 0.0, 7.615833447362673e-07, -5.464621090655858e-22, -1.3776117275279006e-14, 0.0, 0.0, 0.0, -5.464621090655858e-22, 6.381805236394205e-07, -3.153147033163526e-29, 0.0, 0.0, 0.0, -1.3776117275279006e-14, -3.161952805293443e-29, 6.381805236394196e-07, 0.0, -5.580508666661727e-16, 1.3188862962193584e-17, 0.0, 0.0, 0.0, 2.8620229490550766e-06]
twist: 
  twist: 
    linear: 
      x: 4.00253425889e-09
      y: 0.0
      z: 0.0
    angular: 
      x: 0.0
      y: 0.0
      z: 4.18552423986e-05
  covariance: [9.999996018597549e-10, 0.0, 0.0, 0.0, 0.0, 0.0, 0.0, 307115.6317944893, 0.0, 0.0, 0.0, 0.0, 0.0, 0.0, 6.914203416505796e-07, -5.927291127774782e-25, -1.232323654786501e-26, 0.0, 0.0, 0.0, -5.927291127774782e-25, 4.475321007355231e-07, -1.2089805163527243e-33, 0.0, 0.0, 0.0, -1.2323236547865018e-26, -1.3254505696939548e-33, 4.475321007355231e-07, 0.0, 0.0, 0.0, 0.0, 0.0, 0.0, 9.989536184206756e-10]
---
header: 
  seq: 4518
  stamp: 
    secs: 1518208349
    nsecs: 934460163
  frame_id: "swarmone/odom"
child_frame_id: "swarmone/base_link"
pose: 
  pose: 
    position: 
      x: 0.108725247679
      y: 4.19098932308
      z: 0.0
    orientation: 
      x: 0.0
      y: 0.0
      z: 0.699716306287
      w: 0.714420807869
  covariance: [9400486896.053732, -249300729.2420294, 0.0, 0.0, 0.0, -7.963818513995664e-16, -249300729.24202892, 6612034.352642272, 0.0, 0.0, 0.0, 1.6563303556934233e-17, 0.0, 0.0, 5.663604118123868e-07, -3.4547617261891757e-22, -2.561251234947387e-14, 0.0, 0.0, 0.0, -3.454761726189176e-22, 4.5044993761006055e-07, -2.0362879213720765e-29, 0.0, 0.0, 0.0, -2.5612512349473872e-14, -2.0447542068485206e-29, 4.504499376100591e-07, 0.0, -7.963818513995664e-16, 1.656330355693423e-17, 0.0, 0.0, 0.0, 9.737478025671098e-07]
twist: 
  twist: 
    linear: 
      x: 7.99997599762e-09
      y: 0.0
      z: 0.0
    angular: 
      x: 0.0
      y: 0.0
      z: 0.000122605577835
  covariance: [9.999995978086552e-10, 0.0, 0.0, 0.0, 0.0, 0.0, 0.0, 307318.5550656047, 0.0, 0.0, 0.0, 0.0, 0.0, 0.0, 4.954092182306935e-07, -2.527650410961541e-25, -5.257336654236078e-27, 0.0, 0.0, 0.0, -2.52765041096154e-25, 3.312585927415069e-07, -3.93314776975196e-34, 0.0, 0.0, 0.0, -5.25733665423608e-27, -4.254258287898957e-34, 3.312585927415069e-07, 0.0, 0.0, 0.0, 0.0, 0.0, 0.0, 9.969348590145056e-10]
---
header: 
  seq: 4519
  stamp: 
    secs: 1518208350
    nsecs:  34943104
  frame_id: "swarmone/odom"
child_frame_id: "swarmone/base_link"
pose: 
  pose: 
    position: 
      x: 0.108746236066
      y: 4.19199844417
      z: 0.0
    orientation: 
      x: 0.0
      y: 0.0
      z: 0.699716306288
      w: 0.714420807868
  covariance: [9410947890.223516, -249547910.501265, 0.0, 0.0, 0.0, -4.886980390027647e-16, -249547910.5012645, 6617791.175314097, 0.0, 0.0, 0.0, 1.0164484097442654e-17, 0.0, 0.0, 5.663604475207796e-07, -3.4912346623978427e-22, -2.5876414800606484e-14, 0.0, 0.0, 0.0, -3.491234662397842e-22, 4.5045005194270335e-07, -2.0892680330069176e-29, 0.0, 0.0, 0.0, -2.5876414800606484e-14, -2.0773565075370567e-29, 4.5045005194270176e-07, 0.0, -4.886980390027648e-16, 1.0164484097442655e-17, 0.0, 0.0, 0.0, 9.737478025687715e-07]
twist: 
  twist: 
    linear: 
      x: 7.99973264368e-09
      y: 0.0
      z: 0.0
    angular: 
      x: 0.0
      y: 0.0
      z: 0.000122605578587
  covariance: [9.999996019230563e-10, 0.0, 0.0, 0.0, 0.0, 0.0, 0.0, 307523.6667042362, 0.0, 0.0, 0.0, 0.0, 0.0, 0.0, 4.954092906285004e-07, -2.549131273427012e-25, -5.302017376722384e-27, 0.0, 0.0, 0.0, -2.549131273427012e-25, 3.3125909757359295e-07, -3.96083543883731e-34, 0.0, 0.0, 0.0, -5.302017376722382e-27, -4.4819155447395916e-34, 3.3125909757359295e-07, 0.0, 0.0, 0.0, 0.0, 0.0, 0.0, 9.96934859014554e-10]
---
header: 
  seq: 4520
  stamp: 
    secs: 1518208350
    nsecs: 134364128
  frame_id: "swarmone/odom"
child_frame_id: "swarmone/base_link"
pose: 
  pose: 
    position: 
      x: 0.108764730065
      y: 4.19288756528
      z: 0.0
    orientation: 
      x: 0.0
      y: 0.0
      z: 0.696135481568
      w: 0.717910434039
  covariance: [9421307494.086382, -249792687.41731375, 0.0, 0.0, 0.0, -4.479065963389858e-16, -249792687.41731325, 6623491.943376637, 0.0, 0.0, 0.0, 1.2345798637268661e-17, 0.0, 0.0, 5.742829169572222e-07, -4.868730768443296e-22, -2.3345157000002538e-14, 0.0, 0.0, 0.0, -4.8687307684432955e-22, 4.568547429048642e-07, -2.662769166796921e-29, 0.0, 0.0, 0.0, -2.3345157000002538e-14, -2.6769927296637714e-29, 4.5685474290486297e-07, 0.0, -4.479065963389858e-16, 1.2345798637268661e-17, 0.0, 0.0, 0.0, 1.0166631468053035e-06]
twist: 
  twist: 
    linear: 
      x: 7.20012727565e-09
      y: 0.0
      z: 0.0
    angular: 
      x: 0.0
      y: 0.0
      z: 0.000117455484577
  covariance: [9.999995976711953e-10, 0.0, 0.0, 0.0, 0.0, 0.0, 0.0, 307726.70050088514, 0.0, 0.0, 0.0, 0.0, 0.0, 0.0, 5.025900532842222e-07, -2.4588884592842794e-25, -7.574852310499658e-27, 0.0, 0.0, 0.0, -2.45888845928428e-25, 3.3444207384305176e-07, -5.380188381169031e-34, 0.0, 0.0, 0.0, -7.57485231049966e-27, -5.620792965723998e-34, 3.3444207384305176e-07, 0.0, 0.0, 0.0, 0.0, 0.0, 0.0, 9.97063611413096e-10]
---
header: 
  seq: 4521
  stamp: 
    secs: 1518208350
    nsecs: 234799862
  frame_id: "swarmone/odom"
child_frame_id: "swarmone/base_link"
pose: 
  pose: 
    position: 
      x: 0.108794226407
      y: 4.19384512363
      z: 0.0
    orientation: 
      x: 0.0
      y: 0.0
      z: 0.699716305695
      w: 0.714420808449
  covariance: [9431779388.57106, -250092492.68402565, 0.0, 0.0, 0.0, -4.708426636917789e-16, -250092492.68402514, 6632025.723182176, 0.0, 0.0, 0.0, 1.1409621889546292e-17, 0.0, 0.0, 5.663604458964611e-07, -3.3160338881397717e-22, -2.4572618640592588e-14, 0.0, 0.0, 0.0, -3.3160338881397726e-22, 4.504500467354243e-07, -1.9198941169908256e-29, 0.0, 0.0, 0.0, -2.4572618640592584e-14, -1.8858790334122825e-29, 4.504500467354229e-07, 0.0, -4.708426636917789e-16, 1.1409621889546294e-17, 0.0, 0.0, 0.0, 9.737478025686946e-07]
twist: 
  twist: 
    linear: 
      x: 7.60038833258e-09
      y: 0.0
      z: 0.0
    angular: 
      x: 0.0
      y: 0.0
      z: 0.000122605578551
  covariance: [9.999996017359631e-10, 0.0, 0.0, 0.0, 0.0, 0.0, 0.0, 307931.89721714024, 0.0, 0.0, 0.0, 0.0, 0.0, 0.0, 4.954092873331906e-07, -2.420769322885753e-25, -5.035279341561094e-27, 0.0, 0.0, 0.0, -2.4207693228857526e-25, 3.312590745101783e-07, -3.7642783958558067e-34, 0.0, 0.0, 0.0, -5.035279341561095e-27, -3.884283321663428e-34, 3.312590745101783e-07, 0.0, 0.0, 0.0, 0.0, 0.0, 0.0, 9.969348590145517e-10]
---
header: 
  seq: 4522
  stamp: 
    secs: 1518208350
    nsecs: 335299253
  frame_id: "swarmone/odom"
child_frame_id: "swarmone/base_link"
pose: 
  pose: 
    position: 
      x: 0.108817323128
      y: 4.19495552698
      z: 0.0
    orientation: 
      x: 0.0
      y: 0.0
      z: 0.696135467869
      w: 0.717910447323
  covariance: [9442269945.410969, -250340358.90652153, 0.0, 0.0, 0.0, -5.322965524709905e-16, -250340358.90652102, 6637798.344612041, 0.0, 0.0, 0.0, 1.4603479871690358e-17, 0.0, 0.0, 5.636536768550234e-07, -5.576988881784465e-22, -2.833663410977132e-14, 0.0, 0.0, 0.0, -5.576988881784464e-22, 4.482814184872365e-07, -3.54917098694887e-29, 0.0, 0.0, 0.0, -2.8336634109771323e-14, -3.5502283986013424e-29, 4.4828141848723474e-07, 0.0, -5.322965524709905e-16, 1.4603479871690358e-17, 0.0, 0.0, 0.0, 9.594426878226975e-07]
twist: 
  twist: 
    linear: 
      x: 8.79973207149e-09
      y: 0.0
      z: 0.0
    angular: 
      x: 0.0
      y: 0.0
      z: 0.000124424128206
  covariance: [9.999996019882179e-10, 0.0, 0.0, 0.0, 0.0, 0.0, 0.0, 308137.31527666136, 0.0, 0.0, 0.0, 0.0, 0.0, 0.0, 4.929693834076337e-07, -2.7268235155864697e-25, -8.399991515580562e-27, 0.0, 0.0, 0.0, -2.72682351558647e-25, 3.3019116086469035e-07, -7.2731615736376675e-34, 0.0, 0.0, 0.0, -8.399991515580562e-27, -7.112930411885059e-34, 3.3019116086469035e-07, 0.0, 0.0, 0.0, 0.0, 0.0, 0.0, 9.968893952517793e-10]
---
header: 
  seq: 4523
  stamp: 
    secs: 1518208350
    nsecs: 435035944
  frame_id: "swarmone/odom"
child_frame_id: "swarmone/base_link"
pose: 
  pose: 
    position: 
      x: 0.108847941911
      y: 4.19594941632
      z: 0.0
    orientation: 
      x: 0.0
      y: 0.0
      z: 0.692537232358
      w: 0.721382132991
  covariance: [9452687425.048973, -250638619.02445215, 0.0, 0.0, 0.0, -4.824320438977241e-16, -250638619.02445167, 6646288.415625951, 0.0, 0.0, 0.0, 1.809662972006853e-17, 0.0, 0.0, 5.663604215886348e-07, -6.795322092251089e-22, -2.5682658954649133e-14, 0.0, 0.0, 0.0, -6.795322092251088e-22, 4.504499685814999e-07, -4.0713520224165077e-29, 0.0, 0.0, 0.0, -2.568265895464913e-14, -3.9778222481174825e-29, 4.504499685814984e-07, 0.0, -4.824320438977241e-16, 1.8096629720068527e-17, 0.0, 0.0, 0.0, 9.7374780256753e-07]
twist: 
  twist: 
    linear: 
      x: 7.9990864453e-09
      y: 0.0
      z: 0.0
    angular: 
      x: 0.0
      y: 0.0
      z: 0.000122605578136
  covariance: [9.999995989445603e-10, 0.0, 0.0, 0.0, 0.0, 0.0, 0.0, 308341.2646941382, 0.0, 0.0, 0.0, 0.0, 0.0, 0.0, 4.954092379649587e-07, -2.52845773295855e-25, -1.032073273041275e-26, 0.0, 0.0, 0.0, -2.5284577329585498e-25, 3.312587278838735e-07, -8.15373137339591e-34, 0.0, 0.0, 0.0, -1.0320732730412751e-26, -7.4312280838318965e-34, 3.312587278838735e-07, 0.0, 0.0, 0.0, 0.0, 0.0, 0.0, 9.96934859014519e-10]
---
header: 
  seq: 4524
  stamp: 
    secs: 1518208350
    nsecs: 534667253
  frame_id: "swarmone/odom"
child_frame_id: "swarmone/base_link"
pose: 
  pose: 
    position: 
      x: 0.108874248682
      y: 4.19659392639
      z: 0.0
    orientation: 
      x: 0.0
      y: 0.0
      z: 0.696135470096
      w: 0.717910445163
  covariance: [9463099346.901846, -250988858.28735143, 0.0, 0.0, 0.0, -3.148673374964874e-16, -250988858.28735095, 6657533.350096232, 0.0, 0.0, 0.0, 1.0750901421450015e-17, 0.0, 0.0, 5.663604178971659e-07, -3.332657132988147e-22, -1.6679086897217626e-14, 0.0, 0.0, 0.0, -3.3326571329881477e-22, 4.5044995677661265e-07, -1.2757680288804703e-29, 0.0, 0.0, 0.0, -1.6679086897217623e-14, -1.2879098000788072e-29, 4.50449956776612e-07, 0.0, -3.148673374964874e-16, 1.0750901421450017e-17, 0.0, 0.0, 0.0, 9.737478025673537e-07]
twist: 
  twist: 
    linear: 
      x: 5.20065131411e-09
      y: 0.0
      z: 0.0
    angular: 
      x: 0.0
      y: 0.0
      z: 0.000122605578068
  covariance: [9.99999598520364e-10, 0.0, 0.0, 0.0, 0.0, 0.0, 0.0, 308545.0884521042, 0.0, 0.0, 0.0, 0.0, 0.0, 0.0, 4.954092304695425e-07, -1.6426611927836681e-25, -5.060512261042227e-27, 0.0, 0.0, 0.0, -1.642661192783668e-25, 3.312586752932984e-07, -2.6664954692359426e-34, 0.0, 0.0, 0.0, -5.060512261042225e-27, -2.266800328384072e-34, 3.312586752932984e-07, 0.0, 0.0, 0.0, 0.0, 0.0, 0.0, 9.969348590145141e-10]
---
header: 
  seq: 4525
  stamp: 
    secs: 1518208350
    nsecs: 634535313
  frame_id: "swarmone/odom"
child_frame_id: "swarmone/base_link"
pose: 
  pose: 
    position: 
      x: 0.10890187763
      y: 4.19749085958
      z: 0.0
    orientation: 
      x: 0.0
      y: 0.0
      z: 0.699716305692
      w: 0.714420808452
  covariance: [9473548959.460463, -251288078.48852324, 0.0, 0.0, 0.0, -4.371174659730706e-16, -251288078.4885228, 6666052.227092886, 0.0, 0.0, 0.0, 1.0550167543131114e-17, 0.0, 0.0, 5.66360426183104e-07, -3.123812675754202e-22, -2.314774032113378e-14, 0.0, 0.0, 0.0, -3.1238126757542024e-22, 4.5044998341948804e-07, -1.6997273250978353e-29, 0.0, 0.0, 0.0, -2.3147740321133783e-14, -1.6352606412265408e-29, 4.504499834194869e-07, 0.0, -4.371174659730706e-16, 1.0550167543131114e-17, 0.0, 0.0, 0.0, 9.737478025677502e-07]
twist: 
  twist: 
    linear: 
      x: 7.20038039956e-09
      y: 0.0
      z: 0.0
    angular: 
      x: 0.0
      y: 0.0
      z: 0.000122605578213
  covariance: [9.999995994721212e-10, 0.0, 0.0, 0.0, 0.0, 0.0, 0.0, 308749.486672342, 0.0, 0.0, 0.0, 0.0, 0.0, 0.0, 4.954092472964283e-07, -2.280323361420308e-25, -4.7430844809507795e-27, 0.0, 0.0, 0.0, -2.280323361420308e-25, 3.312587934077938e-07, -3.6810428878344567e-34, 0.0, 0.0, 0.0, -4.74308448095078e-27, -2.998421134312563e-34, 3.312587934077938e-07, 0.0, 0.0, 0.0, 0.0, 0.0, 0.0, 9.969348590145253e-10]
---
header: 
  seq: 4526
  stamp: 
    secs: 1518208350
    nsecs: 734647036
  frame_id: "swarmone/odom"
child_frame_id: "swarmone/base_link"
pose: 
  pose: 
    position: 
      x: 0.108923753676
      y: 4.19854265919
      z: 0.0
    orientation: 
      x: 0.0
      y: 0.0
      z: 0.699716302881
      w: 0.714420811205
  covariance: [9484036036.669884, -251535907.04920495, 0.0, 0.0, 0.0, -5.062427251779565e-16, -251535907.04920447, 6671824.692742164, 0.0, 0.0, 0.0, 1.0529397398866164e-17, 0.0, 0.0, 5.636536632690843e-07, -3.5820603302364314e-22, -2.6945468072545466e-14, 0.0, 0.0, 0.0, -3.582060330236432e-22, 4.4828137509001927e-07, -2.2585468992204835e-29, 0.0, 0.0, 0.0, -2.6945468072545476e-14, -2.165474411795273e-29, 4.482813750900175e-07, 0.0, -5.062427251779566e-16, 1.0529397398866164e-17, 0.0, 0.0, 0.0, 9.594426878220552e-07]
twist: 
  twist: 
    linear: 
      x: 8.40024745943e-09
      y: 0.0
      z: 0.0
    angular: 
      x: 0.0
      y: 0.0
      z: 0.000124424127968
  covariance: [9.999996004469732e-10, 0.0, 0.0, 0.0, 0.0, 0.0, 0.0, 308954.47417697014, 0.0, 0.0, 0.0, 0.0, 0.0, 0.0, 4.929693558946889e-07, -2.5936205101445436e-25, -5.394551522250297e-27, 0.0, 0.0, 0.0, -2.5936205101445445e-25, 3.301909689825301e-07, -4.5312683382830125e-34, 0.0, 0.0, 0.0, -5.3945515222503e-27, -4.411734679064724e-34, 3.301909689825301e-07, 0.0, 0.0, 0.0, 0.0, 0.0, 0.0, 9.968893952517602e-10]
---
header: 
  seq: 4527
  stamp: 
    secs: 1518208350
    nsecs: 834363699
  frame_id: "swarmone/odom"
child_frame_id: "swarmone/base_link"
pose: 
  pose: 
    position: 
      x: 0.108947523982
      y: 4.19968553437
      z: 0.0
    orientation: 
      x: 0.0
      y: 0.0
      z: 0.699716309694
      w: 0.714420804532
  covariance: [9494490959.690386, -251782958.21318746, 0.0, 0.0, 0.0, -5.604625882966133e-16, -251782958.213187, 6677578.730610084, 0.0, 0.0, 0.0, 1.1657126935429128e-17, 0.0, 0.0, 5.690338178555521e-07, -4.061187593911278e-22, -2.966483826536609e-14, 0.0, 0.0, 0.0, -4.061187593911279e-22, 4.526016206160132e-07, -2.803450737516138e-29, 0.0, 0.0, 0.0, -2.966483826536609e-14, -2.787452681675437e-29, 4.5260162061601113e-07, 0.0, -5.604625882966133e-16, 1.1657126935429128e-17, 0.0, 0.0, 0.0, 9.880529173135975e-07]
twist: 
  twist: 
    linear: 
      x: 9.20011975283e-09
      y: 0.0
      z: 0.0
    angular: 
      x: 0.0
      y: 0.0
      z: 0.000120839421622
  covariance: [9.999995988640121e-10, 0.0, 0.0, 0.0, 0.0, 0.0, 0.0, 309158.7429386465, 0.0, 0.0, 0.0, 0.0, 0.0, 0.0, 4.97825775481476e-07, -2.9896240821797987e-25, -6.218212020978469e-27, 0.0, 0.0, 0.0, -2.9896240821797987e-25, 3.32323263868706e-07, -5.806674017595816e-34, 0.0, 0.0, 0.0, -6.2182120209784674e-27, -5.805005606021685e-34, 3.32323263868706e-07, 0.0, 0.0, 0.0, 0.0, 0.0, 0.0, 9.969790129491222e-10]
---
header: 
  seq: 4528
  stamp: 
    secs: 1518208350
    nsecs: 935293913
  frame_id: "swarmone/odom"
child_frame_id: "swarmone/base_link"
pose: 
  pose: 
    position: 
      x: 0.108972936392
      y: 4.20090726697
      z: 0.0
    orientation: 
      x: 0.0
      y: 0.0
      z: 0.696135464443
      w: 0.717910450645
  covariance: [9505082505.181755, -252033228.08103654, 0.0, 0.0, 0.0, -5.802768604596259e-16, -252033228.0810361, 6683407.6496477155, 0.0, 0.0, 0.0, 1.588114980589696e-17, 0.0, 0.0, 5.609129172921965e-07, -5.989744182009408e-22, -3.089474372598982e-14, 0.0, 0.0, 0.0, -5.9897441820094065e-22, 4.4609564794895657e-07, -4.237789950691508e-29, 0.0, 0.0, 0.0, -3.089474372598983e-14, -4.191133973090914e-29, 4.460956479489544e-07, 0.0, -5.80276860459626e-16, 1.588114980589696e-17, 0.0, 0.0, 0.0, 9.45137573077305e-07]
twist: 
  twist: 
    linear: 
      x: 9.59922155305e-09
      y: 0.0
      z: 0.0
    angular: 
      x: 0.0
      y: 0.0
      z: 0.000126297437645
  covariance: [9.999996036871416e-10, 0.0, 0.0, 0.0, 0.0, 0.0, 0.0, 309365.5893163391, 0.0, 0.0, 0.0, 0.0, 0.0, 0.0, 4.905057950440676e-07, -2.9036856454918365e-25, -8.944709013127532e-27, 0.0, 0.0, 0.0, -2.9036856454918374e-25, 3.291200119490584e-07, -8.420258192887823e-34, 0.0, 0.0, 0.0, -8.944709013127531e-27, -8.181021812942436e-34, 3.291200119490584e-07, 0.0, 0.0, 0.0, 0.0, 0.0, 0.0, 9.968425624991797e-10]
---
header: 
  seq: 4529
  stamp: 
    secs: 1518208351
    nsecs:  34903765
  frame_id: "swarmone/odom"
child_frame_id: "swarmone/base_link"
pose: 
  pose: 
    position: 
      x: 0.10900042305
      y: 4.20179957923
      z: 0.0
    orientation: 
      x: 0.0
      y: 0.0
      z: 0.69971625051
      w: 0.714420862498
  covariance: [9515542058.815903, -252332693.17394868, 0.0, 0.0, 0.0, -4.3599764642997163e-16, -252332693.1739483, 6691932.181559405, 0.0, 0.0, 0.0, 1.0480371440760217e-17, 0.0, 0.0, 5.690338141552117e-07, -2.382451261591055e-22, -2.3192407723828953e-14, 0.0, 0.0, 0.0, -2.3824512615910556e-22, 4.5260157582390065e-07, -1.2744952232495237e-29, 0.0, 0.0, 0.0, -2.319240772382895e-14, -1.2897343652156877e-29, 4.5260157582389943e-07, 0.0, -4.3599764642997163e-16, 1.0480371440760219e-17, 0.0, 0.0, 0.0, 9.880529173134178e-07]
twist: 
  twist: 
    linear: 
      x: 7.20064411569e-09
      y: 0.0
      z: 0.0
    angular: 
      x: 0.0
      y: 0.0
      z: 9.06295662183e-05
  covariance: [9.999995984338708e-10, 0.0, 0.0, 0.0, 0.0, 0.0, 0.0, 309569.8201842586, 0.0, 0.0, 0.0, 0.0, 0.0, 0.0, 4.978257679449737e-07, -2.33730816899304e-25, -4.861516803103646e-27, 0.0, 0.0, 0.0, -2.3373081689930393e-25, 3.323232106040662e-07, -3.274588684668419e-34, 0.0, 0.0, 0.0, -4.861516803103646e-27, -3.7948453682385477e-34, 3.323232106040662e-07, 0.0, 0.0, 0.0, 0.0, 0.0, 0.0, 9.969790129491172e-10]
---
header: 
  seq: 4530
  stamp: 
    secs: 1518208351
    nsecs: 134613276
  frame_id: "swarmone/odom"
child_frame_id: "swarmone/base_link"
pose: 
  pose: 
    position: 
      x: 0.109024175674
      y: 4.20294159622
      z: 0.0
    orientation: 
      x: 0.0
      y: 0.0
      z: 0.699716544926
      w: 0.714420574141
  covariance: [9526024001.631754, -252580361.4663899, 0.0, 0.0, 0.0, -1.1941711391558749e-15, -252580361.46638954, 6697700.210688363, 0.0, 0.0, 0.0, 2.483786173789516e-17, 0.0, 0.0, 7.478221841462507e-07, -8.73248408667879e-22, -3.1906232998929986e-14, 0.0, 0.0, 0.0, -8.732484086678792e-22, 6.22551436833081e-07, -1.1039864940988975e-28, 0.0, 0.0, 0.0, -3.190623299892998e-14, -1.1057284025728258e-28, 6.22551436833077e-07, 0.0, -1.1941711391558749e-15, 2.4837861737895158e-17, 0.0, 0.0, 0.0, 2.633141113115974e-06]
twist: 
  twist: 
    linear: 
      x: 9.1982908304e-09
      y: 0.0
      z: 0.0
    angular: 
      x: 0.0
      y: 0.0
      z: 3.41149131802e-05
  covariance: [9.999995988352444e-10, 0.0, 0.0, 0.0, 0.0, 0.0, 0.0, 309774.3453834218, 0.0, 0.0, 0.0, 0.0, 0.0, 0.0, 6.761727464002511e-07, -1.2455949981944713e-24, -2.590750136982125e-26, 0.0, 0.0, 0.0, -1.2455949981944713e-24, 4.3563792203481965e-07, -5.70232706891857e-33, 0.0, 0.0, 0.0, -2.5907501369821244e-26, -5.8102852720950026e-33, 4.3563792203481965e-07, 0.0, 0.0, 0.0, 0.0, 0.0, 0.0, 9.988628356585598e-10]
---
header: 
  seq: 4531
  stamp: 
    secs: 1518208351
    nsecs: 235263586
  frame_id: "swarmone/odom"
child_frame_id: "swarmone/base_link"
pose: 
  pose: 
    position: 
      x: 0.109041024921
      y: 4.20375173358
      z: 0.0
    orientation: 
      x: 0.0
      y: 0.0
      z: 0.69971632332
      w: 0.714420791186
  covariance: [9536614211.807455, -252830565.73027262, 0.0, 0.0, 0.0, -6.333412287995641e-16, -252830565.73027226, 6703526.8454419235, 0.0, 0.0, 0.0, 1.317260593497006e-17, 0.0, 0.0, 5.79405738448668e-07, -3.066703713226665e-22, -2.1179886744593637e-14, 0.0, 0.0, 0.0, -3.066703713226666e-22, 4.6104244864345445e-07, -1.5615015982947062e-29, 0.0, 0.0, 0.0, -2.117988674459363e-14, -1.5271027217016248e-29, 4.610424486434535e-07, 0.0, -6.333412287995642e-16, 1.3172605934970064e-17, 0.0, 0.0, 0.0, 1.0452733762995995e-06]
twist: 
  twist: 
    linear: 
      x: 6.40169687052e-09
      y: 0.0
      z: 0.0
    angular: 
      x: 0.0
      y: 0.0
      z: 0.000114255910211
  covariance: [9.99999602585454e-10, 0.0, 0.0, 0.0, 0.0, 0.0, 0.0, 309980.89170411107, 0.0, 0.0, 0.0, 0.0, 0.0, 0.0, 5.072648836616346e-07, -2.3322110829555155e-25, -4.8508375442033604e-27, 0.0, 0.0, 0.0, -2.3322110829555146e-25, 3.365482295651562e-07, -3.31233425231207e-34, 0.0, 0.0, 0.0, -4.8508375442033604e-27, -3.3113309775418487e-34, 3.365482295651562e-07, 0.0, 0.0, 0.0, 0.0, 0.0, 0.0, 9.97143600826715e-10]
---
header: 
  seq: 4532
  stamp: 
    secs: 1518208351
    nsecs: 334945679
  frame_id: "swarmone/odom"
child_frame_id: "swarmone/base_link"
pose: 
  pose: 
    position: 
      x: 0.109064779707
      y: 4.20489376965
      z: 0.0
    orientation: 
      x: 0.0
      y: 0.0
      z: 0.696135471297
      w: 0.717910443999
  covariance: [9547111828.171066, -253078576.53250754, 0.0, 0.0, 0.0, -5.710706779197209e-16, -253078576.5325072, 6709302.426379956, 0.0, 0.0, 0.0, 1.559498913114745e-17, 0.0, 0.0, 5.663604196855212e-07, -5.896406341523371e-22, -2.9519748541019613e-14, 0.0, 0.0, 0.0, -5.896406341523371e-22, 4.5044996253490716e-07, -4.012895079226045e-29, 0.0, 0.0, 0.0, -2.9519748541019613e-14, -4.0149894871234486e-29, 4.5044996253490526e-07, 0.0, -5.710706779197209e-16, 1.559498913114745e-17, 0.0, 0.0, 0.0, 9.737478025674408e-07]
twist: 
  twist: 
    linear: 
      x: 9.19930956064e-09
      y: 0.0
      z: 0.0
    angular: 
      x: 0.0
      y: 0.0
      z: 0.000122605578087
  covariance: [9.999995987249172e-10, 0.0, 0.0, 0.0, 0.0, 0.0, 0.0, 310185.54159953736, 0.0, 0.0, 0.0, 0.0, 0.0, 0.0, 4.954092341068886e-07, -2.9074478568352396e-25, -8.956344812150298e-27, 0.0, 0.0, 0.0, -2.90744785683524e-25, 3.312587009405316e-07, -7.827387501464444e-34, 0.0, 0.0, 0.0, -8.956344812150298e-27, -8.070877629974468e-34, 3.312587009405316e-07, 0.0, 0.0, 0.0, 0.0, 0.0, 0.0, 9.969348590145166e-10]
---
header: 
  seq: 4533
  stamp: 
    secs: 1518208351
    nsecs: 434557199
  frame_id: "swarmone/odom"
child_frame_id: "swarmone/base_link"
pose: 
  pose: 
    position: 
      x: 0.109092267727
      y: 4.20578608081
      z: 0.0
    orientation: 
      x: 0.0
      y: 0.0
      z: 0.696135467273
      w: 0.7179104479
  covariance: [9557608535.530539, -253379074.3346486, 0.0, 0.0, 0.0, -4.3163622899949357e-16, -253379074.3346483, 6717855.252144821, 0.0, 0.0, 0.0, 1.3296919664374396e-17, 0.0, 0.0, 5.636536455831274e-07, -4.523510640595662e-22, -2.2980183854438318e-14, 0.0, 0.0, 0.0, -4.523510640595662e-22, 4.4828131851929944e-07, -2.3399692830433502e-29, 0.0, 0.0, 0.0, -2.2980183854438315e-14, -2.4246432135714932e-29, 4.4828131851929833e-07, 0.0, -4.316362289994936e-16, 1.3296919664374396e-17, 0.0, 0.0, 0.0, 9.594426878212192e-07]
twist: 
  twist: 
    linear: 
      x: 7.1999952389e-09
      y: 0.0
      z: 0.0
    angular: 
      x: 0.0
      y: 0.0
      z: 0.000124424127657
  covariance: [9.999995984406063e-10, 0.0, 0.0, 0.0, 0.0, 0.0, 0.0, 310390.13656820444, 0.0, 0.0, 0.0, 0.0, 0.0, 0.0, 4.929693200787984e-07, -2.2113733479912973e-25, -6.812367151017115e-27, 0.0, 0.0, 0.0, -2.2113733479912963e-25, 3.301907191944422e-07, -4.9339644936875526e-34, 0.0, 0.0, 0.0, -6.812367151017114e-27, -5.013838279888544e-34, 3.301907191944422e-07, 0.0, 0.0, 0.0, 0.0, 0.0, 0.0, 9.96889395251736e-10]
---
header: 
  seq: 4534
  stamp: 
    secs: 1518208351
    nsecs: 535117149
  frame_id: "swarmone/odom"
child_frame_id: "swarmone/base_link"
pose: 
  pose: 
    position: 
      x: 0.109120263066
      y: 4.20669481306
      z: 0.0
    orientation: 
      x: 0.0
      y: 0.0
      z: 0.692537686405
      w: 0.721381697098
  covariance: [9568214546.311958, -253682739.94752002, 0.0, 0.0, 0.0, -1.0065626013929488e-15, -253682739.9475197, 6726499.3036757605, 0.0, 0.0, 0.0, 3.963927169675269e-17, 0.0, 0.0, 7.61583345706192e-07, -1.9296614782083495e-21, -2.4804638307444727e-14, 0.0, 0.0, 0.0, -1.9296614782083506e-21, 6.381805280048586e-07, -2.0124112672924603e-28, 0.0, 0.0, 0.0, -2.4804638307444733e-14, -2.0027926384697249e-28, 6.38180528004856e-07, 0.0, -1.0065626013929488e-15, 3.963927169675269e-17, 0.0, 0.0, 0.0, 2.8620229490552304e-06]
twist: 
  twist: 
    linear: 
      x: 7.19745648498e-09
      y: 0.0
      z: 0.0
    angular: 
      x: 0.0
      y: 0.0
      z: 4.18552424168e-05
  covariance: [9.99999602227901e-10, 0.0, 0.0, 0.0, 0.0, 0.0, 0.0, 310596.7707785317, 0.0, 0.0, 0.0, 0.0, 0.0, 0.0, 6.914203440878941e-07, -1.0665834827097614e-24, -4.3541360730451216e-26, 0.0, 0.0, 0.0, -1.0665834827097619e-24, 4.4753213197237184e-07, -8.107950140079524e-33, 0.0, 0.0, 0.0, -4.354136073045124e-26, -8.039685645719638e-33, 4.4753213197237184e-07, 0.0, 0.0, 0.0, 0.0, 0.0, 0.0, 9.98953618420676e-10]
---
header: 
  seq: 4535
  stamp: 
    secs: 1518208351
    nsecs: 634363413
  frame_id: "swarmone/odom"
child_frame_id: "swarmone/base_link"
pose: 
  pose: 
    position: 
      x: 0.109136323582
      y: 4.20708838134
      z: 0.0
    orientation: 
      x: 0.0
      y: 0.0
      z: 0.699716717286
      w: 0.714420405329
  covariance: [9578687486.259872, -254034977.22382584, 0.0, 0.0, 0.0, -5.469919953596963e-16, -254034977.2238255, 6737806.998684645, 0.0, 0.0, 0.0, 1.5161013873139744e-17, 0.0, 0.0, 7.522901614784245e-07, -4.126556848577446e-22, -1.1008944585150851e-14, 0.0, 0.0, 0.0, -4.1265568485774463e-22, 6.275786300533554e-07, -1.7978075565905476e-29, 0.0, 0.0, 0.0, -1.1008944585150848e-14, -1.8701228881728304e-29, 6.275786300533548e-07, 0.0, -5.469919953596963e-16, 1.516101387313974e-17, 0.0, 0.0, 0.0, 2.7046666868458193e-06]
twist: 
  twist: 
    linear: 
      x: 3.20411339821e-09
      y: 0.0
      z: 0.0
    angular: 
      x: 0.0
      y: 0.0
      z: 4.42858674177e-05
  covariance: [9.999995969632452e-10, 0.0, 0.0, 0.0, 0.0, 0.0, 0.0, 310800.79547812743, 0.0, 0.0, 0.0, 0.0, 0.0, 0.0, 6.810970056521872e-07, -4.436124725913145e-25, -9.223397348483346e-27, 0.0, 0.0, 0.0, -4.436124725913145e-25, 4.394092589065029e-07, -8.054180747035407e-34, 0.0, 0.0, 0.0, -9.223397348483343e-27, -7.821678088554516e-34, 4.394092589065029e-07, 0.0, 0.0, 0.0, 0.0, 0.0, 0.0, 9.988928527571106e-10]
---
header: 
  seq: 4536
  stamp: 
    secs: 1518208351
    nsecs: 735007048
  frame_id: "swarmone/odom"
child_frame_id: "swarmone/base_link"
pose: 
  pose: 
    position: 
      x: 0.109156331054
      y: 4.2080499789
      z: 0.0
    orientation: 
      x: 0.0
      y: 0.0
      z: 0.692537260467
      w: 0.721382106006
  covariance: [9589323796.872652, -254286322.89008754, 0.0, 0.0, 0.0, -7.767550059050352e-16, -254286322.89008722, 6743661.358074748, 0.0, 0.0, 0.0, 2.308447810652892e-17, 0.0, 0.0, 5.868628422334404e-07, -7.513632005221956e-22, -2.5415159353654858e-14, 0.0, 0.0, 0.0, -7.513632005221957e-22, 4.6720411747216825e-07, -4.56135491987694e-29, 0.0, 0.0, 0.0, -2.5415159353654852e-14, -4.5934612025338463e-29, 4.672041174721667e-07, 0.0, -7.767550059050353e-16, 2.3084478106528916e-17, 0.0, 0.0, 0.0, 1.088188720537896e-06]
twist: 
  twist: 
    linear: 
      x: 7.59871987902e-09
      y: 0.0
      z: 0.0
    angular: 
      x: 0.0
      y: 0.0
      z: 0.000109770562328
  covariance: [9.999996025591125e-10, 0.0, 0.0, 0.0, 0.0, 0.0, 0.0, 311007.78403596894, 0.0, 0.0, 0.0, 0.0, 0.0, 0.0, 5.141145391691123e-07, -2.9748108807802803e-25, -1.2136853750579815e-26, 0.0, 0.0, 0.0, -2.974810880780279e-25, 3.3968168544324663e-07, -1.0624921595456182e-33, 0.0, 0.0, 0.0, -1.2136853750579812e-26, -9.814842106088678e-34, 3.3968168544324663e-07, 0.0, 0.0, 0.0, 0.0, 0.0, 0.0, 9.972557345796972e-10]
---
header: 
  seq: 4537
  stamp: 
    secs: 1518208351
    nsecs: 834774494
  frame_id: "swarmone/odom"
child_frame_id: "swarmone/base_link"
pose: 
  pose: 
    position: 
      x: 0.109184738389
      y: 4.20874598791
      z: 0.0
    orientation: 
      x: 0.0
      y: 0.0
      z: 0.699716244804
      w: 0.714420868086
  covariance: [9599870332.382717, -254641099.01248324, 0.0, 0.0, 0.0, -3.4959165903292824e-16, -254641099.01248288, 6755052.635713834, 0.0, 0.0, 0.0, 9.803898908600597e-18, 0.0, 0.0, 5.636536511275279e-07, -1.7863426392584428e-22, -1.7903826735730467e-14, 0.0, 0.0, 0.0, -1.7863426392584428e-22, 4.4828130389586366e-07, -7.325004689404858e-30, 0.0, 0.0, 0.0, -1.790382673573047e-14, -7.334185984714637e-30, 4.4828130389586297e-07, 0.0, -3.4959165903292824e-16, 9.803898908600597e-18, 0.0, 0.0, 0.0, 9.59442687821484e-07]
twist: 
  twist: 
    linear: 
      x: 5.60095603404e-09
      y: 0.0
      z: 0.0
    angular: 
      x: 0.0
      y: 0.0
      z: 9.33180958436e-05
  covariance: [9.999995990682306e-10, 0.0, 0.0, 0.0, 0.0, 0.0, 0.0, 311213.06126773614, 0.0, 0.0, 0.0, 0.0, 0.0, 0.0, 4.929693313157974e-07, -1.723478513890764e-25, -3.585335469427166e-27, 0.0, 0.0, 0.0, -1.723478513890764e-25, 3.3019079774973544e-07, -2.112558121382504e-34, 0.0, 0.0, 0.0, -3.585335469427164e-27, -1.949668870323892e-34, 3.3019079774973544e-07, 0.0, 0.0, 0.0, 0.0, 0.0, 0.0, 9.968893952517437e-10]
---
header: 
  seq: 4538
  stamp: 
    secs: 1518208351
    nsecs: 934486628
  frame_id: "swarmone/odom"
child_frame_id: "swarmone/base_link"
pose: 
  pose: 
    position: 
      x: 0.109206441359
      y: 4.20978937699
      z: 0.0
    orientation: 
      x: 0.0
      y: 0.0
      z: 0.696135413279
      w: 0.717910500257
  covariance: [9610426794.253042, -254890580.86197498, 0.0, 0.0, 0.0, -5.0661804560418225e-16, -254890580.8619746, 6760863.966546846, 0.0, 0.0, 0.0, 1.3932412167208845e-17, 0.0, 0.0, 5.663604207287323e-07, -4.039223984076691e-22, -2.6962108501471215e-14, 0.0, 0.0, 0.0, -4.0392239840766907e-22, 4.5044993324419376e-07, -2.5117888273121382e-29, 0.0, 0.0, 0.0, -2.696210850147121e-14, -2.511090877292327e-29, 4.50449933244192e-07, 0.0, -5.066180456041822e-16, 1.3932412167208845e-17, 0.0, 0.0, 0.0, 9.737478025674888e-07]
twist: 
  twist: 
    linear: 
      x: 8.39985780932e-09
      y: 0.0
      z: 0.0
    angular: 
      x: 0.0
      y: 0.0
      z: 9.19541835906e-05
  covariance: [9.999995988457885e-10, 0.0, 0.0, 0.0, 0.0, 0.0, 0.0, 311418.3149230771, 0.0, 0.0, 0.0, 0.0, 0.0, 0.0, 4.954092362186872e-07, -2.6553697444777015e-25, -8.1799708477579e-27, 0.0, 0.0, 0.0, -2.6553697444777015e-25, 3.3125871562608426e-07, -6.37503609049325e-34, 0.0, 0.0, 0.0, -8.179970847757899e-27, -6.937647252520566e-34, 3.3125871562608426e-07, 0.0, 0.0, 0.0, 0.0, 0.0, 0.0, 9.969348590145178e-10]
---
header: 
  seq: 4539
  stamp: 
    secs: 1518208352
    nsecs:  35190105
  frame_id: "swarmone/odom"
child_frame_id: "swarmone/base_link"
pose: 
  pose: 
    position: 
      x: 0.109237655411
      y: 4.21080268973
      z: 0.0
    orientation: 
      x: 0.0
      y: 0.0
      z: 0.699716298883
      w: 0.71442081512
  covariance: [9621094879.396055, -255196057.86365098, 0.0, 0.0, 0.0, -4.80133307880995e-16, -255196057.86365062, 6769560.996926874, 0.0, 0.0, 0.0, 1.1620508887606125e-17, 0.0, 0.0, 5.609129093259274e-07, -3.36430448029946e-22, -2.5689020855309006e-14, 0.0, 0.0, 0.0, -3.36430448029946e-22, 4.460956226303072e-07, -1.963935744999555e-29, 0.0, 0.0, 0.0, -2.5689020855309006e-14, -1.9726691518321014e-29, 4.4609562263030565e-07, 0.0, -4.801333078809949e-16, 1.1620508887606124e-17, 0.0, 0.0, 0.0, 9.451375730769328e-07]
twist: 
  twist: 
    linear: 
      x: 7.99986484001e-09
      y: 0.0
      z: 0.0
    angular: 
      x: 0.0
      y: 0.0
      z: 0.00012629743746
  covariance: [9.99999602794831e-10, 0.0, 0.0, 0.0, 0.0, 0.0, 0.0, 311625.70080185, 0.0, 0.0, 0.0, 0.0, 0.0, 0.0, 4.905057789559891e-07, -2.4150136004129104e-25, -5.023370268639723e-27, 0.0, 0.0, 0.0, -2.415013600412911e-25, 3.2911990045064554e-07, -3.860785620045012e-34, 0.0, 0.0, 0.0, -5.023370268639723e-27, -3.8204682538055055e-34, 3.2911990045064554e-07, 0.0, 0.0, 0.0, 0.0, 0.0, 0.0, 9.968425624991685e-10]
---
header: 
  seq: 4540
  stamp: 
    secs: 1518208352
    nsecs: 134990692
  frame_id: "swarmone/odom"
child_frame_id: "swarmone/base_link"
pose: 
  pose: 
    position: 
      x: 0.109257312834
      y: 4.21174774522
      z: 0.0
    orientation: 
      x: 0.0
      y: 0.0
      z: 0.696135767584
      w: 0.717910156698
  covariance: [9631679390.799814, -255446214.9950136, 0.0, 0.0, 0.0, -1.0797988227170765e-15, -255446214.99501324, 6775388.47284243, 0.0, 0.0, 0.0, 3.177106144086459e-17, 0.0, 0.0, 7.663643333073331e-07, -1.1719600254233592e-21, -2.5830552326684287e-14, 0.0, 0.0, 0.0, -1.1719600254233593e-21, 6.437127431567856e-07, -1.3018654746240543e-28, 0.0, 0.0, 0.0, -2.5830552326684287e-14, -1.3015684021590045e-28, 6.437127431567827e-07, 0.0, -1.0797988227170765e-15, 3.177106144086459e-17, 0.0, 0.0, 0.0, 2.9478536375306666e-06]
twist: 
  twist: 
    linear: 
      x: 7.59921178761e-09
      y: 0.0
      z: 0.0
    angular: 
      x: 0.0
      y: 0.0
      z: 3.04789759895e-05
  covariance: [9.999995992013275e-10, 0.0, 0.0, 0.0, 0.0, 0.0, 0.0, 311831.3181095519, 0.0, 0.0, 0.0, 0.0, 0.0, 0.0, 6.967743998844796e-07, -1.149218266507843e-24, -3.5407822582749396e-26, 0.0, 0.0, 0.0, -1.1492182665078434e-24, 4.518638605832544e-07, -7.083133176295715e-33, 0.0, 0.0, 0.0, -3.540782258274941e-26, -7.016392359976315e-33, 4.518638605832544e-07, 0.0, 0.0, 0.0, 0.0, 0.0, 0.0, 9.989840336265804e-10]
---
header: 
  seq: 4541
  stamp: 
    secs: 1518208352
    nsecs: 234686613
  frame_id: "swarmone/odom"
child_frame_id: "swarmone/base_link"
pose: 
  pose: 
    position: 
      x: 0.109281786993
      y: 4.21254236946
      z: 0.0
    orientation: 
      x: 0.0
      y: 0.0
      z: 0.699716309097
      w: 0.714420805117
  covariance: [9642259371.143787, -255749159.12561357, 0.0, 0.0, 0.0, -6.537918922002673e-16, -255749159.12561318, 6784013.108879122, 0.0, 0.0, 0.0, 1.7514583661633694e-17, 0.0, 0.0, 5.69033817255969e-07, -2.8244515964189984e-22, -2.0635846296355025e-14, 0.0, 0.0, 0.0, -2.8244515964189984e-22, 4.526016190325524e-07, -1.342497832671032e-29, 0.0, 0.0, 0.0, -2.0635846296355028e-14, -1.3623537345247284e-29, 4.5260161903255133e-07, 0.0, -6.537918922002673e-16, 1.7514583661633694e-17, 0.0, 0.0, 0.0, 9.880529173136183e-07]
twist: 
  twist: 
    linear: 
      x: 6.40130337973e-09
      y: 0.0
      z: 0.0
    angular: 
      x: 0.0
      y: 0.0
      z: 0.000120839421467
  covariance: [9.999995987810827e-10, 0.0, 0.0, 0.0, 0.0, 0.0, 0.0, 312036.8100624869, 0.0, 0.0, 0.0, 0.0, 0.0, 0.0, 4.978257743817416e-07, -2.0834616461923255e-25, -4.33700416348866e-27, 0.0, 0.0, 0.0, -2.0834616461923255e-25, 3.3232325960095004e-07, -2.8006646355781413e-34, 0.0, 0.0, 0.0, -4.33700416348866e-27, -2.638949653317906e-34, 3.3232325960095004e-07, 0.0, 0.0, 0.0, 0.0, 0.0, 0.0, 9.969790129491211e-10]
---
header: 
  seq: 4542
  stamp: 
    secs: 1518208352
    nsecs: 334338665
  frame_id: "swarmone/odom"
child_frame_id: "swarmone/base_link"
pose: 
  pose: 
    position: 
      x: 0.109303462406
      y: 4.2135844403
      z: 0.0
    orientation: 
      x: 0.0
      y: 0.0
      z: 0.696135467874
      w: 0.717910447318
  covariance: [9652846716.43501, -255999361.11443543, 0.0, 0.0, 0.0, -5.062815888608597e-16, -255999361.11443502, 6789841.02400435, 0.0, 0.0, 0.0, 1.3873126322981935e-17, 0.0, 0.0, 5.63653647024421e-07, -5.27814111577601e-22, -2.681827851020153e-14, 0.0, 0.0, 0.0, -5.27814111577601e-22, 4.4828132312980025e-07, -3.216948467874854e-29, 0.0, 0.0, 0.0, -2.681827851020152e-14, -3.2230219386862864e-29, 4.4828132312979866e-07, 0.0, -5.062815888608597e-16, 1.3873126322981937e-17, 0.0, 0.0, 0.0, 9.594426878212876e-07]
twist: 
  twist: 
    linear: 
      x: 8.39881339823e-09
      y: 0.0
      z: 0.0
    angular: 
      x: 0.0
      y: 0.0
      z: 0.00012442412768
  covariance: [9.999995986039352e-10, 0.0, 0.0, 0.0, 0.0, 0.0, 0.0, 312242.30179221433, 0.0, 0.0, 0.0, 0.0, 0.0, 0.0, 4.929693229987e-07, -2.580740305177095e-25, -7.949954674043773e-27, 0.0, 0.0, 0.0, -2.580740305177095e-25, 3.3019073958136615e-07, -6.144294967851918e-34, 0.0, 0.0, 0.0, -7.949954674043775e-27, -6.1434569360241364e-34, 3.3019073958136615e-07, 0.0, 0.0, 0.0, 0.0, 0.0, 0.0, 9.968893952517379e-10]
---
header: 
  seq: 4543
  stamp: 
    secs: 1518208352
    nsecs: 435000420
  frame_id: "swarmone/odom"
child_frame_id: "swarmone/base_link"
pose: 
  pose: 
    position: 
      x: 0.109322177109
      y: 4.21419198479
      z: 0.0
    orientation: 
      x: 0.0
      y: 0.0
      z: 0.699716329542
      w: 0.714420785092
  covariance: [9663548013.657919, -256305778.4320336, 0.0, 0.0, 0.0, -3.1247698364188745e-16, -256305778.43203318, 6798564.487882717, 0.0, 0.0, 0.0, 7.464911204383618e-18, 0.0, 0.0, 5.84406696907601e-07, -2.381789841989194e-22, -1.600397285158911e-14, 0.0, 0.0, 0.0, -2.381789841989193e-22, 4.651659429972591e-07, -9.360607311857978e-30, 0.0, 0.0, 0.0, -1.6003972851589107e-14, -8.983352862623442e-30, 4.6516594299725845e-07, 0.0, -3.1247698364188745e-16, 7.464911204383618e-18, 0.0, 0.0, 0.0, 1.073883605791776e-06]
twist: 
  twist: 
    linear: 
      x: 4.80134921058e-09
      y: 0.0
      z: 0.0
    angular: 
      x: 0.0
      y: 0.0
      z: 0.000111226030382
  covariance: [9.999996026301896e-10, 0.0, 0.0, 0.0, 0.0, 0.0, 0.0, 312449.967196639, 0.0, 0.0, 0.0, 0.0, 0.0, 0.0, 5.11852579697902e-07, -1.8345739390839234e-25, -3.815642601774255e-27, 0.0, 0.0, 0.0, -1.8345739390839239e-25, 3.3864049648723756e-07, -2.0395321540097305e-34, 0.0, 0.0, 0.0, -3.8156426017742564e-27, -2.235740277990389e-34, 3.3864049648723756e-07, 0.0, 0.0, 0.0, 0.0, 0.0, 0.0, 9.972193478633102e-10]
---
header: 
  seq: 4544
  stamp: 
    secs: 1518208352
    nsecs: 534693003
  frame_id: "swarmone/odom"
child_frame_id: "swarmone/base_link"
pose: 
  pose: 
    position: 
      x: 0.10934490515
      y: 4.21528456304
      z: 0.0
    orientation: 
      x: 0.0
      y: 0.0
      z: 0.692537172083
      w: 0.721382190855
  covariance: [9674158367.83071, -256556528.1127802, 0.0, 0.0, 0.0, -5.461559754590939e-16, -256556528.1127798, 6804405.325312779, 0.0, 0.0, 0.0, 1.8366245146213996e-17, 0.0, 0.0, 5.636536484721176e-07, -5.495224110768459e-22, -2.8106748361272156e-14, 0.0, 0.0, 0.0, -5.49522411076846e-22, 4.482812953443145e-07, -3.5130557371731457e-29, 0.0, 0.0, 0.0, -2.8106748361272153e-14, -3.5663077176376156e-29, 4.4828129534431257e-07, 0.0, -5.461559754590939e-16, 1.8366245146214e-17, 0.0, 0.0, 0.0, 9.594426878213581e-07]
twist: 
  twist: 
    linear: 
      x: 8.79875853774e-09
      y: 0.0
      z: 0.0
    angular: 
      x: 0.0
      y: 0.0
      z: 9.33180958109e-05
  covariance: [9.9999959876715e-10, 0.0, 0.0, 0.0, 0.0, 0.0, 0.0, 312655.7239293792, 0.0, 0.0, 0.0, 0.0, 0.0, 0.0, 4.929693259372031e-07, -2.7039469642920554e-25, -1.1036311083206389e-26, 0.0, 0.0, 0.0, -2.703946964292056e-25, 3.301907602148671e-07, -9.130934061301891e-34, 0.0, 0.0, 0.0, -1.1036311083206393e-26, -9.2916431156271e-34, 3.301907602148671e-07, 0.0, 0.0, 0.0, 0.0, 0.0, 0.0, 9.9688939525174e-10]
---
header: 
  seq: 4545
  stamp: 
    secs: 1518208352
    nsecs: 634389162
  frame_id: "swarmone/odom"
child_frame_id: "swarmone/base_link"
pose: 
  pose: 
    position: 
      x: 0.109371246436
      y: 4.21592994107
      z: 0.0
    orientation: 
      x: 0.0
      y: 0.0
      z: 0.6997163085
      w: 0.714420805702
  covariance: [9684771879.347555, -256913571.80583984, 0.0, 0.0, 0.0, -3.166883912375746e-16, -256913571.80583942, 6815870.109338745, 0.0, 0.0, 0.0, 8.658972720502384e-18, 0.0, 0.0, 5.690338171461358e-07, -2.2958626216962344e-22, -1.6766303596507843e-14, 0.0, 0.0, 0.0, -2.295862621696234e-22, 4.526016183274939e-07, -9.013208166369051e-30, 0.0, 0.0, 0.0, -1.676630359650785e-14, -8.850467152682113e-30, 4.526016183274933e-07, 0.0, -3.166883912375746e-16, 8.658972720502382e-18, 0.0, 0.0, 0.0, 9.88052917313563e-07]
twist: 
  twist: 
    linear: 
      x: 5.20117400538e-09
      y: 0.0
      z: 0.0
    angular: 
      x: 0.0
      y: 0.0
      z: 0.000120839421563
  covariance: [9.999995987815124e-10, 0.0, 0.0, 0.0, 0.0, 0.0, 0.0, 312861.5783603122, 0.0, 0.0, 0.0, 0.0, 0.0, 0.0, 4.978257740368277e-07, -1.6897088443576773e-25, -3.514616905793432e-27, 0.0, 0.0, 0.0, -1.6897088443576783e-25, 3.3232325366287893e-07, -1.860397100479632e-34, 0.0, 0.0, 0.0, -3.514616905793432e-27, -1.5004930699683155e-34, 3.3232325366287893e-07, 0.0, 0.0, 0.0, 0.0, 0.0, 0.0, 9.969790129491213e-10]
---
header: 
  seq: 4546
  stamp: 
    secs: 1518208352
    nsecs: 735023737
  frame_id: "swarmone/odom"
child_frame_id: "swarmone/base_link"
pose: 
  pose: 
    position: 
      x: 0.109394404241
      y: 4.21704328039
      z: 0.0
    orientation: 
      x: 0.0
      y: 0.0
      z: 0.696135408139
      w: 0.717910505241
  covariance: [9695501349.026052, -257167154.87030044, 0.0, 0.0, 0.0, -5.30348300161021e-16, -257167154.87030002, 6821777.186505937, 0.0, 0.0, 0.0, 1.451464931509824e-17, 0.0, 0.0, 5.609129069000083e-07, -4.1061966496166764e-22, -2.8236104458419365e-14, 0.0, 0.0, 0.0, -4.1061966496166774e-22, 4.46095582713984e-07, -2.662089616811743e-29, 0.0, 0.0, 0.0, -2.823610445841937e-14, -2.619006405385181e-29, 4.4609558271398225e-07, 0.0, -5.30348300161021e-16, 1.451464931509824e-17, 0.0, 0.0, 0.0, 9.451375730768198e-07]
twist: 
  twist: 
    linear: 
      x: 8.79883071611e-09
      y: 0.0
      z: 0.0
    angular: 
      x: 0.0
      y: 0.0
      z: 9.47230781444e-05
  covariance: [9.999996025228745e-10, 0.0, 0.0, 0.0, 0.0, 0.0, 0.0, 313069.4620666351, 0.0, 0.0, 0.0, 0.0, 0.0, 0.0, 4.905057740582486e-07, -2.653809582712726e-25, -8.174973360333735e-27, 0.0, 0.0, 0.0, -2.6538095827127254e-25, 3.2911986653624927e-07, -6.64372362206272e-34, 0.0, 0.0, 0.0, -8.174973360333734e-27, -6.724991517962876e-34, 3.2911986653624927e-07, 0.0, 0.0, 0.0, 0.0, 0.0, 0.0, 9.968425624991652e-10]
---
header: 
  seq: 4547
  stamp: 
    secs: 1518208352
    nsecs: 834600687
  frame_id: "swarmone/odom"
child_frame_id: "swarmone/base_link"
pose: 
  pose: 
    position: 
      x: 0.109414243681
      y: 4.21768730107
      z: 0.0
    orientation: 
      x: 0.0
      y: 0.0
      z: 0.696135470696
      w: 0.717910444581
  covariance: [9706124672.459814, -257471372.0225772, 0.0, 0.0, 0.0, -3.1164166371888793e-16, -257471372.02257675, 6830439.001091998, 0.0, 0.0, 0.0, 9.600405317479631e-18, 0.0, 0.0, 5.663604159858757e-07, -3.3298039111661053e-22, -1.666933840106931e-14, 0.0, 0.0, 0.0, -3.3298039111661053e-22, 4.5044995063262735e-07, -1.2456753377898227e-29, 0.0, 0.0, 0.0, -1.666933840106931e-14, -1.3143106636254783e-29, 4.5044995063262677e-07, 0.0, -3.1164166371888793e-16, 9.60040531747963e-18, 0.0, 0.0, 0.0, 9.737478025672614e-07]
twist: 
  twist: 
    linear: 
      x: 5.20038583203e-09
      y: 0.0
      z: 0.0
    angular: 
      x: 0.0
      y: 0.0
      z: 0.000122605577992
  covariance: [9.999995983011873e-10, 0.0, 0.0, 0.0, 0.0, 0.0, 0.0, 313275.2516283791, 0.0, 0.0, 0.0, 0.0, 0.0, 0.0, 4.954092265858789e-07, -1.6416664522092649e-25, -5.0573254072844495e-27, 0.0, 0.0, 0.0, -1.6416664522092646e-25, 3.3125864798702524e-07, -2.1004125696589075e-34, 0.0, 0.0, 0.0, -5.0573254072844495e-27, -2.6635793892995346e-34, 3.3125864798702524e-07, 0.0, 0.0, 0.0, 0.0, 0.0, 0.0, 9.969348590145116e-10]
---
header: 
  seq: 4548
  stamp: 
    secs: 1518208352
    nsecs: 935163260
  frame_id: "swarmone/odom"
child_frame_id: "swarmone/base_link"
pose: 
  pose: 
    position: 
      x: 0.109439147354
      y: 4.21849571959
      z: 0.0
    orientation: 
      x: 0.0
      y: 0.0
      z: 0.69613547412
      w: 0.717910441261
  covariance: [9716862595.56195, -257778883.52203614, 0.0, 0.0, 0.0, -3.9502711697502614e-16, -257778883.5220357, 6839195.039167261, 0.0, 0.0, 0.0, 1.2169147161918662e-17, 0.0, 0.0, 5.69033846872273e-07, -4.219060362743171e-22, -2.081286091400003e-14, 0.0, 0.0, 0.0, -4.2190603627431707e-22, 4.526017141909873e-07, -2.0258173495937246e-29, 0.0, 0.0, 0.0, -2.0812860914000032e-14, -2.0492471805492938e-29, 4.5260171419098633e-07, 0.0, -3.950271169750262e-16, 1.216914716191866e-17, 0.0, 0.0, 0.0, 9.880529173150038e-07]
twist: 
  twist: 
    linear: 
      x: 6.40064312316e-09
      y: 0.0
      z: 0.0
    angular: 
      x: 0.0
      y: 0.0
      z: 0.000120839422126
  covariance: [9.999996022382787e-10, 0.0, 0.0, 0.0, 0.0, 0.0, 0.0, 313483.1696207933, 0.0, 0.0, 0.0, 0.0, 0.0, 0.0, 4.97825834572379e-07, -2.097003336649471e-25, -6.4600378926662245e-27, 0.0, 0.0, 0.0, -2.0970033366494704e-25, 3.3232368134413314e-07, -4.352038036176488e-34, 0.0, 0.0, 0.0, -6.460037892666224e-27, -4.354641684065486e-34, 3.3232368134413314e-07, 0.0, 0.0, 0.0, 0.0, 0.0, 0.0, 9.969790129491606e-10]
---
header: 
  seq: 4549
  stamp: 
    secs: 1518208353
    nsecs:  34891367
  frame_id: "swarmone/odom"
child_frame_id: "swarmone/base_link"
pose: 
  pose: 
    position: 
      x: 0.109471290474
      y: 4.21953914403
      z: 0.0
    orientation: 
      x: 0.0
      y: 0.0
      z: 0.696135415247
      w: 0.717910498349
  covariance: [9727520799.494318, -258084125.40557835, 0.0, 0.0, 0.0, -5.166217073764674e-16, -258084125.4055779, 6847886.896109661, 0.0, 0.0, 0.0, 1.591496946324685e-17, 0.0, 0.0, 5.690338182545036e-07, -4.1187847379721672e-22, -2.708682531757774e-14, 0.0, 0.0, 0.0, -4.118784737972166e-22, 4.526015890315628e-07, -2.606639366751476e-29, 0.0, 0.0, 0.0, -2.7086825317577738e-14, -2.5707880264421144e-29, 4.5260158903156093e-07, 0.0, -5.166217073764674e-16, 1.591496946324685e-17, 0.0, 0.0, 0.0, 9.880529173136174e-07]
twist: 
  twist: 
    linear: 
      x: 8.39945887496e-09
      y: 0.0
      z: 0.0
    angular: 
      x: 0.0
      y: 0.0
      z: 9.06295662636e-05
  covariance: [9.999995989100513e-10, 0.0, 0.0, 0.0, 0.0, 0.0, 0.0, 313689.453150877, 0.0, 0.0, 0.0, 0.0, 0.0, 0.0, 4.978257762961338e-07, -2.729163569499661e-25, -8.40747492181082e-27, 0.0, 0.0, 0.0, -2.72916356949966e-25, 3.3232326966926027e-07, -6.69690395050249e-34, 0.0, 0.0, 0.0, -8.40747492181082e-27, -6.8573462077591264e-34, 3.3232326966926027e-07, 0.0, 0.0, 0.0, 0.0, 0.0, 0.0, 9.969790129491226e-10]
---
header: 
  seq: 4550
  stamp: 
    secs: 1518208353
    nsecs: 134643078
  frame_id: "swarmone/odom"
child_frame_id: "swarmone/base_link"
pose: 
  pose: 
    position: 
      x: 0.10949732516
      y: 4.22038427307
      z: 0.0
    orientation: 
      x: 0.0
      y: 0.0
      z: 0.696135474119
      w: 0.717910441262
  covariance: [9738190880.0968, -258389721.677227, 0.0, 0.0, 0.0, -4.1834232177155207e-16, -258389721.6772265, 6856589.308968879, 0.0, 0.0, 0.0, 1.2887412620545444e-17, 0.0, 0.0, 5.690338190705993e-07, -4.445920286473551e-22, -2.1934636532006734e-14, 0.0, 0.0, 0.0, -4.445920286473552e-22, 4.526016245078123e-07, -2.2322870121997777e-29, 0.0, 0.0, 0.0, -2.1934636532006734e-14, -2.293348960114856e-29, 4.5260162450781116e-07, 0.0, -4.1834232177155207e-16, 1.2887412620545446e-17, 0.0, 0.0, 0.0, 9.88052917313657e-07]
twist: 
  twist: 
    linear: 
      x: 6.80039199952e-09
      y: 0.0
      z: 0.0
    angular: 
      x: 0.0
      y: 0.0
      z: 0.000120839421592
  covariance: [9.999995990049577e-10, 0.0, 0.0, 0.0, 0.0, 0.0, 0.0, 313895.8760119141, 0.0, 0.0, 0.0, 0.0, 0.0, 0.0, 4.978257779580379e-07, -2.2100489740612648e-25, -6.808286853893721e-27, 0.0, 0.0, 0.0, -2.2100489740612643e-25, 3.3232328140985906e-07, -5.079731201455085e-34, 0.0, 0.0, 0.0, -6.808286853893721e-27, -4.597599834969056e-34, 3.3232328140985906e-07, 0.0, 0.0, 0.0, 0.0, 0.0, 0.0, 9.969790129491236e-10]
---
header: 
  seq: 4551
  stamp: 
    secs: 1518208353
    nsecs: 235262632
  frame_id: "swarmone/odom"
child_frame_id: "swarmone/base_link"
pose: 
  pose: 
    position: 
      x: 0.109528486546
      y: 4.22139588244
      z: 0.0
    orientation: 
      x: 0.0
      y: 0.0
      z: 0.699716309103
      w: 0.714420805111
  covariance: [9748963275.2746, -258698252.1384148, 0.0, 0.0, 0.0, -4.965164983064807e-16, -258698252.1384143, 6865375.489780321, 0.0, 0.0, 0.0, 1.1983847349531871e-17, 0.0, 0.0, 5.690338488107792e-07, -3.5641346547427317e-22, -2.6028519164961454e-14, 0.0, 0.0, 0.0, -3.5641346547427312e-22, 4.5260172048134025e-07, -2.1444936225826268e-29, 0.0, 0.0, 0.0, -2.602851916496145e-14, -2.1606801641370513e-29, 4.5260172048133876e-07, 0.0, -4.965164983064807e-16, 1.198384734953187e-17, 0.0, 0.0, 0.0, 9.88052917315098e-07]
twist: 
  twist: 
    linear: 
      x: 7.9998586297e-09
      y: 0.0
      z: 0.0
    angular: 
      x: 0.0
      y: 0.0
      z: 0.000120839422157
  covariance: [9.999996024635396e-10, 0.0, 0.0, 0.0, 0.0, 0.0, 0.0, 314104.1864833515, 0.0, 0.0, 0.0, 0.0, 0.0, 0.0, 4.978258385210531e-07, -2.62321175541614e-25, -5.4562518108472835e-27, 0.0, 0.0, 0.0, -2.6232117554161387e-25, 3.323237092623158e-07, -4.442782178188766e-34, 0.0, 0.0, 0.0, -5.456251810847286e-27, -4.5648043999922734e-34, 3.323237092623158e-07, 0.0, 0.0, 0.0, 0.0, 0.0, 0.0, 9.969790129491631e-10]
---
header: 
  seq: 4552
  stamp: 
    secs: 1518208353
    nsecs: 334789991
  frame_id: "swarmone/odom"
child_frame_id: "swarmone/base_link"
pose: 
  pose: 
    position: 
      x: 0.109548050171
      y: 4.22233635162
      z: 0.0
    orientation: 
      x: 0.0
      y: 0.0
      z: 0.692537229523
      w: 0.721382135712
