header: 
  seq: 5212
  stamp: 
    secs: 1518208419
    nsecs: 334819317
  frame_id: "swarmone/odom"
child_frame_id: "swarmone/base_link"
pose: 
  pose: 
    position: 
      x: 0.124456287783
      y: 4.83322429966
      z: 0.0
    orientation: 
      x: 0.0
      y: 0.0
      z: 0.696135480966
      w: 0.717910434623
  covariance: [19207297248.573723, -509023076.0967215, 0.0, 0.0, 0.0, -4.198911308839452e-16, -509023076.0967223, 13490517.494797071, 0.0, 0.0, 0.0, 1.293511197855318e-17, 0.0, 0.0, 5.742829405710481e-07, -4.631446339333791e-22, -2.220388000303602e-14, 0.0, 0.0, 0.0, -4.631446339333792e-22, 4.5685481975413136e-07, -2.4379796420343242e-29, 0.0, 0.0, 0.0, -2.220388000303602e-14, -2.3932110748830314e-29, 4.568548197541303e-07, 0.0, -4.198911308839452e-16, 1.2935111978553179e-17, 0.0, 0.0, 0.0, 1.0166631468064752e-06]
twist: 
  twist: 
    linear: 
      x: 6.80025401961e-09
      y: 0.0
      z: 0.0
    angular: 
      x: 0.0
      y: 0.0
      z: 0.000117455484997
  covariance: [9.999996004859712e-10, 0.0, 0.0, 0.0, 0.0, 0.0, 0.0, 471823.43693512934, 0.0, 0.0, 0.0, 0.0, 0.0, 0.0, 5.025901016307459e-07, -2.338617568013891e-25, -7.204356023855172e-27, 0.0, 0.0, 0.0, -2.33861756801389e-25, 3.3444241969182746e-07, -5.383637311507679e-34, 0.0, 0.0, 0.0, -7.204356023855171e-27, -5.062487511633308e-34, 3.3444241969182746e-07, 0.0, 0.0, 0.0, 0.0, 0.0, 0.0, 9.970636114131264e-10]
---
header: 
  seq: 5213
  stamp: 
    secs: 1518208419
    nsecs: 434373617
  frame_id: "swarmone/odom"
child_frame_id: "swarmone/base_link"
pose: 
  pose: 
    position: 
      x: 0.124485264206
      y: 4.83416497996
      z: 0.0
    orientation: 
      x: 0.0
      y: 0.0
      z: 0.699716387447
      w: 0.714420728379
  covariance: [19225648071.236866, -509548521.88908, 0.0, 0.0, 0.0, -5.748725046154881e-16, -509548521.8890808, 13505476.382710949, 0.0, 0.0, 0.0, 1.3559090324138138e-17, 0.0, 0.0, 6.22553954404064e-07, -4.783505225315146e-22, -2.6208228073919387e-14, 0.0, 0.0, 0.0, -4.783505225315146e-22, 4.978235661670824e-07, -3.3392111833999233e-29, 0.0, 0.0, 0.0, -2.6208228073919384e-14, -3.303722225883745e-29, 4.978235661670807e-07, 0.0, -5.74872504615488e-16, 1.3559090324138138e-17, 0.0, 0.0, 0.0, 1.3170705564736837e-06]
twist: 
  twist: 
    linear: 
      x: 7.59983414048e-09
      y: 0.0
      z: 0.0
    angular: 
      x: 0.0
      y: 0.0
      z: 9.07666685634e-05
  covariance: [9.99999598209815e-10, 0.0, 0.0, 0.0, 0.0, 0.0, 0.0, 472093.87811990234, 0.0, 0.0, 0.0, 0.0, 0.0, 0.0, 5.476516839094761e-07, -4.078858405576736e-25, -8.482692974049256e-27, 0.0, 0.0, 0.0, -4.078858405576735e-25, 3.5590535856924104e-07, -8.944089388948594e-34, 0.0, 0.0, 0.0, -8.482692974049256e-27, -8.773309104595048e-34, 3.5590535856924104e-07, 0.0, 0.0, 0.0, 0.0, 0.0, 0.0, 9.9773083214935e-10]
---
header: 
  seq: 5214
  stamp: 
    secs: 1518208419
    nsecs: 534916639
  frame_id: "swarmone/odom"
child_frame_id: "swarmone/base_link"
pose: 
  pose: 
    position: 
      x: 0.124504178718
      y: 4.83507430365
      z: 0.0
    orientation: 
      x: 0.0
      y: 0.0
      z: 0.696135478138
      w: 0.717910437365
  covariance: [19244200163.77782, -509986938.3559615, 0.0, 0.0, 0.0, -5.00395002872482e-16, -509986938.35596234, 13515688.147236971, 0.0, 0.0, 0.0, 1.3428546121900833e-17, 0.0, 0.0, 5.716744817387693e-07, -4.833954407749656e-22, -2.3510647831989233e-14, 0.0, 0.0, 0.0, -4.833954407749658e-22, 4.5473658267237814e-07, -2.664509239028043e-29, 0.0, 0.0, 0.0, -2.3510647831989237e-14, -2.64217294435259e-29, 4.5473658267237687e-07, 0.0, -5.00395002872482e-16, 1.342854612190083e-17, 0.0, 0.0, 0.0, 1.0023580320610824e-06]
twist: 
  twist: 
    linear: 
      x: 7.20029939838e-09
      y: 0.0
      z: 0.0
    angular: 
      x: 0.0
      y: 0.0
      z: 0.000119123426615
  covariance: [9.999996021610264e-10, 0.0, 0.0, 0.0, 0.0, 0.0, 0.0, 472367.1100538768, 0.0, 0.0, 0.0, 0.0, 0.0, 0.0, 5.002193358959144e-07, -2.423051274846449e-25, -7.463864512891807e-27, 0.0, 0.0, 0.0, -2.423051274846449e-25, 3.3338483382526324e-07, -5.313042137744444e-34, 0.0, 0.0, 0.0, -7.463864512891803e-27, -5.95612386328223e-34, 3.3338483382526324e-07, 0.0, 0.0, 0.0, 0.0, 0.0, 0.0, 9.9702191285673e-10]
---
header: 
  seq: 5215
  stamp: 
    secs: 1518208419
    nsecs: 634530067
  frame_id: "swarmone/odom"
child_frame_id: "swarmone/base_link"
pose: 
  pose: 
    position: 
      x: 0.124534721543
      y: 4.83606577993
      z: 0.0
    orientation: 
      x: 0.0
      y: 0.0
      z: 0.69613547412
      w: 0.717910441261
  covariance: [19262590102.763344, -510513517.82857, 0.0, 0.0, 0.0, -4.938389703105324e-16, -510513517.82857084, 13530679.585419528, 0.0, 0.0, 0.0, 1.5213124711299536e-17, 0.0, 0.0, 5.69033814285456e-07, -5.223533372775275e-22, -2.5768214475704027e-14, 0.0, 0.0, 0.0, -5.223533372775275e-22, 4.5260160907434543e-07, -3.1083568395645394e-29, 0.0, 0.0, 0.0, -2.5768214475704024e-14, -3.138130140934816e-29, 4.526016090743439e-07, 0.0, -4.938389703105324e-16, 1.5213124711299536e-17, 0.0, 0.0, 0.0, 9.880529173134254e-07]
twist: 
  twist: 
    linear: 
      x: 7.99985685682e-09
      y: 0.0
      z: 0.0
    angular: 
      x: 0.0
      y: 0.0
      z: 0.000120839421552
  covariance: [9.999995984483028e-10, 0.0, 0.0, 0.0, 0.0, 0.0, 0.0, 472637.91970619926, 0.0, 0.0, 0.0, 0.0, 0.0, 0.0, 4.978257682146694e-07, -2.596331973845935e-25, -7.998272364679286e-27, 0.0, 0.0, 0.0, -2.596331973845937e-25, 3.3232321260021766e-07, -6.694364284051812e-34, 0.0, 0.0, 0.0, -7.998272364679287e-27, -6.13187894543594e-34, 3.3232321260021766e-07, 0.0, 0.0, 0.0, 0.0, 0.0, 0.0, 9.969790129491174e-10]
---
header: 
  seq: 5216
  stamp: 
    secs: 1518208419
    nsecs: 735088110
  frame_id: "swarmone/odom"
child_frame_id: "swarmone/base_link"
pose: 
  pose: 
    position: 
      x: 0.12456428841
      y: 4.8370256256
      z: 0.0
    orientation: 
      x: 0.0
      y: 0.0
      z: 0.699716309102
      w: 0.714420805112
  covariance: [19281168687.90492, -511045504.4164372, 0.0, 0.0, 0.0, -4.713981483160227e-16, -511045504.4164381, 13545825.271458445, 0.0, 0.0, 0.0, 1.1377608958250796e-17, 0.0, 0.0, 5.690338467197241e-07, -3.383812628981445e-22, -2.471164500483266e-14, 0.0, 0.0, 0.0, -3.3838126289814454e-22, 4.526017137357477e-07, -1.920132756505466e-29, 0.0, 0.0, 0.0, -2.4711645004832663e-14, -1.9604322438675351e-29, 4.5260171373574625e-07, 0.0, -4.713981483160228e-16, 1.1377608958250793e-17, 0.0, 0.0, 0.0, 9.880529173149968e-07]
twist: 
  twist: 
    linear: 
      x: 7.59972995298e-09
      y: 0.0
      z: 0.0
    angular: 
      x: 0.0
      y: 0.0
      z: 0.000120839422121
  covariance: [9.99999602220364e-10, 0.0, 0.0, 0.0, 0.0, 0.0, 0.0, 472911.40235478757, 0.0, 0.0, 0.0, 0.0, 0.0, 0.0, 4.978258342628199e-07, -2.4904942381712044e-25, -5.180201020797242e-27, 0.0, 0.0, 0.0, -2.4904942381712044e-25, 3.323236791795729e-07, -3.9179541264792166e-34, 0.0, 0.0, 0.0, -5.1802010207972395e-27, -3.6390097658710426e-34, 3.323236791795729e-07, 0.0, 0.0, 0.0, 0.0, 0.0, 0.0, 9.969790129491602e-10]
---
header: 
  seq: 5217
  stamp: 
    secs: 1518208419
    nsecs: 834550858
  frame_id: "swarmone/odom"
child_frame_id: "swarmone/base_link"
pose: 
  pose: 
    position: 
      x: 0.124581769487
      y: 4.83786604867
      z: 0.0
    orientation: 
      x: 0.0
      y: 0.0
      z: 0.696135488414
      w: 0.717910427401
  covariance: [19299563756.632427, -511480226.84324956, 0.0, 0.0, 0.0, -4.3327192413597395e-16, -511480226.8432504, 13555951.330787206, 0.0, 0.0, 0.0, 1.1954925906812216e-17, 0.0, 0.0, 5.7940569948849e-07, -4.767331491939104e-22, -2.223310683602324e-14, 0.0, 0.0, 0.0, -4.767331491939105e-22, 4.6104232040349855e-07, -2.4941425322044915e-29, 0.0, 0.0, 0.0, -2.2233106836023238e-14, -2.545986189388948e-29, 4.610423204034975e-07, 0.0, -4.33271924135974e-16, 1.1954925906812218e-17, 0.0, 0.0, 0.0, 1.0452733762975772e-06]
twist: 
  twist: 
    linear: 
      x: 6.80013045179e-09
      y: 0.0
      z: 0.0
    angular: 
      x: 0.0
      y: 0.0
      z: 0.00011425590966
  covariance: [9.999995978399706e-10, 0.0, 0.0, 0.0, 0.0, 0.0, 0.0, 473182.009945168, 0.0, 0.0, 0.0, 0.0, 0.0, 0.0, 5.072648033651489e-07, -2.444429783202059e-25, -7.530391722989107e-27, 0.0, 0.0, 0.0, -2.444429783202059e-25, 3.365476449793087e-07, -5.441591857983756e-34, 0.0, 0.0, 0.0, -7.530391722989107e-27, -5.042498775163206e-34, 3.365476449793087e-07, 0.0, 0.0, 0.0, 0.0, 0.0, 0.0, 9.971436008266664e-10]
---
header: 
  seq: 5218
  stamp: 
    secs: 1518208419
    nsecs: 935286522
  frame_id: "swarmone/odom"
child_frame_id: "swarmone/base_link"
pose: 
  pose: 
    position: 
      x: 0.124609863113
      y: 4.83877802035
      z: 0.0
    orientation: 
      x: 0.0
      y: 0.0
      z: 0.696135946527
      w: 0.717909983183
  covariance: [19318203740.599724, -512013980.15334934, 0.0, 0.0, 0.0, -1.0520254793371633e-15, -512013980.1533502, 13571147.471340586, 0.0, 0.0, 0.0, 3.2408656625457036e-17, 0.0, 0.0, 7.671425952156902e-07, -1.500070685861885e-21, -2.4676886615480973e-14, 0.0, 0.0, 0.0, -1.500070685861885e-21, 6.446184709130115e-07, -1.5875832989138891e-28, 0.0, 0.0, 0.0, -2.4676886615480957e-14, -1.5917926513595215e-28, 6.44618470913009e-07, 0.0, -1.0520254793371633e-15, 3.2408656625457036e-17, 0.0, 0.0, 0.0, 2.9621587522783372e-06]
twist: 
  twist: 
    linear: 
      x: 7.20025697051e-09
      y: 0.0
      z: 0.0
    angular: 
      x: 0.0
      y: 0.0
      z: 4.04427098957e-05
  covariance: [9.999996029217627e-10, 0.0, 0.0, 0.0, 0.0, 0.0, 0.0, 473456.1859531115, 0.0, 0.0, 0.0, 0.0, 0.0, 0.0, 6.976487582754401e-07, -1.1039435407886215e-24, -3.4008091164830536e-26, 0.0, 0.0, 0.0, -1.1039435407886207e-24, 4.525795717226234e-07, -6.498861310783402e-33, 0.0, 0.0, 0.0, -3.4008091164830524e-26, -6.673305727597266e-33, 4.525795717226234e-07, 0.0, 0.0, 0.0, 0.0, 0.0, 0.0, 9.989889317519537e-10]
---
header: 
  seq: 5219
  stamp: 
    secs: 1518208420
    nsecs:  35074234
  frame_id: "swarmone/odom"
child_frame_id: "swarmone/base_link"
pose: 
  pose: 
    position: 
      x: 0.12463898005
      y: 4.83972340166
      z: 0.0
    orientation: 
      x: 0.0
      y: 0.0
      z: 0.699716309097
      w: 0.714420805116
  covariance: [19336682515.709755, -512543110.6338125, 0.0, 0.0, 0.0, -7.79359411987922e-16, -512543110.6338134, 13586212.013132913, 0.0, 0.0, 0.0, 2.088720819070012e-17, 0.0, 0.0, 5.690338204298078e-07, -3.3575081537299296e-22, -2.452843206428538e-14, 0.0, 0.0, 0.0, -3.357508153729929e-22, 4.5260162927240865e-07, -1.9222685540481566e-29, 0.0, 0.0, 0.0, -2.452843206428538e-14, -1.8995807605349557e-29, 4.526016292724073e-07, 0.0, -7.79359411987922e-16, 2.0887208190700117e-17, 0.0, 0.0, 0.0, 9.880529173137722e-07]
twist: 
  twist: 
    linear: 
      x: 7.60182993637e-09
      y: 0.0
      z: 0.0
    angular: 
      x: 0.0
      y: 0.0
      z: 0.000120839421538
  covariance: [9.99999599150154e-10, 0.0, 0.0, 0.0, 0.0, 0.0, 0.0, 473727.88628506154, 0.0, 0.0, 0.0, 0.0, 0.0, 0.0, 4.978257808453642e-07, -2.476500552275487e-25, -5.155195429863466e-27, 0.0, 0.0, 0.0, -2.4765005522754876e-25, 3.3232330528179804e-07, -3.712759721930091e-34, 0.0, 0.0, 0.0, -5.1551954298634676e-27, -4.078209994970843e-34, 3.3232330528179804e-07, 0.0, 0.0, 0.0, 0.0, 0.0, 0.0, 9.969790129491253e-10]
---
header: 
  seq: 5220
  stamp: 
    secs: 1518208420
    nsecs: 134561300
  frame_id: "swarmone/odom"
child_frame_id: "swarmone/base_link"
pose: 
  pose: 
    position: 
      x: 0.12466572431
      y: 4.84100936783
      z: 0.0
    orientation: 
      x: 0.0
      y: 0.0
      z: 0.703279648412
      w: 0.710913311262
  covariance: [19355124449.366615, -512978923.47293717, 0.0, 0.0, 0.0, -6.321514779345859e-16, -512978923.47293806, 13596362.804765455, 0.0, 0.0, 0.0, 8.954232493506635e-18, 0.0, 0.0, 5.66360412831092e-07, -2.333961794104062e-22, -3.3305429068602255e-14, 0.0, 0.0, 0.0, -2.333961794104062e-22, 4.5044994056491905e-07, -1.7973088434353216e-29, 0.0, 0.0, 0.0, -3.330542906860227e-14, -1.787860920153581e-29, 4.504499405649165e-07, 0.0, -6.321514779345859e-16, 8.954232493506636e-18, 0.0, 0.0, 0.0, 9.737478025671115e-07]
twist: 
  twist: 
    linear: 
      x: 1.03994581731e-08
      y: 0.0
      z: 0.0
    angular: 
      x: 0.0
      y: 0.0
      z: 0.000122605577977
  covariance: [9.999995979382748e-10, 0.0, 0.0, 0.0, 0.0, 0.0, 0.0, 473998.8714817585, 0.0, 0.0, 0.0, 0.0, 0.0, 0.0, 4.954092201825948e-07, -3.2815271755754866e-25, -3.543253078870919e-27, 0.0, 0.0, 0.0, -3.2815271755754885e-25, 3.312586031082093e-07, -3.8087985068185746e-34, 0.0, 0.0, 0.0, -3.543253078870921e-27, -3.708004195913095e-34, 3.312586031082093e-07, 0.0, 0.0, 0.0, 0.0, 0.0, 0.0, 9.969348590145073e-10]
---
header: 
  seq: 5221
  stamp: 
    secs: 1518208420
    nsecs: 235304594
  frame_id: "swarmone/odom"
child_frame_id: "swarmone/base_link"
pose: 
  pose: 
    position: 
      x: 0.124677775702
      y: 4.84212530709
      z: 0.0
    orientation: 
      x: 0.0
      y: 0.0
      z: 0.696135471884
      w: 0.717910443429
  covariance: [19373816536.73119, -513327157.44628996, 0.0, 0.0, 0.0, -5.388817373436772e-16, -513327157.44629085, 13601704.219682502, 0.0, 0.0, 0.0, 1.3003449216118989e-17, 0.0, 0.0, 5.663604564770837e-07, -5.69922078639122e-22, -2.853663158863551e-14, 0.0, 0.0, 0.0, -5.699220786391219e-22, 4.5045008067107656e-07, -3.777115876112092e-29, 0.0, 0.0, 0.0, -2.853663158863551e-14, -3.723884401197875e-29, 4.504500806710748e-07, 0.0, -5.388817373436772e-16, 1.300344921611899e-17, 0.0, 0.0, 0.0, 9.737478025692e-07]
twist: 
  twist: 
    linear: 
      x: 8.79921819436e-09
      y: 0.0
      z: 0.0
    angular: 
      x: 0.0
      y: 0.0
      z: 0.000122605578744
  covariance: [9.999996029518148e-10, 0.0, 0.0, 0.0, 0.0, 0.0, 0.0, 474273.38370742794, 0.0, 0.0, 0.0, 0.0, 0.0, 0.0, 4.954093088167681e-07, -2.810469749931854e-25, -8.657529743908855e-27, 0.0, 0.0, 0.0, -2.810469749931853e-25, 3.312592252450351e-07, -7.578105808444851e-34, 0.0, 0.0, 0.0, -8.657529743908854e-27, -7.577793087543385e-34, 3.312592252450351e-07, 0.0, 0.0, 0.0, 0.0, 0.0, 0.0, 9.96934859014566e-10]
---
header: 
  seq: 5222
  stamp: 
    secs: 1518208420
    nsecs: 335077763
  frame_id: "swarmone/odom"
child_frame_id: "swarmone/base_link"
pose: 
  pose: 
    position: 
      x: 0.124702289748
      y: 4.84292107767
      z: 0.0
    orientation: 
      x: 0.0
      y: 0.0
      z: 0.69613546385
      w: 0.71791045122
  covariance: [19392335148.703465, -513857374.94169056, 0.0, 0.0, 0.0, -3.805075126291721e-16, -513857374.9416914, 13616797.690817574, 0.0, 0.0, 0.0, 1.1721854899300055e-17, 0.0, 0.0, 5.609128762674243e-07, -3.948474356668281e-22, -2.036251594000176e-14, 0.0, 0.0, 0.0, -3.9484743566682806e-22, 4.460955174044267e-07, -1.8301072300247084e-29, 0.0, 0.0, 0.0, -2.0362515940001757e-14, -1.8320740754754033e-29, 4.4609551740442583e-07, 0.0, -3.8050751262917203e-16, 1.1721854899300055e-17, 0.0, 0.0, 0.0, 9.451375730753896e-07]
twist: 
  twist: 
    linear: 
      x: 6.40038202993e-09
      y: 0.0
      z: 0.0
    angular: 
      x: 0.0
      y: 0.0
      z: 0.000126297436927
  covariance: [9.99999599091194e-10, 0.0, 0.0, 0.0, 0.0, 0.0, 0.0, 474545.35691171384, 0.0, 0.0, 0.0, 0.0, 0.0, 0.0, 4.905057121981873e-07, -1.913777024717817e-25, -5.89559089626389e-27, 0.0, 0.0, 0.0, -1.9137770247178173e-25, 3.2911943788083914e-07, -3.807278147103238e-34, 0.0, 0.0, 0.0, -5.8955908962638904e-27, -3.4856748963633576e-34, 3.2911943788083914e-07, 0.0, 0.0, 0.0, 0.0, 0.0, 0.0, 9.968425624991224e-10]
---
header: 
  seq: 5223
  stamp: 
    secs: 1518208420
    nsecs: 434677362
  frame_id: "swarmone/odom"
child_frame_id: "swarmone/base_link"
pose: 
  pose: 
    position: 
      x: 0.12473129904
      y: 4.84386272306
      z: 0.0
    orientation: 
      x: 0.0
      y: 0.0
      z: 0.692537232358
      w: 0.72138213299
  covariance: [19410835665.718033, -514387109.9758191, 0.0, 0.0, 0.0, -4.55448557072787e-16, -514387109.97582006, 13631878.475941481, 0.0, 0.0, 0.0, 1.7099634370332246e-17, 0.0, 0.0, 5.663604167811634e-07, -6.447167701682678e-22, -2.436673237258722e-14, 0.0, 0.0, 0.0, -6.44716770168268e-22, 4.50449953139871e-07, -3.6609033127950057e-29, 0.0, 0.0, 0.0, -2.4366732372587222e-14, -3.5845843348352247e-29, 4.504499531398696e-07, 0.0, -4.5544855707278705e-16, 1.7099634370332243e-17, 0.0, 0.0, 0.0, 9.737478025672995e-07]
twist: 
  twist: 
    linear: 
      x: 7.59986177462e-09
      y: 0.0
      z: 0.0
    angular: 
      x: 0.0
      y: 0.0
      z: 0.000122605578055
  covariance: [9.999995983925367e-10, 0.0, 0.0, 0.0, 0.0, 0.0, 0.0, 474816.9606681321, 0.0, 0.0, 0.0, 0.0, 0.0, 0.0, 4.954092282009257e-07, -2.3988788365128747e-25, -9.791835117777473e-27, 0.0, 0.0, 0.0, -2.398878836512874e-25, 3.31258659323657e-07, -7.343646302477712e-34, 0.0, 0.0, 0.0, -9.791835117777476e-27, -7.429769247154812e-34, 3.31258659323657e-07, 0.0, 0.0, 0.0, 0.0, 0.0, 0.0, 9.969348590145127e-10]
---
header: 
  seq: 5224
  stamp: 
    secs: 1518208420
    nsecs: 534711838
  frame_id: "swarmone/odom"
child_frame_id: "swarmone/base_link"
pose: 
  pose: 
    position: 
      x: 0.124768016104
      y: 4.84476231866
      z: 0.0
    orientation: 
      x: 0.0
      y: 0.0
      z: 0.699716305097
      w: 0.714420809034
  covariance: [19429424513.65815, -515012437.13124365, 0.0, 0.0, 0.0, -4.3778997581594966e-16, -515012437.13124454, 13651957.418880517, 0.0, 0.0, 0.0, 1.2027385779362354e-17, 0.0, 0.0, 5.663604319839835e-07, -3.129708444956221e-22, -2.3186012997096956e-14, 0.0, 0.0, 0.0, -3.1297084449562213e-22, 4.5045000204826316e-07, -1.6762778656499833e-29, 0.0, 0.0, 0.0, -2.3186012997096956e-14, -1.67052881820038e-29, 4.504500020482618e-07, 0.0, -4.3778997581594966e-16, 1.2027385779362355e-17, 0.0, 0.0, 0.0, 9.737478025680278e-07]
twist: 
  twist: 
    linear: 
      x: 7.20025307085e-09
      y: 0.0
      z: 0.0
    angular: 
      x: 0.0
      y: 0.0
      z: 0.000122605578315
  covariance: [9.999996001384346e-10, 0.0, 0.0, 0.0, 0.0, 0.0, 0.0, 475089.85460591974, 0.0, 0.0, 0.0, 0.0, 0.0, 0.0, 4.954092590767219e-07, -2.284094106193429e-25, -4.7510979017848965e-27, 0.0, 0.0, 0.0, -2.2840941061934292e-25, 3.31258876098418e-07, -3.4451550091032202e-34, 0.0, 0.0, 0.0, -4.751097901784896e-27, -3.444446101955262e-34, 3.31258876098418e-07, 0.0, 0.0, 0.0, 0.0, 0.0, 0.0, 9.96934859014533e-10]
---
header: 
  seq: 5225
  stamp: 
    secs: 1518208420
    nsecs: 634456635
  frame_id: "swarmone/odom"
child_frame_id: "swarmone/base_link"
pose: 
  pose: 
    position: 
      x: 0.124788699196
      y: 4.84575668321
      z: 0.0
    orientation: 
      x: 0.0
      y: 0.0
      z: 0.69613546445
      w: 0.717910450638
  covariance: [19447985143.705807, -515451091.6887852, 0.0, 0.0, 0.0, -4.755224114218902e-16, -515451091.6887861, 13662175.40987434, 0.0, 0.0, 0.0, 1.302987607299098e-17, 0.0, 0.0, 5.60912875249545e-07, -4.933075547870309e-22, -2.5444424572294547e-14, 0.0, 0.0, 0.0, -4.93307554787031e-22, 4.4609551416551456e-07, -2.835963009012099e-29, 0.0, 0.0, 0.0, -2.544442457229455e-14, -2.8813198592876207e-29, 4.460955141655131e-07, 0.0, -4.755224114218902e-16, 1.3029876072990979e-17, 0.0, 0.0, 0.0, 9.451375730753421e-07]
twist: 
  twist: 
    linear: 
      x: 7.9998619569e-09
      y: 0.0
      z: 0.0
    angular: 
      x: 0.0
      y: 0.0
      z: 0.000126297436909
  covariance: [9.999995989771576e-10, 0.0, 0.0, 0.0, 0.0, 0.0, 0.0, 475362.06238926994, 0.0, 0.0, 0.0, 0.0, 0.0, 0.0, 4.905057101426952e-07, -2.3914017055904448e-25, -7.366654468567956e-27, 0.0, 0.0, 0.0, -2.3914017055904448e-25, 3.2911942363821666e-07, -5.4307654175508264e-34, 0.0, 0.0, 0.0, -7.366654468567952e-27, -5.348740444879781e-34, 3.2911942363821666e-07, 0.0, 0.0, 0.0, 0.0, 0.0, 0.0, 9.96842562499121e-10]
---
header: 
  seq: 5226
  stamp: 
    secs: 1518208420
    nsecs: 735100031
  frame_id: "swarmone/odom"
child_frame_id: "swarmone/base_link"
pose: 
  pose: 
    position: 
      x: 0.12481831847
      y: 4.84671812924
      z: 0.0
    orientation: 
      x: 0.0
      y: 0.0
      z: 0.692537228912
      w: 0.721382136298
  covariance: [19466722522.803444, -515987670.54504347, 0.0, 0.0, 0.0, -4.556456323861359e-16, -515987670.54504436, 13677453.074691772, 0.0, 0.0, 0.0, 1.7092040173934964e-17, 0.0, 0.0, 5.636536818718546e-07, -6.388740846231475e-22, -2.45060207468267e-14, 0.0, 0.0, 0.0, -6.388740846231478e-22, 4.4828143447229943e-07, -3.564352323880624e-29, 0.0, 0.0, 0.0, -2.4506020746826706e-14, -3.611720307789315e-29, 4.4828143447229806e-07, 0.0, -4.556456323861358e-16, 1.7092040173934964e-17, 0.0, 0.0, 0.0, 9.59442687822934e-07]
twist: 
  twist: 
    linear: 
      x: 7.59910779094e-09
      y: 0.0
      z: 0.0
    angular: 
      x: 0.0
      y: 0.0
      z: 0.0001244241283
  covariance: [9.999996025577024e-10, 0.0, 0.0, 0.0, 0.0, 0.0, 0.0, 475636.8278555736, 0.0, 0.0, 0.0, 0.0, 0.0, 0.0, 4.929693935650128e-07, -2.35730982936977e-25, -9.622098931038772e-27, 0.0, 0.0, 0.0, -2.3573098293697704e-25, 3.3019123166037144e-07, -7.033814217272573e-34, 0.0, 0.0, 0.0, -9.622098931038775e-27, -7.1976775509741355e-34, 3.3019123166037144e-07, 0.0, 0.0, 0.0, 0.0, 0.0, 0.0, 9.968893952517859e-10]
---
header: 
  seq: 5227
  stamp: 
    secs: 1518208420
    nsecs: 834705591
  frame_id: "swarmone/odom"
child_frame_id: "swarmone/base_link"
pose: 
  pose: 
    position: 
      x: 0.124842585811
      y: 4.84731262638
      z: 0.0
    orientation: 
      x: 0.0
      y: 0.0
      z: 0.688921616264
      w: 0.724835848068
  covariance: [19485274252.255436, -516611855.2504772, 0.0, 0.0, 0.0, -2.832364562279365e-16, -516611855.2504782, 13697499.30613652, 0.0, 0.0, 0.0, 1.344312295527901e-17, 0.0, 0.0, 5.609128702441811e-07, -3.655368398045555e-22, -1.524187230173375e-14, 0.0, 0.0, 0.0, -3.6553683980455556e-22, 4.460954659897126e-07, -1.292226011556924e-29, 0.0, 0.0, 0.0, -1.524187230173375e-14, -1.2455240828900855e-29, 4.460954659897121e-07, 0.0, -2.832364562279365e-16, 1.3443122955279009e-17, 0.0, 0.0, 0.0, 9.451375730751082e-07]
twist: 
  twist: 
    linear: 
      x: 4.79846612271e-09
      y: 0.0
      z: 0.0
    angular: 
      x: 0.0
      y: 0.0
      z: 9.47230776672e-05
  covariance: [9.99999598416573e-10, 0.0, 0.0, 0.0, 0.0, 0.0, 0.0, 475908.86416397814, 0.0, 0.0, 0.0, 0.0, 0.0, 0.0, 4.90505700033806e-07, -1.4313269836968257e-25, -7.2767005847224e-27, 0.0, 0.0, 0.0, -1.4313269836968255e-25, 3.291193535704095e-07, -3.3292882886888e-34, 0.0, 0.0, 0.0, -7.2767005847224e-27, -3.884913585376686e-34, 3.291193535704095e-07, 0.0, 0.0, 0.0, 0.0, 0.0, 0.0, 9.968425624991141e-10]
---
header: 
  seq: 5228
  stamp: 
    secs: 1518208420
    nsecs: 935331821
  frame_id: "swarmone/odom"
child_frame_id: "swarmone/base_link"
pose: 
  pose: 
    position: 
      x: 0.12484259355
      y: 4.84731277859
      z: 0.0
    orientation: 
      x: 0.0
      y: 0.0
      z: 0.699716304513
      w: 0.714420809607
  covariance: [19504021853.45974, -517336599.7432204, 0.0, 0.0, 0.0, -7.42179594709301e-20, -517336599.74322134, 13722736.702529708, 0.0, 0.0, 0.0, 1.5500657446386224e-21, 0.0, 0.0, 5.663604524526047e-07, -7.929089028219885e-26, -5.878898073768009e-18, 0.0, 0.0, 0.0, -7.929089028219886e-26, 4.504500677746584e-07, -1.4745509354306419e-31, 0.0, 0.0, 0.0, -5.878898073768009e-18, 1.4745201134668244e-31, 4.504500677746584e-07, 0.0, -7.421795947093011e-20, 1.5500657446386226e-21, 0.0, 0.0, 0.0, 9.73747802569007e-07]
twist: 
  twist: 
    linear: 
      x: 2.42702770858e-12
      y: 0.0
      z: 0.0
    angular: 
      x: 0.0
      y: 0.0
      z: 0.000122605578631
  covariance: [9.999996024899013e-10, 0.0, 0.0, 0.0, 0.0, 0.0, 0.0, 476183.7933671692, 0.0, 0.0, 0.0, 0.0, 0.0, 0.0, 4.95409300641742e-07, -5.787135021600003e-29, -1.2027193281780777e-30, 0.0, 0.0, 0.0, -5.787135021600002e-29, 3.312591678164852e-07, -2.385896926950148e-35, 0.0, 0.0, 0.0, -1.2027193281780778e-30, 2.3858933901775868e-35, 3.312591678164852e-07, 0.0, 0.0, 0.0, 0.0, 0.0, 0.0, 9.969348590145606e-10]
---
header: 
  seq: 5229
  stamp: 
    secs: 1518208421
    nsecs:  34963608
  frame_id: "swarmone/odom"
child_frame_id: "swarmone/base_link"
pose: 
  pose: 
    position: 
      x: 0.12486219888
      y: 4.84825525438
      z: 0.0
    orientation: 
      x: 0.0
      y: 0.0
      z: 0.692537172084
      w: 0.721382190854
  covariance: [19522618368.884388, -517776294.88754684, 0.0, 0.0, 0.0, -4.556236181189875e-16, -517776294.8875478, 13732982.629127117, 0.0, 0.0, 0.0, 1.552445258734903e-17, 0.0, 0.0, 5.636536463031223e-07, -4.743336819012013e-22, -2.4260504896017748e-14, 0.0, 0.0, 0.0, -4.743336819012013e-22, 4.4828128838913895e-07, -2.58685124785769e-29, 0.0, 0.0, 0.0, -2.4260504896017754e-14, -2.615627122803096e-29, 4.482812883891375e-07, 0.0, -4.556236181189875e-16, 1.5524452587349034e-17, 0.0, 0.0, 0.0, 9.594426878212533e-07]
twist: 
  twist: 
    linear: 
      x: 7.59946296169e-09
      y: 0.0
      z: 0.0
    angular: 
      x: 0.0
      y: 0.0
      z: 9.33180958003e-05
  covariance: [9.999995985222854e-10, 0.0, 0.0, 0.0, 0.0, 0.0, 0.0, 476456.1098678234, 0.0, 0.0, 0.0, 0.0, 0.0, 0.0, 4.92969321536861e-07, -2.3337419495971915e-25, -9.525618625917333e-27, 0.0, 0.0, 0.0, -2.3337419495971915e-25, 3.3019072936330245e-07, -7.267747931655262e-34, 0.0, 0.0, 0.0, -9.52561862591733e-27, -7.108558823283214e-34, 3.3019072936330245e-07, 0.0, 0.0, 0.0, 0.0, 0.0, 0.0, 9.968893952517369e-10]
---
header: 
  seq: 5230
  stamp: 
    secs: 1518208421
    nsecs: 134329319
  frame_id: "swarmone/odom"
child_frame_id: "swarmone/base_link"
pose: 
  pose: 
    position: 
      x: 0.124892390367
      y: 4.84899496494
      z: 0.0
    orientation: 
      x: 0.0
      y: 0.0
      z: 0.699716308496
      w: 0.714420805706
  covariance: [19541167913.744522, -518400518.2691626, 0.0, 0.0, 0.0, -3.641846626828374e-16, -518400518.26916355, 13753036.918754933, 0.0, 0.0, 0.0, 9.957713467563084e-18, 0.0, 0.0, 5.690338056726849e-07, -2.6401448316360117e-22, -1.9280539072714963e-14, 0.0, 0.0, 0.0, -2.6401448316360117e-22, 4.5260158131499475e-07, -1.176691107005599e-29, 0.0, 0.0, 0.0, -1.928053907271497e-14, -1.1856197078283741e-29, 4.5260158131499385e-07, 0.0, -3.6418466268283743e-16, 9.957713467563084e-18, 0.0, 0.0, 0.0, 9.880529173130072e-07]
twist: 
  twist: 
    linear: 
      x: 6.0009124371e-09
      y: 0.0
      z: 0.0
    angular: 
      x: 0.0
      y: 0.0
      z: 0.000120839421362
  covariance: [9.999995974472304e-10, 0.0, 0.0, 0.0, 0.0, 0.0, 0.0, 476727.80251015525, 0.0, 0.0, 0.0, 0.0, 0.0, 0.0, 4.978257506722467e-07, -1.9430928051175045e-25, -4.041659309149606e-27, 0.0, 0.0, 0.0, -1.9430928051175042e-25, 3.3232308860240706e-07, -3.352385768768841e-34, 0.0, 0.0, 0.0, -4.041659309149606e-27, -3.03003327817704e-34, 3.3232308860240706e-07, 0.0, 0.0, 0.0, 0.0, 0.0, 0.0, 9.96979012949106e-10]
---
header: 
  seq: 5231
  stamp: 
    secs: 1518208421
    nsecs: 234791517
  frame_id: "swarmone/odom"
child_frame_id: "swarmone/base_link"
pose: 
  pose: 
    position: 
      x: 0.12491546572
      y: 4.8501045151
      z: 0.0
    orientation: 
      x: 0.0
      y: 0.0
      z: 0.703279675537
      w: 0.710913284429
  covariance: [19559948053.111774, -518844548.4811914, 0.0, 0.0, 0.0, -5.822971755988222e-16, -518844548.4811924, 13763383.206389345, 0.0, 0.0, 0.0, 8.106049873767863e-18, 0.0, 0.0, 5.868628364648912e-07, -2.3005893191684835e-22, -2.937893314036035e-14, 0.0, 0.0, 0.0, -2.300589319168484e-22, 4.6720409810568736e-07, -1.6248935509355922e-29, 0.0, 0.0, 0.0, -2.9378933140360355e-14, -1.647090295870956e-29, 4.6720409810568514e-07, 0.0, -5.822971755988222e-16, 8.106049873767865e-18, 0.0, 0.0, 0.0, 1.0881887205375497e-06]
twist: 
  twist: 
    linear: 
      x: 8.79998671502e-09
      y: 0.0
      z: 0.0
    angular: 
      x: 0.0
      y: 0.0
      z: 0.000109770562335
  covariance: [9.999996018408689e-10, 0.0, 0.0, 0.0, 0.0, 0.0, 0.0, 477002.59822673566, 0.0, 0.0, 0.0, 0.0, 0.0, 0.0, 5.141145271029538e-07, -3.4372697887969217e-25, -3.7108464379654624e-27, 0.0, 0.0, 0.0, -3.437269788796922e-25, 3.396815934745454e-07, -3.755792997484035e-34, 0.0, 0.0, 0.0, -3.710846437965462e-27, -3.3738426882170356e-34, 3.396815934745454e-07, 0.0, 0.0, 0.0, 0.0, 0.0, 0.0, 9.972557345796906e-10]
---
header: 
  seq: 5232
  stamp: 
    secs: 1518208421
    nsecs: 335323334
  frame_id: "swarmone/odom"
child_frame_id: "swarmone/base_link"
pose: 
  pose: 
    position: 
      x: 0.124927467233
      y: 4.85121580373
      z: 0.0
    orientation: 
      x: 0.0
      y: 0.0
      z: 0.696135471887
      w: 0.717910443427
  covariance: [19578758627.433414, -519195216.17079145, 0.0, 0.0, 0.0, -5.588459414574625e-16, -519195216.17079246, 13768763.347163344, 0.0, 0.0, 0.0, 1.3204185865297286e-17, 0.0, 0.0, 5.663604492175575e-07, -5.687430783169163e-22, -2.8477944568141795e-14, 0.0, 0.0, 0.0, -5.687430783169161e-22, 4.504500573819621e-07, -3.726710767429391e-29, 0.0, 0.0, 0.0, -2.847794456814178e-14, -3.743374293650538e-29, 4.5045005738196015e-07, 0.0, -5.588459414574625e-16, 1.3204185865297287e-17, 0.0, 0.0, 0.0, 9.737478025688553e-07]
twist: 
  twist: 
    linear: 
      x: 8.79971608081e-09
      y: 0.0
      z: 0.0
    angular: 
      x: 0.0
      y: 0.0
      z: 0.000122605578597
  covariance: [9.999996021166207e-10, 0.0, 0.0, 0.0, 0.0, 0.0, 0.0, 477277.6900600761, 0.0, 0.0, 0.0, 0.0, 0.0, 0.0, 4.954092940830683e-07, -2.8049327006015844e-25, -8.640052512520097e-27, 0.0, 0.0, 0.0, -2.804932700601585e-25, 3.312591220053219e-07, -7.898407269958594e-34, 0.0, 0.0, 0.0, -8.640052512520094e-27, -7.416074446758767e-34, 3.312591220053219e-07, 0.0, 0.0, 0.0, 0.0, 0.0, 0.0, 9.969348590145563e-10]
---
header: 
  seq: 5233
  stamp: 
    secs: 1518208421
    nsecs: 434816599
  frame_id: "swarmone/odom"
child_frame_id: "swarmone/base_link"
pose: 
  pose: 
    position: 
      x: 0.124957935512
      y: 4.85220491202
      z: 0.0
    orientation: 
      x: 0.0
      y: 0.0
      z: 0.699716298876
      w: 0.714420815127
  covariance: [19597381373.4628, -519728625.1354872, 0.0, 0.0, 0.0, -4.743661520195126e-16, -519728625.13548815, 13783954.75436317, 0.0, 0.0, 0.0, 1.1480885759817581e-17, 0.0, 0.0, 5.609128662000835e-07, -3.3245430577321737e-22, -2.538056614836164e-14, 0.0, 0.0, 0.0, -3.324543057732174e-22, 4.4609548540321964e-07, -1.8921228506151657e-29, 0.0, 0.0, 0.0, -2.5380566148361633e-14, -1.9028424834791137e-29, 4.4609548540321816e-07, 0.0, -4.743661520195126e-16, 1.1480885759817581e-17, 0.0, 0.0, 0.0, 9.451375730749197e-07]
twist: 
  twist: 
    linear: 
      x: 7.99999270995e-09
      y: 0.0
      z: 0.0
    angular: 
      x: 0.0
      y: 0.0
      z: 0.00012629743675
  covariance: [9.999995979633214e-10, 0.0, 0.0, 0.0, 0.0, 0.0, 0.0, 477550.0441498791, 0.0, 0.0, 0.0, 0.0, 0.0, 0.0, 4.905056918683707e-07, -2.386015281198007e-25, -4.96305590156249e-27, 0.0, 0.0, 0.0, -2.386015281198007e-25, 3.2911929701468116e-07, -3.6556265629418933e-34, 0.0, 0.0, 0.0, -4.9630559015624905e-27, -3.858103569469693e-34, 3.2911929701468116e-07, 0.0, 0.0, 0.0, 0.0, 0.0, 0.0, 9.968425624991085e-10]
---
header: 
  seq: 5234
  stamp: 
    secs: 1518208421
    nsecs: 535322428
  frame_id: "swarmone/odom"
child_frame_id: "swarmone/base_link"
pose: 
  pose: 
    position: 
      x: 0.124978932374
      y: 4.85321451572
      z: 0.0
    orientation: 
      x: 0.0
      y: 0.0
      z: 0.703279655198
      w: 0.710913304549
  covariance: [19616212891.75652, -520173788.850834, 0.0, 0.0, 0.0, -4.93669724350033e-16, -520173788.8508349, 13794325.984963937, 0.0, 0.0, 0.0, 6.912682456888081e-18, 0.0, 0.0, 5.716744804533964e-07, -1.8837036120121001e-22, -2.6112952234879795e-14, 0.0, 0.0, 0.0, -1.8837036120121004e-22, 4.5473657848644243e-07, -1.1470812939044439e-29, 0.0, 0.0, 0.0, -2.6112952234879785e-14, -1.1497253860421046e-29, 4.5473657848644073e-07, 0.0, -4.93669724350033e-16, 6.912682456888081e-18, 0.0, 0.0, 0.0, 1.0023580320610109e-06]
twist: 
  twist: 
    linear: 
      x: 8.00025059741e-09
      y: 0.0
      z: 0.0
    angular: 
      x: 0.0
      y: 0.0
      z: 0.000119123426646
  covariance: [9.999996020137025e-10, 0.0, 0.0, 0.0, 0.0, 0.0, 0.0, 477825.27522306243, 0.0, 0.0, 0.0, 0.0, 0.0, 0.0, 5.002193332436998e-07, -2.6916347540453172e-25, -2.9061131593567917e-27, 0.0, 0.0, 0.0, -2.6916347540453177e-25, 3.3338481436306207e-07, -2.542145546300713e-34, 0.0, 0.0, 0.0, -2.9061131593567917e-27, -2.1612158861732136e-34, 3.3338481436306207e-07, 0.0, 0.0, 0.0, 0.0, 0.0, 0.0, 9.970219128567286e-10]
---
header: 
  seq: 5235
  stamp: 
    secs: 1518208421
    nsecs: 634878874
  frame_id: "swarmone/odom"
child_frame_id: "swarmone/base_link"
pose: 
  pose: 
    position: 
      x: 0.124990698726
      y: 4.85430438791
      z: 0.0
    orientation: 
      x: 0.0
      y: 0.0
      z: 0.703279652397
      w: 0.710913307319
  covariance: [19634883744.575882, -520521740.51005054, 0.0, 0.0, 0.0, -5.431589501751652e-16, -520521740.5100514, 13799662.83088026, 0.0, 0.0, 0.0, 5.864228211883159e-18, 0.0, 0.0, 5.690338123091461e-07, -2.0135903139718643e-22, -2.8330469555213443e-14, 0.0, 0.0, 0.0, -2.0135903139718638e-22, 4.526016027535864e-07, -1.3366438572892506e-29, 0.0, 0.0, 0.0, -2.8330469555213436e-14, -1.3107083649610367e-29, 4.526016027535845e-07, 0.0, -5.431589501751651e-16, 5.864228211883159e-18, 0.0, 0.0, 0.0, 9.880529173133297e-07]
twist: 
  twist: 
    linear: 
      x: 8.80052363275e-09
      y: 0.0
      z: 0.0
    angular: 
      x: 0.0
      y: 0.0
      z: 0.000120839421517
  covariance: [9.99999598218471e-10, 0.0, 0.0, 0.0, 0.0, 0.0, 0.0, 478098.0106888208, 0.0, 0.0, 0.0, 0.0, 0.0, 0.0, 4.978257641901058e-07, -2.855684911886052e-25, -3.083207848610391e-27, 0.0, 0.0, 0.0, -2.8556849118860515e-25, 3.3232318416851393e-07, -2.683083691566548e-34, 0.0, 0.0, 0.0, -3.083207848610391e-27, -2.7614960947441226e-34, 3.3232318416851393e-07, 0.0, 0.0, 0.0, 0.0, 0.0, 0.0, 9.969790129491147e-10]
---
header: 
  seq: 5236
  stamp: 
    secs: 1518208421
    nsecs: 734796047
  frame_id: "swarmone/odom"
child_frame_id: "swarmone/base_link"
pose: 
  pose: 
    position: 
      x: 0.125004706545
      y: 4.85560167951
      z: 0.0
    orientation: 
      x: 0.0
      y: 0.0
      z: 0.699716249148
      w: 0.714420863831
  covariance: [19653636537.795963, -520871159.6838558, 0.0, 0.0, 0.0, -6.348402816206491e-16, -520871159.68385667, 13805022.292328566, 0.0, 0.0, 0.0, 1.1065371427653374e-17, 0.0, 0.0, 5.663604278986945e-07, -3.384125116196732e-22, -3.344849160189593e-14, 0.0, 0.0, 0.0, -3.384125116196732e-22, 4.504499563009323e-07, -2.6082498822559936e-29, 0.0, 0.0, 0.0, -3.344849160189593e-14, -2.6123899917711275e-29, 4.5044995630092964e-07, 0.0, -6.348402816206491e-16, 1.1065371427653376e-17, 0.0, 0.0, 0.0, 9.737478025678327e-07]
twist: 
  twist: 
    linear: 
      x: 1.03990686583e-08
      y: 0.0
      z: 0.0
    angular: 
      x: 0.0
      y: 0.0
      z: 9.19541837269e-05
  covariance: [9.999995996690044e-10, 0.0, 0.0, 0.0, 0.0, 0.0, 0.0, 478371.8386972537, 0.0, 0.0, 0.0, 0.0, 0.0, 0.0, 4.954092507815203e-07, -3.2951037954898397e-25, -6.853314678981098e-27, 0.0, 0.0, 0.0, -3.29510379548984e-25, 3.3125881789375884e-07, -7.015832585114659e-34, 0.0, 0.0, 0.0, -6.853314678981103e-27, -6.976960069305717e-34, 3.3125881789375884e-07, 0.0, 0.0, 0.0, 0.0, 0.0, 0.0, 9.969348590145275e-10]
---
header: 
  seq: 5237
  stamp: 
    secs: 1518208421
    nsecs: 835388660
  frame_id: "swarmone/odom"
child_frame_id: "swarmone/base_link"
pose: 
  pose: 
    position: 
      x: 0.125024679293
      y: 4.85656188669
      z: 0.0
    orientation: 
      x: 0.0
      y: 0.0
      z: 0.696135892349
      w: 0.717910035717
  covariance: [19672527582.391796, -521317612.0264522, 0.0, 0.0, 0.0, -1.0246836710422752e-15, -521317612.02645296, 13815422.053591568, 0.0, 0.0, 0.0, 3.001573163682867e-17, 0.0, 0.0, 7.540333509924479e-07, -1.4821811361334131e-21, -2.6425610144773226e-14, 0.0, 0.0, 0.0, -1.4821811361334135e-21, 6.295522718945874e-07, -1.5909328949190936e-28, 0.0, 0.0, 0.0, -2.6425610144773226e-14, -1.5938510234831874e-28, 6.295522718945846e-07, 0.0, -1.0246836710422752e-15, 3.001573163682867e-17, 0.0, 0.0, 0.0, 2.7332769163402445e-06]
twist: 
  twist: 
    linear: 
      x: 7.59974997516e-09
      y: 0.0
      z: 0.0
    angular: 
      x: 0.0
      y: 0.0
      z: 4.38231574775e-05
  covariance: [9.99999602357065e-10, 0.0, 0.0, 0.0, 0.0, 0.0, 0.0, 478647.6233814052, 0.0, 0.0, 0.0, 0.0, 0.0, 0.0, 6.830250725118995e-07, -1.0776734096961877e-24, -3.320346651761335e-26, 0.0, 0.0, 0.0, -1.0776734096961876e-24, 4.409042457079469e-07, -6.13866572780534e-33, 0.0, 0.0, 0.0, -3.3203466517613364e-26, -6.294446423415703e-33, 4.409042457079469e-07, 0.0, 0.0, 0.0, 0.0, 0.0, 0.0, 9.989044205195052e-10]
---
header: 
  seq: 5238
  stamp: 
    secs: 1518208421
    nsecs: 934823990
  frame_id: "swarmone/odom"
child_frame_id: "swarmone/base_link"
pose: 
  pose: 
    position: 
      x: 0.125052067094
      y: 4.85745097844
      z: 0.0
    orientation: 
      x: 0.0
      y: 0.0
      z: 0.69613546385
      w: 0.71791045122
  covariance: [19691210745.617935, -521852572.10464895, 0.0, 0.0, 0.0, -6.886934650881575e-16, -521852572.1046498, 13830651.659499705, 0.0, 0.0, 0.0, 2.1215193990909812e-17, 0.0, 0.0, 5.609128642232806e-07, -4.425294766390679e-22, -2.2827400195881323e-14, 0.0, 0.0, 0.0, -4.425294766390679e-22, 4.4609547940692973e-07, -2.3001410895403043e-29, 0.0, 0.0, 0.0, -2.2827400195881323e-14, -2.301131904788464e-29, 4.4609547940692857e-07, 0.0, -6.886934650881576e-16, 2.1215193990909812e-17, 0.0, 0.0, 0.0, 9.451375730748716e-07]
twist: 
  twist: 
    linear: 
      x: 7.19924419385e-09
      y: 0.0
      z: 0.0
    angular: 
      x: 0.0
      y: 0.0
      z: 0.000126297436588
  covariance: [9.999995977295447e-10, 0.0, 0.0, 0.0, 0.0, 0.0, 0.0, 478920.33940983197, 0.0, 0.0, 0.0, 0.0, 0.0, 0.0, 4.905056879906174e-07, -2.149274605235907e-25, -6.621064262343252e-27, 0.0, 0.0, 0.0, -2.1492746052359077e-25, 3.29119273297943e-07, -4.597979658014815e-34, 0.0, 0.0, 0.0, -6.621064262343255e-27, -4.681189369848344e-34, 3.29119273297943e-07, 0.0, 0.0, 0.0, 0.0, 0.0, 0.0, 9.968425624991054e-10]
---
header: 
  seq: 5239
  stamp: 
    secs: 1518208422
    nsecs:  34895897
  frame_id: "swarmone/odom"
child_frame_id: "swarmone/base_link"
pose: 
  pose: 
    position: 
      x: 0.125075160736
      y: 4.85820063958
      z: 0.0
    orientation: 
      x: 0.0
      y: 0.0
      z: 0.696136292276
      w: 0.71790964792
  covariance: [19710027845.561245, -522391399.09242326, 0.0, 0.0, 0.0, -1.2196184083096594e-15, -522391399.09242415, 13845992.309557771, 0.0, 0.0, 0.0, 3.7571571488216124e-17, 0.0, 0.0, 8.257624249708026e-07, -1.6369293890466903e-21, -1.809838698759641e-14, 0.0, 0.0, 0.0, -1.6369293890466905e-21, 7.172174370458306e-07, -1.6965386052637698e-28, 0.0, 0.0, 0.0, -1.8098386987596405e-14, -1.704078627059164e-28, 7.172174370458288e-07, 0.0, -1.2196184083096594e-15, 3.7571571488216124e-17, 0.0, 0.0, 0.0, 4.406975341635621e-06]
twist: 
  twist: 
    linear: 
      x: 6.00177952302e-09
      y: 0.0
      z: 0.0
    angular: 
      x: 0.0
      y: 0.0
      z: 2.7198687874e-05
  covariance: [9.999996002879942e-10, 0.0, 0.0, 0.0, 0.0, 0.0, 0.0, 479194.90591323614, 0.0, 0.0, 0.0, 0.0, 0.0, 0.0, 7.65842096766282e-07, -1.2265212007018658e-24, -3.778418266373133e-26, 0.0, 0.0, 0.0, -1.226521200701866e-24, 5.16336114717382e-07, -8.101546620143139e-33, 0.0, 0.0, 0.0, -3.7784182663731317e-26, -7.998995214349055e-33, 5.16336114717382e-07, 0.0, 0.0, 0.0, 0.0, 0.0, 0.0, 9.993200324642345e-10]
---
header: 
  seq: 5240
  stamp: 
    secs: 1518208422
    nsecs: 134793282
  frame_id: "swarmone/odom"
child_frame_id: "swarmone/base_link"
pose: 
  pose: 
    position: 
      x: 0.125105876725
      y: 4.85919781053
      z: 0.0
    orientation: 
      x: 0.0
      y: 0.0
      z: 0.696135480966
      w: 0.717910434623
  covariance: [19728826475.902958, -522929696.1217665, 0.0, 0.0, 0.0, -1.0707633535184463e-15, -522929696.1217674, 13861318.024006864, 0.0, 0.0, 0.0, 3.298385409924952e-17, 0.0, 0.0, 5.742829332020085e-07, -5.435067934893918e-22, -2.6064439815239585e-14, 0.0, 0.0, 0.0, -5.435067934893918e-22, 4.5685479628012645e-07, -3.3674114730221805e-29, 0.0, 0.0, 0.0, -2.6064439815239588e-14, -3.287802361212369e-29, 4.5685479628012486e-07, 0.0, -1.0707633535184461e-15, 3.2983854099249515e-17, 0.0, 0.0, 0.0, 1.0166631468061984e-06]
twist: 
  twist: 
    linear: 
      x: 8.00033251105e-09
      y: 0.0
      z: 0.0
    angular: 
      x: 0.0
      y: 0.0
      z: 0.000117455484717
  covariance: [9.999995995906127e-10, 0.0, 0.0, 0.0, 0.0, 0.0, 0.0, 479469.0982273799, 0.0, 0.0, 0.0, 0.0, 0.0, 0.0, 5.025900867143112e-07, -2.7535596731724904e-25, -8.48262477008838e-27, 0.0, 0.0, 0.0, -2.75355967317249e-25, 3.344423187911301e-07, -7.091727482684617e-34, 0.0, 0.0, 0.0, -8.48262477008838e-27, -7.094378417327132e-34, 3.344423187911301e-07, 0.0, 0.0, 0.0, 0.0, 0.0, 0.0, 9.970636114131167e-10]
---
header: 
  seq: 5241
  stamp: 
    secs: 1518208422
    nsecs: 234464884
  frame_id: "swarmone/odom"
child_frame_id: "swarmone/base_link"
pose: 
  pose: 
    position: 
      x: 0.125137982135
      y: 4.8602400691
      z: 0.0
    orientation: 
      x: 0.0
      y: 0.0
      z: 0.699716309097
      w: 0.714420805117
  covariance: [19747596910.757965, -523467212.03900814, 0.0, 0.0, 0.0, -5.214114850766439e-16, -523467212.0390091, 13876622.32024977, 0.0, 0.0, 0.0, 1.2617968300822474e-17, 0.0, 0.0, 5.690338163023006e-07, -3.7069885614156783e-22, -2.7072120341497724e-14, 0.0, 0.0, 0.0, -3.7069885614156783e-22, 4.5260161561745186e-07, -2.326745587546497e-29, 0.0, 0.0, 0.0, -2.7072120341497727e-14, -2.3305084568917116e-29, 4.526016156174501e-07, 0.0, -5.214114850766438e-16, 1.2617968300822474e-17, 0.0, 0.0, 0.0, 9.880529173135234e-07]
twist: 
  twist: 
    linear: 
      x: 8.39972167863e-09
      y: 0.0
      z: 0.0
    angular: 
      x: 0.0
      y: 0.0
      z: 0.000120839421584
  covariance: [9.999995986826753e-10, 0.0, 0.0, 0.0, 0.0, 0.0, 0.0, 479742.77504845156, 0.0, 0.0, 0.0, 0.0, 0.0, 0.0, 4.978257723228859e-07, -2.7284421133311195e-25, -5.6751795672999685e-27, 0.0, 0.0, 0.0, -2.7284421133311204e-25, 3.3232324164587644e-07, -4.927924998413229e-34, 0.0, 0.0, 0.0, -5.6751795672999685e-27, -4.5663932905327356e-34, 3.3232324164587644e-07, 0.0, 0.0, 0.0, 0.0, 0.0, 0.0, 9.9697901294912e-10]
---
header: 
  seq: 5242
  stamp: 
    secs: 1518208422
    nsecs: 335033894
  frame_id: "swarmone/odom"
child_frame_id: "swarmone/base_link"
pose: 
  pose: 
    position: 
      x: 0.125157957063
      y: 4.86120038778
      z: 0.0
    orientation: 
      x: 0.0
      y: 0.0
      z: 0.696135420976
      w: 0.717910492793
  covariance: [19766555716.688534, -523915292.64602, 0.0, 0.0, 0.0, -4.805263708681728e-16, -523915292.646021, 13887060.178876871, 0.0, 0.0, 0.0, 1.322950561183306e-17, 0.0, 0.0, 5.74282955494049e-07, -3.899297920457567e-22, -2.4926667490089775e-14, 0.0, 0.0, 0.0, -3.8992979204575664e-22, 4.568548350647944e-07, -2.2804448967802585e-29, 0.0, 0.0, 0.0, -2.4926667490089775e-14, -2.285805957763286e-29, 4.568548350647929e-07, 0.0, -4.805263708681728e-16, 1.322950561183306e-17, 0.0, 0.0, 0.0, 1.0166631468072174e-06]
twist: 
  twist: 
    linear: 
      x: 7.60012618464e-09
      y: 0.0
      z: 0.0
    angular: 
      x: 0.0
      y: 0.0
      z: 8.80916139781e-05
  covariance: [9.999996022637426e-10, 0.0, 0.0, 0.0, 0.0, 0.0, 0.0, 480019.0214911788, 0.0, 0.0, 0.0, 0.0, 0.0, 0.0, 5.025901321902427e-07, -2.625494852883629e-25, -8.088079830270228e-27, 0.0, 0.0, 0.0, -2.6254948528836293e-25, 3.3444263843211805e-07, -5.94237689927121e-34, 0.0, 0.0, 0.0, -8.08807983027023e-27, -6.584196013653531e-34, 3.3444263843211805e-07, 0.0, 0.0, 0.0, 0.0, 0.0, 0.0, 9.970636114131455e-10]
---
header: 
  seq: 5243
  stamp: 
    secs: 1518208422
    nsecs: 434779406
  frame_id: "swarmone/odom"
child_frame_id: "swarmone/base_link"
pose: 
  pose: 
    position: 
      x: 0.125188579561
      y: 4.8621944453
      z: 0.0
    orientation: 
      x: 0.0
      y: 0.0
      z: 0.696135498082
      w: 0.717910418026
  covariance: [19785368804.68953, -524454040.2648511, 0.0, 0.0, 0.0, -5.301289513552334e-16, -524454040.2648521, 13902399.736436415, 0.0, 0.0, 0.0, 1.6331101531025985e-17, 0.0, 0.0, 5.868628138600897e-07, -5.919477299824154e-22, -2.6516535151523275e-14, 0.0, 0.0, 0.0, -5.919477299824155e-22, 4.6720402288035086e-07, -3.8584495124367163e-29, 0.0, 0.0, 0.0, -2.6516535151523288e-14, -3.74019065696837e-29, 4.672040228803492e-07, 0.0, -5.301289513552334e-16, 1.6331101531025985e-17, 0.0, 0.0, 0.0, 1.0881887205363586e-06]
twist: 
  twist: 
    linear: 
      x: 7.99956799066e-09
      y: 0.0
      z: 0.0
    angular: 
      x: 0.0
      y: 0.0
      z: 0.000109770561899
  covariance: [9.999995989800449e-10, 0.0, 0.0, 0.0, 0.0, 0.0, 0.0, 480293.1106493209, 0.0, 0.0, 0.0, 0.0, 0.0, 0.0, 5.141144802105826e-07, -3.101129475678134e-25, -9.553353298012175e-27, 0.0, 0.0, 0.0, -3.101129475678135e-25, 3.396812474173265e-07, -8.126524348773623e-34, 0.0, 0.0, 0.0, -9.553353298012178e-27, -8.12525924055913e-34, 3.396812474173265e-07, 0.0, 0.0, 0.0, 0.0, 0.0, 0.0, 9.972557345796633e-10]
---
header: 
  seq: 5244
  stamp: 
    secs: 1518208422
    nsecs: 535306931
  frame_id: "swarmone/odom"
child_frame_id: "swarmone/base_link"
pose: 
  pose: 
    position: 
      x: 0.125215020583
      y: 4.86305272078
      z: 0.0
    orientation: 
      x: 0.0
      y: 0.0
      z: 0.692537235792
      w: 0.721382129693
  covariance: [19804343878.943153, -524997460.99630886, 0.0, 0.0, 0.0, -4.3571724912611504e-16, -524997460.9963098, 13917873.37054113, 0.0, 0.0, 0.0, 1.623495244296237e-17, 0.0, 0.0, 5.690338456915581e-07, -5.934029226153058e-22, -2.2103277245413976e-14, 0.0, 0.0, 0.0, -5.934029226153057e-22, 4.526017103588048e-07, -3.0016960473014573e-29, 0.0, 0.0, 0.0, -2.210327724541397e-14, -2.990616291913414e-29, 4.5260171035880366e-07, 0.0, -4.357172491261151e-16, 1.6234952442962367e-17, 0.0, 0.0, 0.0, 9.880529173149492e-07]
twist: 
  twist: 
    linear: 
      x: 6.79958016975e-09
      y: 0.0
      z: 0.0
    angular: 
      x: 0.0
      y: 0.0
      z: 0.000120839422086
  covariance: [9.999996020996352e-10, 0.0, 0.0, 0.0, 0.0, 0.0, 0.0, 480569.4542358958, 0.0, 0.0, 0.0, 0.0, 0.0, 0.0, 4.978258321766712e-07, -2.226408553387082e-25, -9.087694697209846e-27, 0.0, 0.0, 0.0, -2.2264085533870817e-25, 3.3232366460142897e-07, -5.8090393314276215e-34, 0.0, 0.0, 0.0, -9.087694697209845e-27, -6.125539415994098e-34, 3.3232366460142897e-07, 0.0, 0.0, 0.0, 0.0, 0.0, 0.0, 9.969790129491592e-10]
---
header: 
  seq: 5245
  stamp: 
    secs: 1518208422
    nsecs: 635067940
  frame_id: "swarmone/odom"
child_frame_id: "swarmone/base_link"
pose: 
  pose: 
    position: 
      x: 0.125243423147
      y: 4.86374857783
      z: 0.0
    orientation: 
      x: 0.0
      y: 0.0
      z: 0.69613547352
      w: 0.717910441843
  covariance: [19823181912.57969, -525631283.0150935, 0.0, 0.0, 0.0, -3.445021830709032e-16, -525631283.0150945, 13938230.211063523, 0.0, 0.0, 0.0, 1.1762803753359566e-17, 0.0, 0.0, 5.690338193919851e-07, -3.66257542455882e-22, -1.8065030488366448e-14, 0.0, 0.0, 0.0, -3.66257542455882e-22, 4.526016255445931e-07, -1.427797029556256e-29, 0.0, 0.0, 0.0, -1.8065030488366454e-14, -1.3827092974999198e-29, 4.526016255445923e-07, 0.0, -3.4450218307090325e-16, 1.1762803753359566e-17, 0.0, 0.0, 0.0, 9.880529173136725e-07]
twist: 
  twist: 
    linear: 
      x: 5.60012804358e-09
      y: 0.0
      z: 0.0
    angular: 
      x: 0.0
      y: 0.0
      z: 0.000120839421644
  covariance: [9.99999599042333e-10, 0.0, 0.0, 0.0, 0.0, 0.0, 0.0, 480843.7954912438, 0.0, 0.0, 0.0, 0.0, 0.0, 0.0, 4.978257786125115e-07, -1.8201625040946502e-25, -5.607307578327779e-27, 0.0, 0.0, 0.0, -1.8201625040946507e-25, 3.3232328603344643e-07, -3.0698411720181847e-34, 0.0, 0.0, 0.0, -5.607307578327781e-27, -2.746856905716287e-34, 3.3232328603344643e-07, 0.0, 0.0, 0.0, 0.0, 0.0, 0.0, 9.96979012949124e-10]
---
header: 
  seq: 5246
  stamp: 
    secs: 1518208422
    nsecs: 734425306
  frame_id: "swarmone/odom"
child_frame_id: "swarmone/base_link"
pose: 
  pose: 
    position: 
      x: 0.125266213303
      y: 4.86448842775
      z: 0.0
    orientation: 
      x: 0.0
      y: 0.0
      z: 0.699716319315
      w: 0.714420795109
  covariance: [19841964699.92227, -526169254.64545184, 0.0, 0.0, 0.0, -3.7840779907912413e-16, -526169254.64545286, 13953550.86630812, 0.0, 0.0, 0.0, 9.097507179328797e-18, 0.0, 0.0, 5.768598096693609e-07, -2.789369852810225e-22, -1.95228237023398e-14, 0.0, 0.0, 0.0, -2.7893698528102237e-22, 4.5895662507159224e-07, -1.286181922264444e-29, 0.0, 0.0, 0.0, -1.9522823702339797e-14, -1.2877365247425311e-29, 4.589566250715914e-07, 0.0, -3.7840779907912413e-16, 9.097507179328795e-18, 0.0, 0.0, 0.0, 1.030968261551298e-06]
twist: 
  twist: 
    linear: 
      x: 6.00107890984e-09
      y: 0.0
      z: 0.0
    angular: 
      x: 0.0
      y: 0.0
      z: 0.000115833606485
  covariance: [9.999995974134291e-10, 0.0, 0.0, 0.0, 0.0, 0.0, 0.0, 481117.13049208344, 0.0, 0.0, 0.0, 0.0, 0.0, 0.0, 5.049384579001504e-07, -2.101814922840019e-25, -4.371610684508097e-27, 0.0, 0.0, 0.0, -2.1018149228400193e-25, 3.3549648545549886e-07, -2.6927010452969603e-34, 0.0, 0.0, 0.0, -4.371610684508099e-27, -3.0109439601329154e-34, 3.3549648545549886e-07, 0.0, 0.0, 0.0, 0.0, 0.0, 0.0, 9.971041583847412e-10]
---
header: 
  seq: 5247
  stamp: 
    secs: 1518208422
    nsecs: 834940434
  frame_id: "swarmone/odom"
child_frame_id: "swarmone/base_link"
pose: 
  pose: 
    position: 
      x: 0.125290363963
      y: 4.86564959287
      z: 0.0
    orientation: 
      x: 0.0
      y: 0.0
      z: 0.699716256217
      w: 0.714420856908
  covariance: [19860985746.15789, -526618893.7173793, 0.0, 0.0, 0.0, -5.897005096200312e-16, -526618893.7173803, 13964026.444603855, 0.0, 0.0, 0.0, 1.2265237331227119e-17, 0.0, 0.0, 5.742829537093944e-07, -3.1862828084768693e-22, -3.015512936553908e-14, 0.0, 0.0, 0.0, -3.18628280847687e-22, 4.568548292906443e-07, -2.25475725059106e-29, 0.0, 0.0, 0.0, -3.0155129365539085e-14, -2.2591698003203105e-29, 4.5685482929064227e-07, 0.0, -5.897005096200312e-16, 1.2265237331227119e-17, 0.0, 0.0, 0.0, 1.0166631468071297e-06]
twist: 
  twist: 
    linear: 
      x: 9.1988969636e-09
      y: 0.0
      z: 0.0
    angular: 
      x: 0.0
      y: 0.0
      z: 8.80916139475e-05
  covariance: [9.999996020505418e-10, 0.0, 0.0, 0.0, 0.0, 0.0, 0.0, 481393.7559092905, 0.0, 0.0, 0.0, 0.0, 0.0, 0.0, 5.025901285393347e-07, -3.1771131512068235e-25, -6.60817688329335e-27, 0.0, 0.0, 0.0, -3.1771131512068235e-25, 3.344426123774142e-07, -6.391205681686587e-34, 0.0, 0.0, 0.0, -6.608176883293349e-27, -6.591796101925782e-34, 3.344426123774142e-07, 0.0, 0.0, 0.0, 0.0, 0.0, 0.0, 9.970636114131432e-10]
---
header: 
  seq: 5248
  stamp: 
    secs: 1518208422
    nsecs: 935444593
  frame_id: "swarmone/odom"
child_frame_id: "swarmone/base_link"
pose: 
  pose: 
    position: 
      x: 0.125306113272
      y: 4.86640681412
      z: 0.0
    orientation: 
      x: 0.0
      y: 0.0
      z: 0.699716309694
      w: 0.714420804532
  covariance: [19880019298.210514, -527068802.35895485, 0.0, 0.0, 0.0, -3.7561239968032015e-16, -527068802.3589558, 13974507.845548218, 0.0, 0.0, 0.0, 7.812419846131671e-18, 0.0, 0.0, 5.690338448889265e-07, -2.669409622339919e-22, -1.9501221324305215e-14, 0.0, 0.0, 0.0, -2.6694096223399187e-22, 4.5260170783567515e-07, -1.2120060925555769e-29, 0.0, 0.0, 0.0, -1.9501221324305218e-14, -1.2038072750592866e-29, 4.5260170783567425e-07, 0.0, -3.7561239968032015e-16, 7.812419846131672e-18, 0.0, 0.0, 0.0, 9.880529173149087e-07]
twist: 
  twist: 
    linear: 
      x: 6.00079734688e-09
      y: 0.0
      z: 0.0
    angular: 
      x: 0.0
      y: 0.0
      z: 0.00012083942204
  covariance: [9.99999602007113e-10, 0.0, 0.0, 0.0, 0.0, 0.0, 0.0, 481670.45714025915, 0.0, 0.0, 0.0, 0.0, 0.0, 0.0, 4.978258305367662e-07, -1.9654165173553932e-25, -4.087930920327337e-27, 0.0, 0.0, 0.0, -1.965416517355394e-25, 3.323236529016074e-07, -2.058938794058896e-34, 0.0, 0.0, 0.0, -4.087930920327336e-27, -2.701498867127887e-34, 3.323236529016074e-07, 0.0, 0.0, 0.0, 0.0, 0.0, 0.0, 9.96979012949158e-10]
---
header: 
  seq: 5249
  stamp: 
    secs: 1518208423
    nsecs:  35553694
  frame_id: "swarmone/odom"
child_frame_id: "swarmone/base_link"
pose: 
  pose: 
    position: 
      x: 0.12532798795
      y: 4.86745854856
      z: 0.0
    orientation: 
      x: 0.0
      y: 0.0
      z: 0.699716309694
      w: 0.714420804532
  covariance: [19898992536.59799, -527517256.33121765, 0.0, 0.0, 0.0, -5.187539847109698e-16, -527517256.3312186, 13984954.810683364, 0.0, 0.0, 0.0, 1.0789619362265513e-17, 0.0, 0.0, 5.690338313804497e-07, -3.7226495786228937e-22, -2.719224861473586e-14, 0.0, 0.0, 0.0, -3.722649578622895e-22, 4.526016642523649e-07, -2.3491570530657602e-29, 0.0, 0.0, 0.0, -2.719224861473586e-14, -2.3485333338659298e-29, 4.526016642523632e-07, 0.0, -5.187539847109698e-16, 1.0789619362265512e-17, 0.0, 0.0, 0.0, 9.880529173142536e-07]
twist: 
  twist: 
    linear: 
      x: 8.40025143542e-09
      y: 0.0
      z: 0.0
    angular: 
      x: 0.0
      y: 0.0
      z: 0.000120839421853
  covariance: [9.9999960043651e-10, 0.0, 0.0, 0.0, 0.0, 0.0, 0.0, 481946.17610675225, 0.0, 0.0, 0.0, 0.0, 0.0, 0.0, 4.978258030258545e-07, -2.740493431729925e-25, -5.700037431250925e-27, 0.0, 0.0, 0.0, -2.740493431729925e-25, 3.323234585031945e-07, -4.800217282464758e-34, 0.0, 0.0, 0.0, -5.700037431250926e-27, -4.959264795639567e-34, 3.323234585031945e-07, 0.0, 0.0, 0.0, 0.0, 0.0, 0.0, 9.969790129491402e-10]
---
header: 
  seq: 5250
  stamp: 
    secs: 1518208423
    nsecs: 134943724
  frame_id: "swarmone/odom"
child_frame_id: "swarmone/base_link"
pose: 
  pose: 
    position: 
      x: 0.125351603027
      y: 4.86859396135
      z: 0.0
    orientation: 
      x: 0.0
      y: 0.0
      z: 0.699716296068
      w: 0.714420817878
  covariance: [19917843819.724117, -527962800.52527183, 0.0, 0.0, 0.0, -5.422780783070402e-16, -527962800.52527285, 13995333.49272601, 0.0, 0.0, 0.0, 1.1278894716941627e-17, 0.0, 0.0, 5.581374389494454e-07, -3.7417594772334884e-22, -2.9012075089395945e-14, 0.0, 0.0, 0.0, -3.741759477233489e-22, 4.4389226514146985e-07, -2.4372301410784858e-29, 0.0, 0.0, 0.0, -2.901207508939594e-14, -2.4763462009794912e-29, 4.43892265141468e-07, 0.0, -5.422780783070401e-16, 1.1278894716941627e-17, 0.0, 0.0, 0.0, 9.308324583286453e-07]
twist: 
  twist: 
    linear: 
      x: 9.19998912469e-09
      y: 0.0
      z: 0.0
    angular: 
      x: 0.0
      y: 0.0
      z: 0.000128228016574
  covariance: [9.999995975457346e-10, 0.0, 0.0, 0.0, 0.0, 0.0, 0.0, 482220.0186889343, 0.0, 0.0, 0.0, 0.0, 0.0, 0.0, 4.880180066424246e-07, -2.6626865958090825e-25, -5.5382047317979655e-27, 0.0, 0.0, 0.0, -2.662686595809081e-25, 3.280444491986211e-07, -4.795131064464467e-34, 0.0, 0.0, 0.0, -5.538204731797965e-27, -5.15554170225614e-34, 3.280444491986211e-07, 0.0, 0.0, 0.0, 0.0, 0.0, 0.0, 9.967942979775893e-10]
---
header: 
  seq: 5251
  stamp: 
    secs: 1518208423
    nsecs: 235015631
  frame_id: "swarmone/odom"
child_frame_id: "swarmone/base_link"
pose: 
  pose: 
    position: 
      x: 0.125375541098
      y: 4.86974490154
      z: 0.0
    orientation: 
      x: 0.0
      y: 0.0
      z: 0.69971634376
      w: 0.714420771167
  covariance: [19936838865.146694, -528411715.4473484, 0.0, 0.0, 0.0, -6.118029726813275e-16, -528411715.44734955, 14005790.202866675, 0.0, 0.0, 0.0, 1.272497878017345e-17, 0.0, 0.0, 5.94060107654373e-07, -4.841911236604697e-22, -3.0893964863808195e-14, 0.0, 0.0, 0.0, -4.841911236604697e-22, 4.73226433271348e-07, -3.67426630765576e-29, 0.0, 0.0, 0.0, -3.089396486380818e-14, -3.695581794834857e-29, 4.7322643327134556e-07, 0.0, -6.118029726813275e-16, 1.272497878017345e-17, 0.0, 0.0, 0.0, 1.1311040647752077e-06]
twist: 
  twist: 
    linear: 
      x: 9.19944010205e-09
      y: 0.0
      z: 0.0
    angular: 
      x: 0.0
      y: 0.0
      z: 0.000105624074489
  covariance: [9.999996002879905e-10, 0.0, 0.0, 0.0, 0.0, 0.0, 0.0, 482495.8447837612, 0.0, 0.0, 0.0, 0.0, 0.0, 0.0, 5.207763314666639e-07, -3.8329353753453648e-25, -7.972240763413706e-27, 0.0, 0.0, 0.0, -3.832935375345364e-25, 3.4278540761684653e-07, -8.246321219348821e-34, 0.0, 0.0, 0.0, -7.972240763413706e-27, -8.72731779482969e-34, 3.4278540761684653e-07, 0.0, 0.0, 0.0, 0.0, 0.0, 0.0, 9.973593968224086e-10]
---
header: 
  seq: 5252
  stamp: 
    secs: 1518208423
    nsecs: 334546089
  frame_id: "swarmone/odom"
child_frame_id: "swarmone/base_link"
pose: 
  pose: 
    position: 
      x: 0.1253951059
      y: 4.87068549576
      z: 0.0
    orientation: 
      x: 0.0
      y: 0.0
      z: 0.696135474721
      w: 0.717910440679
  covariance: [19955745506.357803, -528858528.1789397, 0.0, 0.0, 0.0, -4.890796508567463e-16, -528858528.1789408, 14016197.872591201, 0.0, 0.0, 0.0, 1.3283793779448011e-17, 0.0, 0.0, 5.69033811420135e-07, -4.957498447953448e-22, -2.446010585758726e-14, 0.0, 0.0, 0.0, -4.957498447953449e-22, 4.526015998582576e-07, -2.787083203885094e-29, 0.0, 0.0, 0.0, -2.4460105857587257e-14, -2.84031403406746e-29, 4.5260159985825634e-07, 0.0, -4.890796508567463e-16, 1.3283793779448012e-17, 0.0, 0.0, 0.0, 9.880529173132896e-07]
twist: 
  twist: 
    linear: 
      x: 7.60013565623e-09
      y: 0.0
      z: 0.0
    angular: 
      x: 0.0
      y: 0.0
      z: 0.000120839421481
  covariance: [9.999995981135995e-10, 0.0, 0.0, 0.0, 0.0, 0.0, 0.0, 482770.28280439234, 0.0, 0.0, 0.0, 0.0, 0.0, 0.0, 4.978257623896628e-07, -2.464768494599399e-25, -7.592604769021579e-27, 0.0, 0.0, 0.0, -2.4647684945993982e-25, 3.323231716605084e-07, -5.1594946861708395e-34, 0.0, 0.0, 0.0, -7.59260476902158e-27, -5.8029097910988725e-34, 3.323231716605084e-07, 0.0, 0.0, 0.0, 0.0, 0.0, 0.0, 9.969790129491135e-10]
---
header: 
  seq: 5253
  stamp: 
    secs: 1518208423
    nsecs: 435214758
  frame_id: "swarmone/odom"
child_frame_id: "swarmone/base_link"
pose: 
  pose: 
    position: 
      x: 0.125426297724
      y: 4.87169809329
      z: 0.0
    orientation: 
      x: 0.0
      y: 0.0
      z: 0.699716309103
      w: 0.714420805111
  covariance: [19974878010.494328, -529406371.85613847, 0.0, 0.0, 0.0, -4.96758986277624e-16, -529406371.85613954, 14031794.876524473, 0.0, 0.0, 0.0, 1.1989699676667809e-17, 0.0, 0.0, 5.69033850478546e-07, -3.5658751569577515e-22, -2.6041229717286118e-14, 0.0, 0.0, 0.0, -3.5658751569577515e-22, 4.526017258614377e-07, -2.1623184497518705e-29, 0.0, 0.0, 0.0, -2.604122971728612e-14, -2.1470564278656725e-29, 4.5260172586143613e-07, 0.0, -4.967589862776239e-16, 1.1989699676667809e-17, 0.0, 0.0, 0.0, 9.88052917315179e-07]
twist: 
  twist: 
    linear: 
      x: 7.99985980932e-09
      y: 0.0
      z: 0.0
    angular: 
      x: 0.0
      y: 0.0
      z: 0.000120839422187
  covariance: [9.999996026574897e-10, 0.0, 0.0, 0.0, 0.0, 0.0, 0.0, 483047.9650806754, 0.0, 0.0, 0.0, 0.0, 0.0, 0.0, 4.978258419173018e-07, -2.6244929141523416e-25, -5.45891700031095e-27, 0.0, 0.0, 0.0, -2.624492914152341e-25, 3.32323733255478e-07, -4.403538065315189e-34, 0.0, 0.0, 0.0, -5.4589170003109495e-27, -4.60497569928362e-34, 3.32323733255478e-07, 0.0, 0.0, 0.0, 0.0, 0.0, 0.0, 9.969790129491652e-10]
---
header: 
  seq: 5254
  stamp: 
    secs: 1518208423
    nsecs: 535087347
  frame_id: "swarmone/odom"
child_frame_id: "swarmone/base_link"
pose: 
  pose: 
    position: 
      x: 0.125445995023
      y: 4.87264513925
      z: 0.0
    orientation: 
      x: 0.0
      y: 0.0
      z: 0.699716316507
      w: 0.714420797859
