header: 
  seq: 3735
  stamp: 
    secs: 1518208272
    nsecs: 634463549
  frame_id: "swarmone/map"
child_frame_id: "swarmone/base_link"
pose: 
  pose: 
    position: 
      x: 8.12121417204e-08
      y: 2.7706464662e-06
      z: 0.0
    orientation: 
      x: 0.0
      y: 0.0
      z: 0.699716081061
      w: 0.714421028459
  covariance: [36337330407.21339, -997865625.0825146, 0.0, 0.0, 0.0, -1.1600160540122398e-22, -997865625.0825125, 27403363.129581477, 0.0, 0.0, 0.0, 2.412610327429059e-24, 0.0, 0.0, 4.999748560269942e-07, -2.020064686727613e-28, -1.2312091597359575e-24, 0.0, 0.0, 0.0, -2.0200646867276133e-28, 4.999748560476542e-07, 3.26870657608939e-35, 0.0, 0.0, 0.0, -1.2312091597359577e-24, -3.268708553810281e-35, 4.999748560476542e-07, 0.0, -1.1600160540122393e-22, 2.4126103274290592e-24, 0.0, 0.0, 0.0, 9.999979886372847e-10]
twist: 
  twist: 
    linear: 
      x: 7.15004649183e-09
      y: 0.0
      z: 0.0
    angular: 
      x: 0.0
      y: 0.0
      z: 0.0300000050283
  covariance: [0.010980556279640384, 0.0, 0.0, 0.0, 0.0, 0.0, 0.0, 1737493.2400182937, 0.0, 0.0, 0.0, 0.0, 0.0, 0.0, 4.999974853392805e-07, -4.2525308306354825e-35, -8.832315839067708e-37, 0.0, 0.0, 0.0, -4.252530830635486e-35, 4.999748560033876e-07, -6.558752139149627e-40, 0.0, 0.0, 0.0, -8.832315839067711e-37, 6.551647437667389e-40, 4.999748560033876e-07, 0.0, 0.0, 0.0, 0.0, 0.0, 0.0, 9.999998994282842e-10]
---
header: 
  seq: 3736
  stamp: 
    secs: 1518208272
    nsecs: 734961987
  frame_id: "swarmone/map"
child_frame_id: "swarmone/base_link"
pose: 
  pose: 
    position: 
      x: 8.12272016533e-08
      y: 2.77137015867e-06
      z: 0.0
    orientation: 
      x: 0.0
      y: 0.0
      z: 0.706825169151
      w: 0.707388281113
  covariance: [36386246355.318115, -999045267.9515344, 0.0, 0.0, 0.0, -1.2117347169476735e-22, -999045267.9515324, 27431272.971012946, 0.0, 0.0, 0.0, 2.5202638283642157e-24, 0.0, 0.0, 4.999751228157989e-07, -7.659769871444844e-29, -1.2256589231646182e-24, 0.0, 0.0, 0.0, -7.659769871444841e-29, 4.999751228194701e-07, 3.199245320898576e-35, 0.0, 0.0, 0.0, -1.2256589231646182e-24, -3.199246076820679e-35, 4.999751228194701e-07, 0.0, -1.211734716947674e-22, 2.5202638283642157e-24, 0.0, 0.0, 0.0, 9.999980099939979e-10]
twist: 
  twist: 
    linear: 
      x: 7.15472286402e-09
      y: 0.0
      z: 0.0
    angular: 
      x: 0.0
      y: 0.0
      z: 0.0399999990055
  covariance: [0.011109524451633615, 0.0, 0.0, 0.0, 0.0, 0.0, 0.0, 1738895.9545181028, 0.0, 0.0, 0.0, 0.0, 0.0, 0.0, 4.999975120219229e-07, -4.491944056847241e-35, -9.337921495305611e-37, 0.0, 0.0, 0.0, -4.4919440568472403e-35, 4.999751227921347e-07, -3.4569447628111364e-40, 0.0, 0.0, 0.0, -9.337921495305608e-37, 3.4489145742711286e-40, 4.999751227921347e-07, 0.0, 0.0, 0.0, 0.0, 0.0, 0.0, 9.999999004959852e-10]
---
header: 
  seq: 3737
  stamp: 
    secs: 1518208272
    nsecs: 834545851
  frame_id: "swarmone/map"
child_frame_id: "swarmone/base_link"
pose: 
  pose: 
    position: 
      x: 8.12293940726e-08
      y: 2.77227267334e-06
      z: 0.0
    orientation: 
      x: 0.0
      y: 0.0
      z: 0.699716092552
      w: 0.714421017205
  covariance: [36434779577.05862, -999729985.7215979, 0.0, 0.0, 0.0, -1.4046246410396533e-22, -999729985.7215958, 27432331.985977944, 0.0, 0.0, 0.0, 1.1177123372246387e-25, 0.0, 0.0, 4.999748943875989e-07, -4.5779529827226596e-30, -1.450339611450399e-24, 0.0, 0.0, 0.0, -4.5779529827226596e-30, 4.999748943947256e-07, 3.0549242656019394e-36, 0.0, 0.0, 0.0, -1.4503396114503994e-24, -3.054924792543107e-36, 4.999748943947256e-07, 0.0, -1.4046246410396533e-22, 1.1177123372246392e-25, 0.0, 0.0, 0.0, 9.99997991716381e-10]
twist: 
  twist: 
    linear: 
      x: 8.47378292326e-09
      y: 0.0
      z: 0.0
    angular: 
      x: 0.0
      y: 0.0
      z: 0.0399999999992
  covariance: [0.010998917015331608, 0.0, 0.0, 0.0, 0.0, 0.0, 0.0, 1740286.6482772948, 0.0, 0.0, 0.0, 0.0, 0.0, 0.0, 4.99997489174939e-07, -5.239386804642237e-35, -4.174606132724573e-38, 0.0, 0.0, 0.0, -5.23938680464224e-35, 4.99974894363954e-07, -1.3809707022647335e-40, 0.0, 0.0, 0.0, -4.174606132724573e-38, 1.3805191925015533e-40, 4.99974894363954e-07, 0.0, 0.0, 0.0, 0.0, 0.0, 0.0, 9.99999899582145e-10]
---
header: 
  seq: 3738
  stamp: 
    secs: 1518208272
    nsecs: 935013294
  frame_id: "swarmone/map"
child_frame_id: "swarmone/base_link"
pose: 
  pose: 
    position: 
      x: 8.12574769844e-08
      y: 2.77361248499e-06
      z: 0.0
    orientation: 
      x: 0.0
      y: 0.0
      z: 0.699716078204
      w: 0.714421031257
  covariance: [36483785292.12346, -1000911208.8333126, 0.0, 0.0, 0.0, -1.849110352411399e-22, -1000911208.8333106, 27460268.680333555, 0.0, 0.0, 0.0, 3.845895608287453e-24, 0.0, 0.0, 4.999751154053888e-07, -1.6466117029600936e-28, -1.9786668684288894e-24, 0.0, 0.0, 0.0, -1.6466117029600927e-28, 4.999751154120233e-07, 4.802221433911064e-35, 0.0, 0.0, 0.0, -1.978666868428889e-24, -4.8022240565084194e-35, 4.999751154120233e-07, 0.0, -1.8491103524113988e-22, 3.845895608287453e-24, 0.0, 0.0, 0.0, 9.999980093752955e-10]
twist: 
  twist: 
    linear: 
      x: 1.19706588665e-08
      y: 0.0
      z: 0.0
    angular: 
      x: 0.0
      y: 0.0
      z: 0.0399999999999
  covariance: [0.011105926434763592, 0.0, 0.0, 0.0, 0.0, 0.0, 0.0, 1741690.4324473608, 0.0, 0.0, 0.0, 0.0, 0.0, 0.0, 4.999975112836955e-07, -6.295595269701604e-35, -1.3082097072925673e-36, 0.0, 0.0, 0.0, -6.295595269701603e-35, 4.999751153818218e-07, -5.00670316525743e-40, 0.0, 0.0, 0.0, -1.3082097072925674e-36, 4.989871630890479e-40, 4.999751153818218e-07, 0.0, 0.0, 0.0, 0.0, 0.0, 0.0, 9.99999900465288e-10]
---
header: 
  seq: 3739
  stamp: 
    secs: 1518208273
    nsecs:  34543514
  frame_id: "swarmone/map"
child_frame_id: "swarmone/base_link"
pose: 
  pose: 
    position: 
      x: 8.12670391787e-08
      y: 2.77408648771e-06
      z: 0.0
    orientation: 
      x: 0.0
      y: 0.0
      z: 0.696135248712
      w: 0.717910659833
  covariance: [36532385829.277885, -1002082550.9952285, 0.0, 0.0, 0.0, -1.1745324321505433e-22, -1002082550.9952266, 27487969.630215857, 0.0, 0.0, 0.0, 2.4428710794809242e-24, 0.0, 0.0, 4.999748809097147e-07, -1.0115258537162067e-28, -1.2269197076355105e-24, 0.0, 0.0, 0.0, -1.0115258537162062e-28, 4.999748809167551e-07, 4.893093855294524e-35, 0.0, 0.0, 0.0, -1.22691970763551e-24, -4.893094852112252e-35, 4.999748809167551e-07, 0.0, -1.174532432150543e-22, 2.4428710794809246e-24, 0.0, 0.0, 0.0, 9.999979906329849e-10]
twist: 
  twist: 
    linear: 
      x: 7.1179113359e-09
      y: 0.0
      z: 0.0
    angular: 
      x: 0.0
      y: 0.0
      z: 0.0300000010043
  covariance: [0.010992465324157735, 0.0, 0.0, 0.0, 0.0, 0.0, 0.0, 1743081.8654092555, 0.0, 0.0, 0.0, 0.0, 0.0, 0.0, 4.99997487827465e-07, -4.3607276819388317e-35, -9.063453486833351e-37, 0.0, 0.0, 0.0, -4.3607276819388343e-35, 4.999748808860887e-07, 3.711204852598852e-41, 0.0, 0.0, 0.0, -9.063453486833353e-37, -3.794560662113637e-41, 4.999748808860887e-07, 0.0, 0.0, 0.0, 0.0, 0.0, 0.0, 9.999998995280224e-10]
---
header: 
  seq: 3740
  stamp: 
    secs: 1518208273
    nsecs: 134768009
  frame_id: "swarmone/map"
child_frame_id: "swarmone/base_link"
pose: 
  pose: 
    position: 
      x: 8.12978836701e-08
      y: 2.77511775605e-06
      z: 0.0
    orientation: 
      x: 0.0
      y: 0.0
      z: 0.699716070362
      w: 0.714421038938
  covariance: [36581365056.06402, -1003508052.2659078, 0.0, 0.0, 0.0, -2.0914937070307514e-22, -1003508052.2659059, 27529316.04229341, 0.0, 0.0, 0.0, 6.442920417156139e-24, 0.0, 0.0, 4.999750535119565e-07, -1.5658741467385702e-28, -1.6968420801395942e-24, 0.0, 0.0, 0.0, -1.5658741467385702e-28, 4.999750535172511e-07, 1.4104267782141648e-39, 0.0, 0.0, 0.0, -1.696842080139594e-24, -1.4318327647357845e-39, 4.999750535172511e-07, 0.0, -2.0914937070307514e-22, 6.442920417156139e-24, 0.0, 0.0, 0.0, 9.999980045774263e-10]
twist: 
  twist: 
    linear: 
      x: 9.31422403323e-09
      y: 0.0
      z: 0.0
    angular: 
      x: 0.0
      y: 0.0
      z: 0.0399999990026
  covariance: [0.011075669591250777, 0.0, 0.0, 0.0, 0.0, 0.0, 0.0, 1744483.7529919322, 0.0, 0.0, 0.0, 0.0, 0.0, 0.0, 4.99997505078391e-07, -9.949761493947497e-35, -3.064269050318878e-36, 0.0, 0.0, 0.0, -9.949761493947486e-35, 4.999750534879607e-07, -3.2131071886280206e-39, 0.0, 0.0, 0.0, -3.064269050318877e-36, 3.2077813861766213e-39, 4.999750534879607e-07, 0.0, 0.0, 0.0, 0.0, 0.0, 0.0, 9.999999002240109e-10]
---
header: 
  seq: 3741
  stamp: 
    secs: 1518208273
    nsecs: 235292912
  frame_id: "swarmone/map"
child_frame_id: "swarmone/base_link"
pose: 
  pose: 
    position: 
      x: 8.13091105772e-08
      y: 2.77566932413e-06
      z: 0.0
    orientation: 
      x: 0.0
      y: 0.0
      z: 0.688921469641
      w: 0.724835987426
  covariance: [36630556542.48619, -1004693581.1225994, 0.0, 0.0, 0.0, -1.0893521071761427e-22, -1004693581.1225971, 27557351.49636941, 0.0, 0.0, 0.0, 2.2657149402396474e-24, 0.0, 0.0, 4.999751295242378e-07, -9.485385793218799e-29, -1.139174602013422e-24, 0.0, 0.0, 0.0, -9.485385793218802e-29, 4.999751295310508e-07, 3.1982219101511264e-35, 0.0, 0.0, 0.0, -1.1391746020134216e-24, -3.198222775038954e-35, 4.999751295310508e-07, 0.0, -1.0893521071761425e-22, 2.2657149402396474e-24, 0.0, 0.0, 0.0, 9.999980105150499e-10]
twist: 
  twist: 
    linear: 
      x: 6.67552439579e-09
      y: 0.0
      z: 0.0
    angular: 
      x: 0.0
      y: 0.0
      z: 0.0399999999989
  covariance: [0.011112853787470942, 0.0, 0.0, 0.0, 0.0, 0.0, 0.0, 1745890.5973543406, 0.0, 0.0, 0.0, 0.0, 0.0, 0.0, 4.999975126946571e-07, -3.9189380054854533e-35, -8.146232103165251e-37, 0.0, 0.0, 0.0, -3.9189380054854554e-35, 4.999751295006302e-07, -2.2285472204716914e-39, 0.0, 0.0, 0.0, -8.14623210316525e-37, 2.2278471963896602e-39, 4.999751295006302e-07, 0.0, 0.0, 0.0, 0.0, 0.0, 0.0, 9.99999900522181e-10]
---
header: 
  seq: 3742
  stamp: 
    secs: 1518208273
    nsecs: 334994316
  frame_id: "swarmone/map"
child_frame_id: "swarmone/base_link"
pose: 
  pose: 
    position: 
      x: 8.13485234132e-08
      y: 2.77647024172e-06
      z: 0.0
    orientation: 
      x: 0.0
      y: 0.0
      z: 0.696135227098
      w: 0.71791068079
  covariance: [36679344840.90155, -1006602354.3228647, 0.0, 0.0, 0.0, -1.2061655818177144e-22, -1006602354.3228624, 27625332.97585254, 0.0, 0.0, 0.0, 6.1320623464637e-24, 0.0, 0.0, 4.999749241478387e-07, -2.5959430835844763e-28, -1.2873272948887889e-24, 0.0, 0.0, 0.0, -2.595943083584476e-28, 4.999749241546563e-07, -2.600581793696255e-34, 0.0, 0.0, 0.0, -1.2873272948887883e-24, 2.600581528548139e-34, 4.999749241546563e-07, 0.0, -1.206165581817714e-22, 6.132062346463699e-24, 0.0, 0.0, 0.0, 9.999979940812043e-10]
twist: 
  twist: 
    linear: 
      x: 7.56205566082e-09
      y: 0.0
      z: 0.0
    angular: 
      x: 0.0
      y: 0.0
      z: 0.0400000000005
  covariance: [0.011013252137749296, 0.0, 0.0, 0.0, 0.0, 0.0, 0.0, 1747286.6637830366, 0.0, 0.0, 0.0, 0.0, 0.0, 0.0, 4.999974921533899e-07, -4.326925315756251e-35, -2.198018252180936e-36, 0.0, 0.0, 0.0, -4.3269253157562496e-35, 4.999749241242519e-07, -3.849790985114198e-39, 0.0, 0.0, 0.0, -2.1980182521809347e-36, 3.8478199713415816e-39, 4.999749241242519e-07, 0.0, 0.0, 0.0, 0.0, 0.0, 0.0, 9.9999989970053e-10]
---
header: 
  seq: 3743
  stamp: 
    secs: 1518208273
    nsecs: 434299231
  frame_id: "swarmone/map"
child_frame_id: "swarmone/base_link"
pose: 
  pose: 
    position: 
      x: 8.13485549619e-08
      y: 2.77642482559e-06
      z: 0.0
    orientation: 
      x: 0.0
      y: 0.0
      z: 0.696135241499
      w: 0.717910666827
  covariance: [36728030540.288055, -1008019662.410491, 0.0, 0.0, 0.0, -3.459323625660831e-23, -1008019662.4104887, 27666453.132607628, 0.0, 0.0, 0.0, 1.0656653863269977e-24, 0.0, 0.0, 4.9997482397046e-07, -4.4614626559667435e-29, -3.6628178791533367e-25, 0.0, 0.0, 0.0, -4.461462655966742e-29, 4.999748239774361e-07, 3.277088854938122e-35, 0.0, 0.0, 0.0, -3.6628178791533367e-25, -3.277088977809853e-35, 4.999748239774361e-07, 0.0, -3.4593236256608314e-23, 1.0656653863269977e-24, 0.0, 0.0, 0.0, 9.999979860729995e-10]
twist: 
  twist: 
    linear: 
      x: 1.87838707369e-09
      y: 0.0
      z: 0.0
    angular: 
      x: 0.0
      y: 0.0
      z: 0.0399999999999
  covariance: [0.010965243724028366, 0.0, 0.0, 0.0, 0.0, 0.0, 0.0, 1748677.9179681393, 0.0, 0.0, 0.0, 0.0, 0.0, 0.0, 4.999974821329605e-07, -1.387120259363152e-35, -4.270489773555116e-37, 0.0, 0.0, 0.0, -1.3871202593631522e-35, 4.999748239468536e-07, 3.541067348236835e-39, 0.0, 0.0, 0.0, -4.270489773555115e-37, -3.541255681361309e-39, 4.999748239468536e-07, 0.0, 0.0, 0.0, 0.0, 0.0, 0.0, 9.999998993000692e-10]
---
header: 
  seq: 3744
  stamp: 
    secs: 1518208273
    nsecs: 535499573
  frame_id: "swarmone/map"
child_frame_id: "swarmone/base_link"
pose: 
  pose: 
    position: 
      x: 8.13850905279e-08
      y: 2.77766726179e-06
      z: 0.0
    orientation: 
      x: 0.0
      y: 0.0
      z: 0.699716071145
      w: 0.714421038171
  covariance: [36777698675.76974, -1009465629.0573394, 0.0, 0.0, 0.0, -1.4541445247973828e-22, -1009465629.0573372, 27708406.6708065, 0.0, 0.0, 0.0, 4.479551720298229e-24, 0.0, 0.0, 4.99975295471746e-07, -1.8548393964343866e-28, -1.494398181533606e-24, 0.0, 0.0, 0.0, -1.8548393964343863e-28, 4.999752954785564e-07, -6.6670260629043944e-40, 0.0, 0.0, 0.0, -1.494398181533606e-24, 6.442279030327907e-40, 4.999752954785564e-07, 0.0, -1.4541445247973823e-22, 4.4795517202982295e-24, 0.0, 0.0, 0.0, 9.999980237947646e-10]
twist: 
  twist: 
    linear: 
      x: 8.93242511818e-09
      y: 0.0
      z: 0.0
    angular: 
      x: 0.0
      y: 0.0
      z: 0.0300000009883
  covariance: [0.011194633423765357, 0.0, 0.0, 0.0, 0.0, 0.0, 0.0, 1750096.4865449504, 0.0, 0.0, 0.0, 0.0, 0.0, 0.0, 4.999975292922227e-07, -5.126039389171114e-35, -1.577929529538153e-36, 0.0, 0.0, 0.0, -5.126039389171118e-35, 4.999752954481186e-07, -2.0031336354035633e-39, 0.0, 0.0, 0.0, -1.577929529538152e-36, 2.0014571530596177e-39, 4.999752954481186e-07, 0.0, 0.0, 0.0, 0.0, 0.0, 0.0, 9.999999011861239e-10]
---
header: 
  seq: 3745
  stamp: 
    secs: 1518208273
    nsecs: 634763956
  frame_id: "swarmone/map"
child_frame_id: "swarmone/base_link"
pose: 
  pose: 
    position: 
      x: 8.1397643435e-08
      y: 2.77829355815e-06
      z: 0.0
    orientation: 
      x: 0.0
      y: 0.0
      z: 0.69971607749
      w: 0.714421031957
  covariance: [36826481439.95116, -1010641710.9461925, 0.0, 0.0, 0.0, -1.9486465870067268e-22, -1010641710.9461902, 27736225.90670003, 0.0, 0.0, 0.0, 4.052901097725871e-24, 0.0, 0.0, 4.999748111219332e-07, -8.529851929165912e-29, -1.381964081403488e-24, 0.0, 0.0, 0.0, -8.529851929165915e-29, 4.999748111283282e-07, -6.559463212427975e-35, 0.0, 0.0, 0.0, -1.381964081403488e-24, 6.559462282248678e-35, 4.999748111283282e-07, 0.0, -1.948646587006727e-22, 4.052901097725871e-24, 0.0, 0.0, 0.0, 9.99997985294468e-10]
twist: 
  twist: 
    linear: 
      x: 7.16705090411e-09
      y: 0.0
      z: 0.0
    angular: 
      x: 0.0
      y: 0.0
      z: 0.0399999989924
  covariance: [0.010959074674809617, 0.0, 0.0, 0.0, 0.0, 0.0, 0.0, 1751488.6630683765, 0.0, 0.0, 0.0, 0.0, 0.0, 0.0, 4.999974808269354e-07, -1.095541701682974e-34, -2.2776476198800058e-36, 0.0, 0.0, 0.0, -1.095541701682974e-34, 4.999748110977703e-07, 2.1235093516248104e-41, 0.0, 0.0, 0.0, -2.2776476198800054e-36, -2.500808006113366e-41, 4.999748110977703e-07, 0.0, 0.0, 0.0, 0.0, 0.0, 0.0, 9.999998992589506e-10]
---
header: 
  seq: 3746
  stamp: 
    secs: 1518208273
    nsecs: 734843016
  frame_id: "swarmone/map"
child_frame_id: "swarmone/base_link"
pose: 
  pose: 
    position: 
      x: 8.1412639782e-08
      y: 2.77901411171e-06
      z: 0.0
    orientation: 
      x: 0.0
      y: 0.0
      z: 0.696135248672
      w: 0.717910659871
  covariance: [36875716957.91683, -1011828595.8315132, 0.0, 0.0, 0.0, -1.161624612403022e-22, -1011828595.8315107, 27764298.71375702, 0.0, 0.0, 0.0, 2.4160258735112617e-24, 0.0, 0.0, 4.999750187238626e-07, -1.0114639386597192e-28, -1.2201385643991907e-24, 0.0, 0.0, 0.0, -1.0114639386597187e-28, 4.999750187307359e-07, 1.6132474779554195e-35, 0.0, 0.0, 0.0, -1.2201385643991901e-24, -1.6132484746714292e-35, 4.999750187307359e-07, 0.0, -1.161624612403022e-22, 2.4160258735112617e-24, 0.0, 0.0, 0.0, 9.999980016518334e-10]
twist: 
  twist: 
    linear: 
      x: 7.16990955198e-09
      y: 0.0
      z: 0.0
    angular: 
      x: 0.0
      y: 0.0
      z: 0.0399999999996
  covariance: [0.011058855213537364, 0.0, 0.0, 0.0, 0.0, 0.0, 0.0, 1752893.012600247, 0.0, 0.0, 0.0, 0.0, 0.0, 0.0, 4.999975016123371e-07, -4.154788063953583e-35, -8.635141795868483e-37, 0.0, 0.0, 0.0, -4.154788063953582e-35, 4.999750187002556e-07, -3.7827791604727846e-39, 0.0, 0.0, 0.0, -8.635141795868485e-37, 3.782045018345918e-39, 4.999750187002556e-07, 0.0, 0.0, 0.0, 0.0, 0.0, 0.0, 9.999999000790167e-10]
---
header: 
  seq: 3747
  stamp: 
    secs: 1518208273
    nsecs: 834702253
  frame_id: "swarmone/map"
child_frame_id: "swarmone/base_link"
pose: 
  pose: 
    position: 
      x: 8.14347734949e-08
      y: 2.77973286494e-06
      z: 0.0
    orientation: 
      x: 0.0
      y: 0.0
      z: 0.696135241499
      w: 0.717910666827
  covariance: [36924884108.87034, -1013259804.710341, 0.0, 0.0, 0.0, -1.1786343992103177e-22, -1013259804.7103385, 27805818.43696124, 0.0, 0.0, 0.0, 3.630826817571113e-24, 0.0, 0.0, 4.999749636761897e-07, -1.5034184320781468e-28, -1.2274721449211116e-24, 0.0, 0.0, 0.0, -1.5034184320781461e-28, 4.999749636831814e-07, -1.892739414632735e-39, 0.0, 0.0, 0.0, -1.2274721449211116e-24, 1.8779745677506923e-39, 4.999749636831814e-07, 0.0, -1.1786343992103175e-22, 3.630826817571112e-24, 0.0, 0.0, 0.0, 9.999979972536634e-10]
twist: 
  twist: 
    linear: 
      x: 7.17255360868e-09
      y: 0.0
      z: 0.0
    angular: 
      x: 0.0
      y: 0.0
      z: 0.0300000010013
  covariance: [0.011032234683096368, 0.0, 0.0, 0.0, 0.0, 0.0, 0.0, 1754295.02551116, 0.0, 0.0, 0.0, 0.0, 0.0, 0.0, 4.999974961058317e-07, -4.3209439065123276e-35, -1.3301152408145977e-36, 0.0, 0.0, 0.0, -4.3209439065123276e-35, 4.999749636525635e-07, -1.5725766767228682e-39, 0.0, 0.0, 0.0, -1.3301152408145974e-36, 1.571380377802859e-39, 4.999749636525635e-07, 0.0, 0.0, 0.0, 0.0, 0.0, 0.0, 9.999998998590588e-10]
---
header: 
  seq: 3748
  stamp: 
    secs: 1518208273
    nsecs: 934715986
  frame_id: "swarmone/map"
child_frame_id: "swarmone/base_link"
pose: 
  pose: 
    position: 
      x: 8.14533332999e-08
      y: 2.7803290408e-06
      z: 0.0
    orientation: 
      x: 0.0
      y: 0.0
      z: 0.69253700794
      w: 0.721382348435
  covariance: [36974179880.977516, -1014694821.2200131, 0.0, 0.0, 0.0, -1.0414575691454464e-22, -1014694821.2200106, 27847450.663055845, 0.0, 0.0, 0.0, 3.2082695646372413e-24, 0.0, 0.0, 4.999750023525515e-07, -9.963381383651738e-29, -1.0818655509649405e-24, 0.0, 0.0, 0.0, -9.963381383651735e-29, 4.999750023561143e-07, -3.230787674283702e-35, 0.0, 0.0, 0.0, -1.0818655509649408e-24, 3.2307868176751483e-35, 4.999750023561143e-07, 0.0, -1.0414575691454467e-22, 3.208269564637241e-24, 0.0, 0.0, 0.0, 9.99998000347474e-10]
twist: 
  twist: 
    linear: 
      x: 6.29941718937e-09
      y: 0.0
      z: 0.0
    angular: 
      x: 0.0
      y: 0.0
      z: 0.0299999999996
  covariance: [0.011050917075568035, 0.0, 0.0, 0.0, 0.0, 0.0, 0.0, 1755699.95663965, 0.0, 0.0, 0.0, 0.0, 0.0, 0.0, 4.999974999742693e-07, -3.8187881146103984e-35, -1.1757730769021011e-36, 0.0, 0.0, 0.0, -3.8187881146103984e-35, 4.999750023289251e-07, 1.778899474386769e-39, 0.0, 0.0, 0.0, -1.175773076902102e-36, -1.7798781779374342e-39, 4.999750023289251e-07, 0.0, 0.0, 0.0, 0.0, 0.0, 0.0, 9.999999000137505e-10]
---
header: 
  seq: 3749
  stamp: 
    secs: 1518208274
    nsecs:  34551620
  frame_id: "swarmone/map"
child_frame_id: "swarmone/base_link"
pose: 
  pose: 
    position: 
      x: 8.1481563618e-08
      y: 2.78102952227e-06
      z: 0.0
    orientation: 
      x: 0.0
      y: 0.0
      z: 0.692537000728
      w: 0.721382355359
  covariance: [37023422721.70111, -1016374974.9196894, 0.0, 0.0, 0.0, -1.1103321915796372e-22, -1016374974.9196868, 27902567.519558504, 0.0, 0.0, 0.0, 4.532203107968159e-24, 0.0, 0.0, 4.999749577567598e-07, -1.4074878776785764e-28, -1.1558747701514441e-24, 0.0, 0.0, 0.0, -1.4074878776785762e-28, 4.999749577603372e-07, -1.296740215294504e-34, 0.0, 0.0, 0.0, -1.1558747701514443e-24, 1.2967400844392586e-34, 4.999749577603372e-07, 0.0, -1.1103321915796372e-22, 4.53220310796816e-24, 0.0, 0.0, 0.0, 9.999979967801546e-10]
twist: 
  twist: 
    linear: 
      x: 6.74557132354e-09
      y: 0.0
      z: 0.0
    angular: 
      x: 0.0
      y: 0.0
      z: 0.0399999989983
  covariance: [0.011029370465075667, 0.0, 0.0, 0.0, 0.0, 0.0, 0.0, 1757103.1338459717, 0.0, 0.0, 0.0, 0.0, 0.0, 0.0, 4.999974955137659e-07, -4.0764994512803835e-35, -1.6630488055205528e-36, 0.0, 0.0, 0.0, -4.076499451280384e-35, 4.999749577331335e-07, -3.621704903159685e-39, 0.0, 0.0, 0.0, -1.663048805520552e-36, 3.6203016583281346e-39, 4.999749577331335e-07, 0.0, 0.0, 0.0, 0.0, 0.0, 0.0, 9.999998998353832e-10]
---
header: 
  seq: 3750
  stamp: 
    secs: 1518208274
    nsecs: 135304213
  frame_id: "swarmone/map"
child_frame_id: "swarmone/base_link"
pose: 
  pose: 
    position: 
      x: 8.14867359921e-08
      y: 2.78109273101e-06
      z: 0.0
    orientation: 
      x: 0.0
      y: 0.0
      z: 0.696135234374
      w: 0.717910673736
  covariance: [37073171026.70496, -1018072609.0589129, 0.0, 0.0, 0.0, -4.115296044343922e-23, -1018072609.0589104, 27958269.33048032, 0.0, 0.0, 0.0, 1.679795464822362e-24, 0.0, 0.0, 4.999751857837011e-07, -7.111335061292625e-29, -4.344642083058397e-25, 0.0, 0.0, 0.0, -7.111335061292624e-29, 4.999751857903829e-07, -2.5466673694963066e-34, 0.0, 0.0, 0.0, -4.3446420830584015e-25, 2.5466673456356243e-34, 4.999751857903829e-07, 0.0, -4.115296044343922e-23, 1.6797954648223628e-24, 0.0, 0.0, 0.0, 9.999980150102403e-10]
twist: 
  twist: 
    linear: 
      x: 2.36923730532e-09
      y: 0.0
      z: 0.0
    angular: 
      x: 0.0
      y: 0.0
      z: 0.0400000000002
  covariance: [0.011140442507844732, 0.0, 0.0, 0.0, 0.0, 0.0, 0.0, 1758519.956539086, 0.0, 0.0, 0.0, 0.0, 0.0, 0.0, 4.999975183223572e-07, -1.5376548395545372e-35, -6.271989662460405e-37, 0.0, 0.0, 0.0, -1.537654839554537e-35, 4.999751857601135e-07, -3.4483185756008304e-39, 0.0, 0.0, 0.0, -6.271989662460404e-37, 3.448099825091395e-39, 4.999751857601135e-07, 0.0, 0.0, 0.0, 0.0, 0.0, 0.0, 9.999999007469898e-10]
---
header: 
  seq: 3751
  stamp: 
    secs: 1518208274
    nsecs: 234548330
  frame_id: "swarmone/map"
child_frame_id: "swarmone/base_link"
pose: 
  pose: 
    position: 
      x: 8.15083365118e-08
      y: 2.7818037489e-06
      z: 0.0
    orientation: 
      x: 0.0
      y: 0.0
      z: 0.696135241499
      w: 0.717910666827
  covariance: [37122244349.21311, -1019501673.325562, 0.0, 0.0, 0.0, -8.822070131713838e-23, -1019501673.3255594, 27999745.952787083, 0.0, 0.0, 0.0, 2.717679076361089e-24, 0.0, 0.0, 4.999748086011536e-07, -1.1504938845053881e-28, -9.451189061405176e-25, 0.0, 0.0, 0.0, -1.1504938845053881e-28, 4.999748086080448e-07, 3.280672452410067e-35, 0.0, 0.0, 0.0, -9.451189061405173e-25, -3.280673313370636e-35, 4.999748086080448e-07, 0.0, -8.822070131713836e-23, 2.7176790763610887e-24, 0.0, 0.0, 0.0, 9.999979848382854e-10]
twist: 
  twist: 
    linear: 
      x: 5.47952482302e-09
      y: 0.0
      z: 0.0
    angular: 
      x: 0.0
      y: 0.0
      z: 0.0399999999999
  covariance: [0.010957961828282844, 0.0, 0.0, 0.0, 0.0, 0.0, 0.0, 1759916.3108825362, 0.0, 0.0, 0.0, 0.0, 0.0, 0.0, 4.999974805963271e-07, -3.2205395657857795e-35, -9.914124944699424e-37, 0.0, 0.0, 0.0, -3.220539565785777e-35, 4.999748085775672e-07, 4.045014206111858e-39, 0.0, 0.0, 0.0, -9.914124944699422e-37, -4.045698779453009e-39, 4.999748085775672e-07, 0.0, 0.0, 0.0, 0.0, 0.0, 0.0, 9.999998992383803e-10]
---
header: 
  seq: 3752
  stamp: 
    secs: 1518208274
    nsecs: 334449291
  frame_id: "swarmone/map"
child_frame_id: "swarmone/base_link"
pose: 
  pose: 
    position: 
      x: 8.15255683493e-08
      y: 2.78236338405e-06
      z: 0.0
    orientation: 
      x: 0.0
      y: 0.0
      z: 0.68892146252
      w: 0.724835994194
  covariance: [37171694932.283325, -1020941780.9780723, 0.0, 0.0, 0.0, -9.358027561466423e-23, -1020941780.9780695, 28041544.967102006, 0.0, 0.0, 0.0, 2.882776902049851e-24, 0.0, 0.0, 4.999749740256439e-07, -1.1682051246626312e-28, -9.533935439678237e-25, 0.0, 0.0, 0.0, -1.1682051246626307e-28, 4.999749740328099e-07, 3.258774369151004e-39, 0.0, 0.0, 0.0, -9.533935439678237e-25, -3.267652088210508e-39, 4.999749740328099e-07, 0.0, -9.358027561466424e-23, 2.8827769020498512e-24, 0.0, 0.0, 0.0, 9.999979980920317e-10]
twist: 
  twist: 
    linear: 
      x: 5.48961565578e-09
      y: 0.0
      z: 0.0
    angular: 
      x: 0.0
      y: 0.0
      z: 0.0399999999992
  covariance: [0.011037199634747634, 0.0, 0.0, 0.0, 0.0, 0.0, 0.0, 1761322.6532885346, 0.0, 0.0, 0.0, 0.0, 0.0, 0.0, 4.999974971398184e-07, -3.5227262751704574e-35, -1.0844499294447303e-36, 0.0, 0.0, 0.0, -3.522726275170458e-35, 4.999749740019803e-07, -3.8055327848893965e-39, 0.0, 0.0, 0.0, -1.0844499294447306e-36, 3.804805202580505e-39, 4.999749740019803e-07, 0.0, 0.0, 0.0, 0.0, 0.0, 0.0, 9.99999899900882e-10]
---
header: 
  seq: 3753
  stamp: 
    secs: 1518208274
    nsecs: 435123444
  frame_id: "swarmone/map"
child_frame_id: "swarmone/base_link"
pose: 
  pose: 
    position: 
      x: 8.15431867116e-08
      y: 2.78267839178e-06
      z: 0.0
    orientation: 
      x: 0.0
      y: 0.0
      z: 0.699716056916
      w: 0.714421052107
  covariance: [37221540816.1411, -1022892944.2785698, 0.0, 0.0, 0.0, -6.255026042323926e-23, -1022892944.2785671, 28111103.128427062, 0.0, 0.0, 0.0, 3.180012266518319e-24, 0.0, 0.0, 4.999751663964404e-07, -1.3313137565958779e-28, -6.5384470452259505e-25, 0.0, 0.0, 0.0, -1.3313137565958779e-28, 4.999751664032188e-07, -6.377020361783319e-35, 0.0, 0.0, 0.0, -6.538447045225948e-25, 6.377019659593234e-35, 4.999751664032188e-07, 0.0, -6.255026042323924e-23, 3.180012266518319e-24, 0.0, 0.0, 0.0, 9.999980134645563e-10]
twist: 
  twist: 
    linear: 
      x: 3.74636451205e-09
      y: 0.0
      z: 0.0
    angular: 
      x: 0.0
      y: 0.0
      z: 0.0400000000008
  covariance: [0.011130900904010262, 0.0, 0.0, 0.0, 0.0, 0.0, 0.0, 1762740.6379198702, 0.0, 0.0, 0.0, 0.0, 0.0, 0.0, 4.999975163826346e-07, -2.2815861551319204e-35, -1.1590560531824208e-36, 0.0, 0.0, 0.0, -2.2815861551319196e-35, 4.999751663728328e-07, -1.0869175788439723e-38, 0.0, 0.0, 0.0, -1.1590560531824205e-36, 1.0868618913350041e-38, 4.999751663728328e-07, 0.0, 0.0, 0.0, 0.0, 0.0, 0.0, 9.999999006696571e-10]
---
header: 
  seq: 3754
  stamp: 
    secs: 1518208274
    nsecs: 534835577
  frame_id: "swarmone/map"
child_frame_id: "swarmone/base_link"
pose: 
  pose: 
    position: 
      x: 8.15486576968e-08
      y: 2.78295523099e-06
      z: 0.0
    orientation: 
      x: 0.0
      y: 0.0
      z: 0.699716078204
      w: 0.714421031257
  covariance: [37271016241.70046, -1024086617.6236379, 0.0, 0.0, 0.0, -5.0039331954819706e-23, -1024086617.6236353, 28139354.55258039, 0.0, 0.0, 0.0, 1.0407582335950523e-24, 0.0, 0.0, 4.999749267386933e-07, -4.3094623529281355e-29, -5.217602338028912e-25, 0.0, 0.0, 0.0, -4.3094623529281355e-29, 4.999749267457085e-07, 1.6249953723983137e-35, 0.0, 0.0, 0.0, -5.217602338028911e-25, -1.6249955430722316e-35, 4.999749267457085e-07, 0.0, -5.003933195481971e-23, 1.0407582335950525e-24, 0.0, 0.0, 0.0, 9.999979942989488e-10]
twist: 
  twist: 
    linear: 
      x: 2.89881689996e-09
      y: 0.0
      z: 0.0
    angular: 
      x: 0.0
      y: 0.0
      z: 0.0399999999999
  covariance: [0.011014479067787152, 0.0, 0.0, 0.0, 0.0, 0.0, 0.0, 1764145.822595799, 0.0, 0.0, 0.0, 0.0, 0.0, 0.0, 4.999974924113155e-07, -1.9235079310896552e-35, -3.998286366173061e-37, 0.0, 0.0, 0.0, -1.923507931089655e-35, 4.99974926715067e-07, -2.238296671631933e-39, 0.0, 0.0, 0.0, -3.998286366173056e-37, 2.2381408610111366e-39, 4.99974926715067e-07, 0.0, 0.0, 0.0, 0.0, 0.0, 0.0, 9.999998997113219e-10]
---
header: 
  seq: 3755
  stamp: 
    secs: 1518208274
    nsecs: 634587765
  frame_id: "swarmone/map"
child_frame_id: "swarmone/base_link"
pose: 
  pose: 
    position: 
      x: 8.15716995654e-08
      y: 2.78395520118e-06
      z: 0.0
    orientation: 
      x: 0.0
      y: 0.0
      z: 0.696135248696
      w: 0.717910659848
  covariance: [37320564166.73151, -1025281921.8101698, 0.0, 0.0, 0.0, -1.2403160149044618e-22, -1025281921.8101673, 28167642.436782174, 0.0, 0.0, 0.0, 2.579693356279145e-24, 0.0, 0.0, 4.999749368607127e-07, -1.0799785154195693e-28, -1.3070411374980636e-24, 0.0, 0.0, 0.0, -1.079978515419569e-28, 4.999749368676309e-07, 3.2477675553236704e-35, 0.0, 0.0, 0.0, -1.3070411374980631e-24, -3.24776868347012e-35, 4.999749368676309e-07, 0.0, -1.2403160149044618e-22, 2.5796933562791457e-24, 0.0, 0.0, 0.0, 9.999979951033845e-10]
twist: 
  twist: 
    linear: 
      x: 7.74343131033e-09
      y: 0.0
      z: 0.0
    angular: 
      x: 0.0
      y: 0.0
      z: 0.0399999999996
  covariance: [0.01101931926737116, 0.0, 0.0, 0.0, 0.0, 0.0, 0.0, 1765552.3187614325, 0.0, 0.0, 0.0, 0.0, 0.0, 0.0, 4.999974934243292e-07, -4.435078409099771e-35, -9.217682802430365e-37, 0.0, 0.0, 0.0, -4.43507840909977e-35, 4.999749368371059e-07, 3.3782123543761253e-39, 0.0, 0.0, 0.0, -9.217682802430362e-37, -3.378977454605002e-39, 4.999749368371059e-07, 0.0, 0.0, 0.0, 0.0, 0.0, 0.0, 9.999998997515917e-10]
---
header: 
  seq: 3756
  stamp: 
    secs: 1518208274
    nsecs: 735291004
  frame_id: "swarmone/map"
child_frame_id: "swarmone/base_link"
pose: 
  pose: 
    position: 
      x: 8.15952578161e-08
      y: 2.78471961171e-06
      z: 0.0
    orientation: 
      x: 0.0
      y: 0.0
      z: 0.696135241499
      w: 0.717910666826
  covariance: [37370624999.65687, -1026740042.175249, 0.0, 0.0, 0.0, -1.2755218452781535e-22, -1026740042.1752466, 28209972.12072152, 0.0, 0.0, 0.0, 3.929291003751627e-24, 0.0, 0.0, 4.999751734642165e-07, -1.609443544684441e-28, -1.3030692384983091e-24, 0.0, 0.0, 0.0, -1.6094435446844413e-28, 4.999751734711836e-07, 3.186657368154313e-35, 0.0, 0.0, 0.0, -1.303069238498309e-24, -3.186659053015005e-35, 4.999751734711836e-07, 0.0, -1.275521845278154e-22, 3.929291003751626e-24, 0.0, 0.0, 0.0, 9.999980140402676e-10]
twist: 
  twist: 
    linear: 
      x: 7.73106121462e-09
      y: 0.0
      z: 0.0
    angular: 
      x: 0.0
      y: 0.0
      z: 0.0399999999999
  covariance: [0.01113438015254071, 0.0, 0.0, 0.0, 0.0, 0.0, 0.0, 1766972.9827628238, 0.0, 0.0, 0.0, 0.0, 0.0, 0.0, 4.999975170883851e-07, -4.614191583034177e-35, -1.420387852920161e-36, 0.0, 0.0, 0.0, -4.614191583034177e-35, 4.999751734405705e-07, -9.624685603522536e-40, 0.0, 0.0, 0.0, -1.4203878529201605e-36, 9.611658827972696e-40, 4.999751734405705e-07, 0.0, 0.0, 0.0, 0.0, 0.0, 0.0, 9.999999006983477e-10]
---
header: 
  seq: 3757
  stamp: 
    secs: 1518208274
    nsecs: 835167885
  frame_id: "swarmone/map"
child_frame_id: "swarmone/base_link"
pose: 
  pose: 
    position: 
      x: 8.16186167726e-08
      y: 2.78547764985e-06
      z: 0.0
    orientation: 
      x: 0.0
      y: 0.0
      z: 0.699716071051
      w: 0.714421038263
  covariance: [37420328087.00417, -1028187801.8198662, 0.0, 0.0, 0.0, -1.292662921617053e-22, -1028187801.819864, 28252002.960716676, 0.0, 0.0, 0.0, 3.98209856518416e-24, 0.0, 0.0, 4.999749679915931e-07, -1.6136901485555693e-28, -1.3172783192698415e-24, 0.0, 0.0, 0.0, -1.613690148555569e-28, 4.999749679987623e-07, -9.71831043240799e-35, 0.0, 0.0, 0.0, -1.3172783192698413e-24, 9.718308742152186e-35, 4.999749679987623e-07, 0.0, -1.292662921617053e-22, 3.98209856518416e-24, 0.0, 0.0, 0.0, 9.999979976093581e-10]
twist: 
  twist: 
    linear: 
      x: 7.71768552597e-09
      y: 0.0
      z: 0.0
    angular: 
      x: 0.0
      y: 0.0
      z: 0.0400000000002
  covariance: [0.011034365194411847, 0.0, 0.0, 0.0, 0.0, 0.0, 0.0, 1768382.741510192, 0.0, 0.0, 0.0, 0.0, 0.0, 0.0, 4.999974965362876e-07, -4.85591711143895e-35, -1.4948625705142928e-36, 0.0, 0.0, 0.0, -4.85591711143895e-35, 4.999749679679294e-07, -4.366475701515513e-39, 0.0, 0.0, 0.0, -1.4948625705142925e-36, 4.365132929329315e-39, 4.999749679679294e-07, 0.0, 0.0, 0.0, 0.0, 0.0, 0.0, 9.999998998767485e-10]
---
header: 
  seq: 3758
  stamp: 
    secs: 1518208274
    nsecs: 934774876
  frame_id: "swarmone/map"
child_frame_id: "swarmone/base_link"
pose: 
  pose: 
    position: 
      x: 8.16357559811e-08
      y: 2.78629558851e-06
      z: 0.0
    orientation: 
      x: 0.0
      y: 0.0
      z: 0.696135248706
      w: 0.717910659838
  covariance: [37469962331.87983, -1029385190.2129608, 0.0, 0.0, 0.0, -1.266545048846546e-22, -1029385190.2129587, 28280340.214524537, 0.0, 0.0, 0.0, 2.6342538309466202e-24, 0.0, 0.0, 4.999749004320483e-07, -1.127848463086683e-28, -1.3669486614631609e-24, 0.0, 0.0, 0.0, -1.1278484630866835e-28, 4.999749004387989e-07, -4.885570549267347e-35, 0.0, 0.0, 0.0, -1.366948661463161e-24, 4.885569324270022e-35, 4.999749004387989e-07, 0.0, -1.2665450488465463e-22, 2.6342538309466206e-24, 0.0, 0.0, 0.0, 9.999979921788638e-10]
twist: 
  twist: 
    linear: 
      x: 8.14384171447e-09
      y: 0.0
      z: 0.0
    angular: 
      x: 0.0
      y: 0.0
      z: 0.0399999999996
  covariance: [0.011001840776563515, 0.0, 0.0, 0.0, 0.0, 0.0, 0.0, 1769789.437381658, 0.0, 0.0, 0.0, 0.0, 0.0, 0.0, 4.999974897819425e-07, -4.417253107759872e-35, -9.181029881111685e-37, 0.0, 0.0, 0.0, -4.417253107759874e-35, 4.99974900408482e-07, -7.844513933468262e-40, 0.0, 0.0, 0.0, -9.181029881111691e-37, 7.836130905099604e-40, 4.99974900408482e-07, 0.0, 0.0, 0.0, 0.0, 0.0, 0.0, 9.9999989960546e-10]
---
header: 
  seq: 3759
  stamp: 
    secs: 1518208275
    nsecs:  35314798
  frame_id: "swarmone/map"
child_frame_id: "swarmone/base_link"
pose: 
  pose: 
    position: 
      x: 8.1658644349e-08
      y: 2.7870368458e-06
      z: 0.0
    orientation: 
      x: 0.0
      y: 0.0
      z: 0.696135241499
      w: 0.717910666827
  covariance: [37520101907.35904, -1030845601.1892633, 0.0, 0.0, 0.0, -1.5638079120661135e-22, -1030845601.1892613, 28322736.325898606, 0.0, 0.0, 0.0, 4.817343231947308e-24, 0.0, 0.0, 4.999751322759181e-07, -1.6864184309782941e-28, -1.3676590172788309e-24, 0.0, 0.0, 0.0, -1.686418430978294e-28, 4.999751322842063e-07, 3.196937187754289e-35, 0.0, 0.0, 0.0, -1.367659017278831e-24, -3.19693902766703e-35, 4.999751322842063e-07, 0.0, -1.563807912066114e-22, 4.817343231947309e-24, 0.0, 0.0, 0.0, 9.999980108294277e-10]
twist: 
  twist: 
    linear: 
      x: 7.69328885993e-09
      y: 0.0
      z: 0.0
    angular: 
      x: 0.0
      y: 0.0
      z: 0.0399999999998
  covariance: [0.01111413950235342, 0.0, 0.0, 0.0, 0.0, 0.0, 0.0, 1771210.0648565583, 0.0, 0.0, 0.0, 0.0, 0.0, 0.0, 4.999975129604216e-07, -6.836418558804627e-35, -2.104998814831242e-36, 0.0, 0.0, 0.0, -6.836418558804627e-35, 4.999751322520261e-07, 9.407092728112056e-40, 0.0, 0.0, 0.0, -2.104998814831242e-36, -9.431923613102557e-40, 4.999751322520261e-07, 0.0, 0.0, 0.0, 0.0, 0.0, 0.0, 9.999999005370423e-10]
---
header: 
  seq: 3760
  stamp: 
    secs: 1518208275
    nsecs: 134914398
  frame_id: "swarmone/map"
child_frame_id: "swarmone/base_link"
pose: 
  pose: 
    position: 
      x: 8.16819421098e-08
      y: 2.78779284817e-06
      z: 0.0
    orientation: 
      x: 0.0
      y: 0.0
      z: 0.696135241499
      w: 0.717910666827
  covariance: [37569825451.37326, -1032293957.4213912, 0.0, 0.0, 0.0, -1.2896696121597266e-22, -1032293957.4213892, 28364784.509088274, 0.0, 0.0, 0.0, 3.972877558571633e-24, 0.0, 0.0, 4.999748983001511e-07, -1.6099522806349748e-28, -1.317871854043971e-24, 0.0, 0.0, 0.0, -1.609952280634975e-28, 4.999748983073586e-07, -3.257152478711626e-35, 0.0, 0.0, 0.0, -1.317871854043971e-24, 3.2571507963330073e-35, 4.999748983073586e-07, 0.0, -1.2896696121597266e-22, 3.972877558571632e-24, 0.0, 0.0, 0.0, 9.999979920346292e-10]
twist: 
  twist: 
    linear: 
      x: 7.68293705735e-09
      y: 0.0
      z: 0.0
    angular: 
      x: 0.0
      y: 0.0
      z: 0.0399999999999
  covariance: [0.011000813409393722, 0.0, 0.0, 0.0, 0.0, 0.0, 0.0, 1772618.1549906211, 0.0, 0.0, 0.0, 0.0, 0.0, 0.0, 4.999974895656898e-07, -4.872835946489788e-35, -1.5000770259149957e-36, 0.0, 0.0, 0.0, -4.872835946489788e-35, 4.999748982764876e-07, 1.3366400107377972e-39, 0.0, 0.0, 0.0, -1.500077025914997e-36, -1.3380293396084652e-39, 4.999748982764876e-07, 0.0, 0.0, 0.0, 0.0, 0.0, 0.0, 9.9999989959801e-10]
---
header: 
  seq: 3761
  stamp: 
    secs: 1518208275
    nsecs: 235314131
  frame_id: "swarmone/map"
child_frame_id: "swarmone/base_link"
pose: 
  pose: 
    position: 
      x: 8.16979178525e-08
      y: 2.78830709966e-06
      z: 0.0
    orientation: 
      x: 0.0
      y: 0.0
      z: 0.699716071089
      w: 0.714421038226
  covariance: [37620001790.20723, -1033755562.5711772, 0.0, 0.0, 0.0, -9.778798629637887e-23, -1033755562.5711751, 28407219.276230317, 0.0, 0.0, 0.0, 3.0123989382424138e-24, 0.0, 0.0, 4.999750984635397e-07, -1.2473483470779216e-28, -1.0129404337138365e-24, 0.0, 0.0, 0.0, -1.2473483470779212e-28, 4.999750984704577e-07, -3.205478987545973e-35, 0.0, 0.0, 0.0, -1.0129404337138363e-24, 3.2054779854976906e-35, 4.999750984704577e-07, 0.0, -9.778798629637883e-23, 3.0123989382424134e-24, 0.0, 0.0, 0.0, 9.99998008035614e-10]
twist: 
  twist: 
    linear: 
      x: 5.92386716289e-09
      y: 0.0
      z: 0.0
    angular: 
      x: 0.0
      y: 0.0
      z: 0.0400000000002
  covariance: [0.011097659125051913, 0.0, 0.0, 0.0, 0.0, 0.0, 0.0, 1774038.3121069525, 0.0, 0.0, 0.0, 0.0, 0.0, 0.0, 4.999975095873543e-07, -3.5484859982352036e-35, -1.09234100552199e-36, 0.0, 0.0, 0.0, -3.548485998235203e-35, 4.999750984399129e-07, -4.2496147114277866e-39, 0.0, 0.0, 0.0, -1.0923410055219892e-36, 4.2488096591186915e-39, 4.999750984399129e-07, 0.0, 0.0, 0.0, 0.0, 0.0, 0.0, 9.999999003981603e-10]
---
header: 
  seq: 3762
  stamp: 
    secs: 1518208275
    nsecs: 334690332
  frame_id: "swarmone/map"
child_frame_id: "swarmone/base_link"
pose: 
  pose: 
    position: 
      x: 8.17147164235e-08
      y: 2.78908849963e-06
      z: 0.0
    orientation: 
      x: 0.0
      y: 0.0
      z: 0.699716078204
      w: 0.714421031257
  covariance: [37669732217.81348, -1034955330.413549, 0.0, 0.0, 0.0, -1.1849299191152705e-22, -1034955330.4135467, 28435613.891972423, 0.0, 0.0, 0.0, 2.464500798567444e-24, 0.0, 0.0, 4.999748419770761e-07, -1.0204737246134874e-28, -1.2396828215228705e-24, 0.0, 0.0, 0.0, -1.0204737246134878e-28, 4.999748419841378e-07, -1.6363280641746698e-35, 0.0, 0.0, 0.0, -1.2396828215228703e-24, 1.6363270515427427e-35, 4.999748419841378e-07, 0.0, -1.1849299191152702e-22, 2.4645007985674438e-24, 0.0, 0.0, 0.0, 9.999979875186755e-10]
twist: 
  twist: 
    linear: 
      x: 7.24509725523e-09
      y: 0.0
      z: 0.0
    angular: 
      x: 0.0
      y: 0.0
      z: 0.0399999999999
  covariance: [0.010973852941766888, 0.0, 0.0, 0.0, 0.0, 0.0, 0.0, 1775444.7381123153, 0.0, 0.0, 0.0, 0.0, 0.0, 0.0, 4.999974839333904e-07, -4.376403951302068e-35, -9.096273396827775e-37, 0.0, 0.0, 0.0, -4.37640395130207e-35, 4.999748419534503e-07, -9.255553356400485e-40, 0.0, 0.0, 0.0, -9.096273396827777e-37, 9.247272961542041e-40, 4.999748419534503e-07, 0.0, 0.0, 0.0, 0.0, 0.0, 0.0, 9.999998993723056e-10]
---
header: 
  seq: 3763
  stamp: 
    secs: 1518208275
    nsecs: 435287714
  frame_id: "swarmone/map"
child_frame_id: "swarmone/base_link"
pose: 
  pose: 
    position: 
      x: 8.17326504642e-08
      y: 2.78993674654e-06
      z: 0.0
    orientation: 
      x: 0.0
      y: 0.0
      z: 0.703279414977
      w: 0.71091354219
  covariance: [37720127303.052246, -1036171013.8093067, 0.0, 0.0, 0.0, -1.3221314287284893e-22, -1036171013.8093044, 28464383.02607369, 0.0, 0.0, 0.0, 2.7498573406730287e-24, 0.0, 0.0, 4.999751473911014e-07, -1.1386339895977583e-28, -1.3664989353581178e-24, 0.0, 0.0, 0.0, -1.138633989597758e-28, 4.999751473979963e-07, 6.386360260991107e-35, 0.0, 0.0, 0.0, -1.3664989353581178e-24, -6.38636150964901e-35, 4.999751473979963e-07, 0.0, -1.322131428728489e-22, 2.749857340673029e-24, 0.0, 0.0, 0.0, 9.99998011949444e-10]
twist: 
  twist: 
    linear: 
      x: 8.11780337476e-09
      y: 0.0
      z: 0.0
    angular: 
      x: 0.0
      y: 0.0
      z: 0.0300000009943
  covariance: [0.011121573201245039, 0.0, 0.0, 0.0, 0.0, 0.0, 0.0, 1776869.2038106308, 0.0, 0.0, 0.0, 0.0, 0.0, 0.0, 4.999975144811188e-07, -4.715959668070085e-35, -9.801485235334133e-37, 0.0, 0.0, 0.0, -4.7159596680700843e-35, 4.999751473674745e-07, 1.9068602497197094e-39, 0.0, 0.0, 0.0, -9.801485235334136e-37, -1.9078375886388437e-39, 4.999751473674745e-07, 0.0, 0.0, 0.0, 0.0, 0.0, 0.0, 9.999999005938533e-10]
---
header: 
  seq: 3764
  stamp: 
    secs: 1518208275
    nsecs: 534897566
  frame_id: "swarmone/map"
child_frame_id: "swarmone/base_link"
pose: 
  pose: 
    position: 
      x: 8.17421540538e-08
      y: 2.79079463505e-06
      z: 0.0
    orientation: 
      x: 0.0
      y: 0.0
      z: 0.699716084662
      w: 0.714421024932
  covariance: [37770088697.74037, -1037126162.1119606, 0.0, 0.0, 0.0, -1.3900254908074177e-22, -1037126162.1119581, 28479183.71274943, 0.0, 0.0, 0.0, 1.5007119479953904e-24, 0.0, 0.0, 4.999749009917552e-07, -4.660491454844438e-29, -1.4491921668776415e-24, 0.0, 0.0, 0.0, -4.660491454844439e-29, 4.99974900995364e-07, 2.442970310819248e-35, 0.0, 0.0, 0.0, -1.4491921668776413e-24, -2.4429708516064783e-35, 4.99974900995364e-07, 0.0, -1.3900254908074177e-22, 1.5007119479953904e-24, 0.0, 0.0, 0.0, 9.999979922393928e-10]
twist: 
  twist: 
    linear: 
      x: 8.5430919149e-09
      y: 0.0
      z: 0.0
    angular: 
      x: 0.0
      y: 0.0
      z: 0.0399999989957
  covariance: [0.011002102522464476, 0.0, 0.0, 0.0, 0.0, 0.0, 0.0, 1778280.4365555062, 0.0, 0.0, 0.0, 0.0, 0.0, 0.0, 4.999974898360865e-07, -5.095980763114125e-35, -5.499271591956612e-37, 0.0, 0.0, 0.0, -5.095980763114125e-35, 4.999749009681293e-07, 6.3315585093988024e-40, 0.0, 0.0, 0.0, -5.499271591956612e-37, -6.3372895284018105e-40, 4.999749009681293e-07, 0.0, 0.0, 0.0, 0.0, 0.0, 0.0, 9.999998996083432e-10]
---
header: 
  seq: 3765
  stamp: 
    secs: 1518208275
    nsecs: 634310961
  frame_id: "swarmone/map"
child_frame_id: "swarmone/base_link"
pose: 
  pose: 
    position: 
      x: 8.17580764479e-08
      y: 2.79156720452e-06
      z: 0.0
    orientation: 
      x: 0.0
      y: 0.0
      z: 0.699716078204
      w: 0.714421031257
  covariance: [37819996431.72733, -1038329677.176696, 0.0, 0.0, 0.0, -1.339161259870702e-22, -1038329677.1766934, 28507657.487243924, 0.0, 0.0, 0.0, 2.7852706254262608e-24, 0.0, 0.0, 4.999748513356622e-07, -1.140850580070183e-28, -1.3854079300317725e-24, 0.0, 0.0, 0.0, -1.1408505800701826e-28, 4.999748513428096e-07, -4.904862147600982e-35, 0.0, 0.0, 0.0, -1.3854079300317725e-24, 4.904860895856276e-35, 4.999748513428096e-07, 0.0, -1.3391612598707019e-22, 2.7852706254262608e-24, 0.0, 0.0, 0.0, 9.999979882725741e-10]
twist: 
  twist: 
    linear: 
      x: 8.09171047828e-09
      y: 0.0
      z: 0.0
    angular: 
      x: 0.0
      y: 0.0
      z: 0.0399999999999
  covariance: [0.010978276078408301, 0.0, 0.0, 0.0, 0.0, 0.0, 0.0, 1779689.6307999005, 0.0, 0.0, 0.0, 0.0, 0.0, 0.0, 4.999974848688471e-07, -4.96743183259404e-35, -1.0324273788989259e-36, 0.0, 0.0, 0.0, -4.967431832594042e-35, 4.999748513120175e-07, 2.6882540959987647e-39, 0.0, 0.0, 0.0, -1.0324273788989264e-36, -2.689296233469607e-39, 4.999748513120175e-07, 0.0, 0.0, 0.0, 0.0, 0.0, 0.0, 9.999998994099533e-10]
---
header: 
  seq: 3766
  stamp: 
    secs: 1518208275
    nsecs: 734816551
  frame_id: "swarmone/map"
child_frame_id: "swarmone/base_link"
pose: 
  pose: 
    position: 
      x: 8.17761572464e-08
      y: 2.79243281385e-06
      z: 0.0
    orientation: 
      x: 0.0
      y: 0.0
      z: 0.696135248642
      w: 0.7179106599
  covariance: [37870506083.99934, -1039547589.4382828, 0.0, 0.0, 0.0, -1.3679552915344422e-22, -1039547589.4382803, 28536469.779411927, 0.0, 0.0, 0.0, 2.8451661793550882e-24, 0.0, 0.0, 4.999751247452319e-07, -1.1911242580210735e-28, -1.4307901166317746e-24, 0.0, 0.0, 0.0, -1.1911242580210735e-28, 4.999751247520475e-07, -1.599463403701024e-35, 0.0, 0.0, 0.0, -1.4307901166317739e-24, 1.599462025954024e-35, 4.999751247520475e-07, 0.0, -1.3679552915344422e-22, 2.8451661793550882e-24, 0.0, 0.0, 0.0, 9.999980101327646e-10]
twist: 
  twist: 
    linear: 
      x: 8.52221090233e-09
      y: 0.0
      z: 0.0
    angular: 
      x: 0.0
      y: 0.0
      z: 0.0399999999996
  covariance: [0.011110449054937094, 0.0, 0.0, 0.0, 0.0, 0.0, 0.0, 1781115.0636140022, 0.0, 0.0, 0.0, 0.0, 0.0, 0.0, 4.999975122166582e-07, -4.820674604902723e-35, -1.0018981304816584e-36, 0.0, 0.0, 0.0, -4.820674604902724e-35, 4.999751247216243e-07, 3.63214682336336e-39, 0.0, 0.0, 0.0, -1.0018981304816586e-36, -3.633175429635687e-39, 4.999751247216243e-07, 0.0, 0.0, 0.0, 0.0, 0.0, 0.0, 9.999999005030665e-10]
---
header: 
  seq: 3767
  stamp: 
    secs: 1518208275
    nsecs: 835270166
  frame_id: "swarmone/map"
child_frame_id: "swarmone/base_link"
pose: 
  pose: 
    position: 
      x: 8.18039542999e-08
      y: 2.79333759987e-06
      z: 0.0
    orientation: 
      x: 0.0
      y: 0.0
      z: 0.69253700863
      w: 0.721382347773
  covariance: [37921030479.39743, -1041018619.1795841, 0.0, 0.0, 0.0, -1.4553797075726517e-22, -1041018619.1795816, 28579154.910430524, 0.0, 0.0, 0.0, 4.4833511274623844e-24, 0.0, 0.0, 4.999751118211454e-07, -1.8564240806632779e-28, -1.5067510569010746e-24, 0.0, 0.0, 0.0, -1.8564240806632772e-28, 4.999751118280559e-07, 2.0113897472012522e-39, 0.0, 0.0, 0.0, -1.5067510569010746e-24, -2.0339022093858314e-39, 4.999751118280559e-07, 0.0, -1.4553797075726515e-22, 4.483351127462383e-24, 0.0, 0.0, 0.0, 9.999980091041199e-10]
twist: 
  twist: 
    linear: 
      x: 8.94769502013e-09
      y: 0.0
      z: 0.0
    angular: 
      x: 0.0
      y: 0.0
      z: 0.0399999999995
  covariance: [0.01110418550593809, 0.0, 0.0, 0.0, 0.0, 0.0, 0.0, 1782540.5196227902, 0.0, 0.0, 0.0, 0.0, 0.0, 0.0, 4.999975109233904e-07, -5.250390977790305e-35, -1.6162076932178868e-36, 0.0, 0.0, 0.0, -5.250390977790305e-35, 4.999751117975185e-07, -5.209522740984738e-39, 0.0, 0.0, 0.0, -1.6162076932178868e-36, 5.20785097963848e-39, 4.999751117975185e-07, 0.0, 0.0, 0.0, 0.0, 0.0, 0.0, 9.999999004515863e-10]
---
header: 
  seq: 3768
  stamp: 
    secs: 1518208275
    nsecs: 935017347
  frame_id: "swarmone/map"
child_frame_id: "swarmone/base_link"
pose: 
  pose: 
    position: 
      x: 8.18265112376e-08
      y: 2.79384325254e-06
      z: 0.0
    orientation: 
      x: 0.0
      y: 0.0
      z: 0.69971606388
      w: 0.714421045286
  covariance: [37971234921.02543, -1042731827.8140221, 0.0, 0.0, 0.0, -1.0565470813055664e-22, -1042731827.8140196, 28635368.218589567, 0.0, 0.0, 0.0, 4.312641359735772e-24, 0.0, 0.0, 4.999749354951332e-07, -1.7664688144672438e-28, -1.0900624170284662e-24, 0.0, 0.0, 0.0, -1.766468814467244e-28, 4.99974935502226e-07, -3.248263867238443e-35, 0.0, 0.0, 0.0, -1.0900624170284662e-24, 3.2482623284425544e-35, 4.99974935502226e-07, 0.0, -1.0565470813055664e-22, 4.312641359735773e-24, 0.0, 0.0, 0.0, 9.999979950046518e-10]
twist: 
  twist: 
    linear: 
      x: 6.30469097416e-09
      y: 0.0
      z: 0.0
    angular: 
      x: 0.0
      y: 0.0
      z: 0.0400000000005
  covariance: [0.011018692150512334, 0.0, 0.0, 0.0, 0.0, 0.0, 0.0, 1783956.7035384807, 0.0, 0.0, 0.0, 0.0, 0.0, 0.0, 4.999974932865484e-07, -3.967238510671893e-35, -1.6182212408556435e-36, 0.0, 0.0, 0.0, -3.9672385106718914e-35, 4.999749354714881e-07, 1.9305065309473148e-39, 0.0, 0.0, 0.0, -1.618221240855642e-36, -1.93173117684017e-39, 4.999749354714881e-07, 0.0, 0.0, 0.0, 0.0, 0.0, 0.0, 9.999998997465597e-10]
---
header: 
  seq: 3769
  stamp: 
    secs: 1518208276
    nsecs:  34512043
  frame_id: "swarmone/map"
child_frame_id: "swarmone/base_link"
pose: 
  pose: 
    position: 
      x: 8.182851988e-08
      y: 2.79398738437e-06
      z: 0.0
    orientation: 
      x: 0.0
      y: 0.0
      z: 0.696135248714
      w: 0.71791065983
  covariance: [38021396154.689514, -1043941518.3423759, 0.0, 0.0, 0.0, -4.862688647979242e-23, -1043941518.3423736, 28663989.241600294, 0.0, 0.0, 0.0, 1.0113811624519036e-24, 0.0, 0.0, 4.999748719945593e-07, -4.2341491549692753e-29, -5.137569160785917e-25, 0.0, 0.0, 0.0, -4.2341491549692753e-29, 4.999748720015128e-07, 4.163286567318957e-39, 0.0, 0.0, 0.0, -5.1375691607859205e-25, -4.164948550924691e-39, 4.999748720015128e-07, 0.0, -4.8626886479792426e-23, 1.0113811624519036e-24, 0.0, 0.0, 0.0, 9.999979899145717e-10]
twist: 
  twist: 
    linear: 
      x: 2.81381704239e-09
      y: 0.0
      z: 0.0
    angular: 
      x: 0.0
      y: 0.0
      z: 0.0399999999996
  covariance: [0.010988182825416469, 0.0, 0.0, 0.0, 0.0, 0.0, 0.0, 1785370.0497792973, 0.0, 0.0, 0.0, 0.0, 0.0, 0.0, 4.999974869363687e-07, -1.8575544706383176e-35, -3.86119982331086e-37, 0.0, 0.0, 0.0, -1.8575544706383184e-35, 4.999748719709527e-07, -1.8025933098654313e-39, 0.0, 0.0, 0.0, -3.86119982331086e-37, 1.80243384423744e-39, 4.999748719709527e-07, 0.0, 0.0, 0.0, 0.0, 0.0, 0.0, 9.999998994921492e-10]
---
header: 
  seq: 3770
  stamp: 
    secs: 1518208276
    nsecs: 135134935
  frame_id: "swarmone/map"
child_frame_id: "swarmone/base_link"
pose: 
  pose: 
    position: 
      x: 8.18603513752e-08
      y: 2.79505619865e-06
      z: 0.0
    orientation: 
      x: 0.0
      y: 0.0
      z: 0.696135241499
      w: 0.717910666827
  covariance: [38072166973.17181, -1045419904.4504234, 0.0, 0.0, 0.0, -1.2822515170052115e-22, -1045419904.450421, 28706893.75239425, 0.0, 0.0, 0.0, 3.9500271760097004e-24, 0.0, 0.0, 4.999751537976672e-07, -1.6721944180650581e-28, -1.3549408907706064e-24, 0.0, 0.0, 0.0, -1.6721944180650577e-28, 4.999751538043711e-07, -6.383047551728287e-35, 0.0, 0.0, 0.0, -1.3549408907706071e-24, 6.38304573950978e-35, 4.999751538043711e-07, 0.0, -1.2822515170052113e-22, 3.9500271760097004e-24, 0.0, 0.0, 0.0, 9.999980124515808e-10]
twist: 
  twist: 
    linear: 
      x: 8.1039938642e-09
      y: 0.0
      z: 0.0
    angular: 
      x: 0.0
      y: 0.0
      z: 0.0300000009937
  covariance: [0.011124711758007368, 0.0, 0.0, 0.0, 0.0, 0.0, 0.0, 1786800.181364328, 0.0, 0.0, 0.0, 0.0, 0.0, 0.0, 4.99997515123099e-07, -4.4498193031964764e-35, -1.3696966261529711e-36, 0.0, 0.0, 0.0, -4.449819303196478e-35, 4.999751537740795e-07, -8.780943334731066e-40, 0.0, 0.0, 0.0, -1.3696966261529723e-36, 8.767840369498155e-40, 4.999751537740795e-07, 0.0, 0.0, 0.0, 0.0, 0.0, 0.0, 9.999999006190558e-10]
---
header: 
  seq: 3771
  stamp: 
    secs: 1518208276
    nsecs: 234824419
  frame_id: "swarmone/map"
child_frame_id: "swarmone/base_link"
pose: 
  pose: 
    position: 
      x: 8.18794354959e-08
      y: 2.79566761267e-06
      z: 0.0
    orientation: 
      x: 0.0
      y: 0.0
      z: 0.696135240781
      w: 0.717910667522
  covariance: [38122520296.5554, -1046886197.5204047, 0.0, 0.0, 0.0, -1.1136711842913854e-22, -1046886197.5204024, 28749449.364426345, 0.0, 0.0, 0.0, 3.430727733363216e-24, 0.0, 0.0, 4.999749210417113e-07, -1.0654235917805188e-28, -1.1606336453077893e-24, 0.0, 0.0, 0.0, -1.0654235917805192e-28, 4.999749210453077e-07, -6.503634579249109e-35, 0.0, 0.0, 0.0, -1.1606336453077895e-24, 6.503633602371587e-35, 4.999749210453077e-07, 0.0, -1.1136711842913851e-22, 3.430727733363216e-24, 0.0, 0.0, 0.0, 9.999979938432342e-10]
twist: 
  twist: 
    linear: 
      x: 6.77999661944e-09
      y: 0.0
      z: 0.0
    angular: 
      x: 0.0
      y: 0.0
      z: 0.0399999989968
  covariance: [0.01101172845136243, 0.0, 0.0, 0.0, 0.0, 0.0, 0.0, 1788217.7995375996, 0.0, 0.0, 0.0, 0.0, 0.0, 0.0, 4.99997491841499e-07, -4.1123253414211184e-35, -1.2661556052651526e-36, 0.0, 0.0, 0.0, -4.1123253414211205e-35, 4.999749210180853e-07, 8.522754008692622e-40, 0.0, 0.0, 0.0, -1.2661556052651524e-36, -8.532988859547807e-40, 4.999749210180853e-07, 0.0, 0.0, 0.0, 0.0, 0.0, 0.0, 9.999998996885361e-10]
---
header: 
  seq: 3772
  stamp: 
    secs: 1518208276
    nsecs: 335277081
  frame_id: "swarmone/map"
child_frame_id: "swarmone/base_link"
pose: 
  pose: 
    position: 
      x: 8.19023079435e-08
      y: 2.79641243086e-06
      z: 0.0
    orientation: 
      x: 0.0
      y: 0.0
      z: 0.696135241499
      w: 0.717910666827
  covariance: [38173312981.700615, -1048365311.9174105, 0.0, 0.0, 0.0, -3.2425855860656245e-22, -1048365311.9174085, 28792378.19003123, 0.0, 0.0, 0.0, 9.988546816107984e-24, 0.0, 0.0, 4.999751048747133e-07, -1.8482126053674384e-28, -1.5005808433078986e-24, 0.0, 0.0, 0.0, -1.8482126053674386e-28, 4.999751048876316e-07, -3.203446226716909e-35, 0.0, 0.0, 0.0, -1.5005808433078986e-24, 3.203443995201575e-35, 4.999751048876316e-07, 0.0, -3.242585586065624e-22, 9.988546816107985e-24, 0.0, 0.0, 0.0, 9.999980091994357e-10]
twist: 
  twist: 
    linear: 
      x: 7.21930928828e-09
      y: 0.0
      z: 0.0
    angular: 
      x: 0.0
      y: 0.0
      z: 0.0399999999996
  covariance: [0.01110059867106118, 0.0, 0.0, 0.0, 0.0, 0.0, 0.0, 1789647.028606275, 0.0, 0.0, 0.0, 0.0, 0.0, 0.0, 4.999975101914245e-07, -2.124344935597905e-34, -6.542724916675582e-36, 0.0, 0.0, 0.0, -2.124344935597905e-34, 4.999751048502056e-07, -2.8710825819700556e-39, 0.0, 0.0, 0.0, -6.542724916675585e-36, 2.8524461117946527e-39, 4.999751048502056e-07, 0.0, 0.0, 0.0, 0.0, 0.0, 0.0, 9.999999004506377e-10]
---
header: 
  seq: 3773
  stamp: 
    secs: 1518208276
    nsecs: 435068846
  frame_id: "swarmone/map"
child_frame_id: "swarmone/base_link"
pose: 
  pose: 
    position: 
      x: 8.19207508043e-08
      y: 2.79700695105e-06
      z: 0.0
    orientation: 
      x: 0.0
      y: 0.0
      z: 0.696135241499
      w: 0.717910666826
  covariance: [38223825083.56729, -1049836344.2782227, 0.0, 0.0, 0.0, -1.0449372257182495e-22, -1049836344.2782208, 28835075.14474038, 0.0, 0.0, 0.0, 3.218971887864841e-24, 0.0, 0.0, 4.999749467475518e-07, -1.332876718681462e-28, -1.0889649398807887e-24, 0.0, 0.0, 0.0, -1.3328767186814613e-28, 4.999749467545528e-07, 3.244746746121483e-35, 0.0, 0.0, 0.0, -1.0889649398807887e-24, -3.244747888615722e-35, 4.999749467545528e-07, 0.0, -1.0449372257182495e-22, 3.218971887864841e-24, 0.0, 0.0, 0.0, 9.999979958995028e-10]
twist: 
  twist: 
    linear: 
      x: 6.34193894075e-09
      y: 0.0
      z: 0.0
    angular: 
      x: 0.0
      y: 0.0
      z: 0.0399999999999
  covariance: [0.011024106661639754, 0.0, 0.0, 0.0, 0.0, 0.0, 0.0, 1791067.6083608863, 0.0, 0.0, 0.0, 0.0, 0.0, 0.0, 4.999974944126167e-07, -3.8607982687638745e-35, -1.188496573208908e-36, 0.0, 0.0, 0.0, -3.860798268763877e-35, 4.999749467239256e-07, 3.705305205301165e-39, 0.0, 0.0, 0.0, -1.1884965732089085e-36, -3.706271171926833e-39, 4.999749467239256e-07, 0.0, 0.0, 0.0, 0.0, 0.0, 0.0, 9.999998997913503e-10]
---
header: 
  seq: 3774
  stamp: 
    secs: 1518208276
    nsecs: 534831762
  frame_id: "swarmone/map"
child_frame_id: "swarmone/base_link"
pose: 
  pose: 
    position: 
      x: 8.19404129794e-08
      y: 2.79764537705e-06
      z: 0.0
    orientation: 
      x: 0.0
      y: 0.0
      z: 0.692537008679
      w: 0.721382347726
  covariance: [38274376020.063156, -1051308536.858152, 0.0, 0.0, 0.0, -2.957633030803046e-22, -1051308536.8581504, 28877806.932841595, 0.0, 0.0, 0.0, 9.11075386014889e-24, 0.0, 0.0, 4.999749323495165e-07, -1.6415654619079975e-28, -1.3420059057125782e-24, 0.0, 0.0, 0.0, -1.641565461907998e-28, 4.999749323627099e-07, -1.949152840307349e-34, 0.0, 0.0, 0.0, -1.3420059057125785e-24, 1.9491526653542356e-34, 4.999749323627099e-07, 0.0, -2.957633030803046e-22, 9.110753860148891e-24, 0.0, 0.0, 0.0, 9.999979954398778e-10]
twist: 
  twist: 
    linear: 
      x: 6.34721544495e-09
      y: 0.0
      z: 0.0
    angular: 
      x: 0.0
      y: 0.0
      z: 0.0399999999987
  covariance: [0.011016954489723042, 0.0, 0.0, 0.0, 0.0, 0.0, 0.0, 1792488.5286716302, 0.0, 0.0, 0.0, 0.0, 0.0, 0.0, 4.999974929338524e-07, -1.983867870965626e-34, -6.110134338495075e-36, 0.0, 0.0, 0.0, -1.9838678709656253e-34, 4.999749323249931e-07, -6.422686700616498e-39, 0.0, 0.0, 0.0, -6.110134338495071e-36, 6.406613328659283e-39, 4.999749323249931e-07, 0.0, 0.0, 0.0, 0.0, 0.0, 0.0, 9.99999899762369e-10]
---
header: 
  seq: 3775
  stamp: 
    secs: 1518208276
    nsecs: 635297537
  frame_id: "swarmone/map"
child_frame_id: "swarmone/base_link"
pose: 
  pose: 
    position: 
      x: 8.19643236243e-08
      y: 2.79822581074e-06
      z: 0.0
    orientation: 
      x: 0.0
      y: 0.0
      z: 0.696135234353
      w: 0.717910673755
  covariance: [38325318883.684395, -1053047367.9161174, 0.0, 0.0, 0.0, -9.481033481765548e-23, -1053047367.9161155, 28934881.640101265, 0.0, 0.0, 0.0, 3.8699923390520256e-24, 0.0, 0.0, 4.999751149392551e-07, -1.6383177087739923e-28, -1.0037707591803191e-24, 0.0, 0.0, 0.0, -1.6383177087739927e-28, 4.999751149459753e-07, -9.603955324759155e-35, 0.0, 0.0, 0.0, -1.0037707591803191e-24, 9.603953990359443e-35, 4.999751149459753e-07, 0.0, -9.481033481765548e-23, 3.8699923390520256e-24, 0.0, 0.0, 0.0, 9.99998009343179e-10]
twist: 
  twist: 
    linear: 
      x: 5.91252354578e-09
      y: 0.0
      z: 0.0
    angular: 
      x: 0.0
      y: 0.0
      z: 0.0400000000002
  covariance: [0.011105697758717713, 0.0, 0.0, 0.0, 0.0, 0.0, 0.0, 1793920.2190462141, 0.0, 0.0, 0.0, 0.0, 0.0, 0.0, 4.999975112364612e-07, -3.350031381559774e-35, -1.3658874219980524e-36, 0.0, 0.0, 0.0, -3.350031381559774e-35, 4.999751149156676e-07, -7.890619828924422e-39, 0.0, 0.0, 0.0, -1.3658874219980538e-36, 7.889661343934901e-39, 4.999751149156676e-07, 0.0, 0.0, 0.0, 0.0, 0.0, 0.0, 9.999999004636346e-10]
---
header: 
  seq: 3776
  stamp: 
    secs: 1518208276
    nsecs: 735195398
  frame_id: "swarmone/map"
child_frame_id: "swarmone/base_link"
pose: 
  pose: 
    position: 
      x: 8.19734060035e-08
      y: 2.79851644796e-06
      z: 0.0
    orientation: 
      x: 0.0
      y: 0.0
      z: 0.699716071053
      w: 0.714421038261
  covariance: [38376045724.2246, -1054525014.8299505, 0.0, 0.0, 0.0, -6.158826005866544e-23, -1054525014.8299484, 28977782.335033502, 0.0, 0.0, 0.0, 1.897255860024896e-24, 0.0, 0.0, 4.999749734634668e-07, -8.031858674836742e-29, -6.55507450978368e-25, 0.0, 0.0, 0.0, -8.031858674836743e-29, 4.999749734702687e-07, -6.475983479294016e-35, 0.0, 0.0, 0.0, -6.555074509783682e-25, 6.47598307589948e-35, 4.999749734702687e-07, 0.0, -6.158826005866545e-23, 1.8972558600248958e-24, 0.0, 0.0, 0.0, 9.999979980261078e-10]
twist: 
  twist: 
    linear: 
      x: 3.73373932107e-09
      y: 0.0
      z: 0.0
    angular: 
      x: 0.0
      y: 0.0
      z: 0.0400000000002
  covariance: [0.011036995275593691, 0.0, 0.0, 0.0, 0.0, 0.0, 0.0, 1795344.572054422, 0.0, 0.0, 0.0, 0.0, 0.0, 0.0, 4.999974970859713e-07, -2.2596705266609764e-35, -6.9562080877627755e-37, 0.0, 0.0, 0.0, -2.259670526660976e-35, 4.999749734398799e-07, 1.4290974930367232e-39, 0.0, 0.0, 0.0, -6.956208087762774e-37, -1.4294762436620907e-39, 4.999749734398799e-07, 0.0, 0.0, 0.0, 0.0, 0.0, 0.0, 9.999998998977766e-10]
---
header: 
  seq: 3777
  stamp: 
    secs: 1518208276
    nsecs: 835014820
  frame_id: "swarmone/map"
child_frame_id: "swarmone/base_link"
pose: 
  pose: 
    position: 
      x: 8.1993545218e-08
      y: 2.7994114338e-06
      z: 0.0
    orientation: 
      x: 0.0
      y: 0.0
      z: 0.69613524869
      w: 0.717910659853
